{"type": "FeatureCollection", "features": [{"type": "Feature", "properties": {"osm_id": 793565812, "name": "", "category": "restaurant", "poi_type": "demand", "tags": {"amenity": "restaurant"}}, "geometry": {"type": "Point", "coordinates": [106.5658287, 29.564112]}}, {"type": "Feature", "properties": {"osm_id": 1633754235, "name": "学生二食堂", "category": "restaurant", "poi_type": "demand", "tags": {"amenity": "restaurant", "name": "学生二食堂"}}, "geometry": {"type": "Point", "coordinates": [106.5062977, 29.536844]}}, {"type": "Feature", "properties": {"osm_id": 1633754248, "name": "学生一食堂", "category": "restaurant", "poi_type": "demand", "tags": {"amenity": "restaurant", "name": "学生一食堂"}}, "geometry": {"type": "Point", "coordinates": [106.5038834, 29.53711]}}, {"type": "Feature", "properties": {"osm_id": 1866825426, "name": "Lotus", "category": "supermarket", "poi_type": "demand", "tags": {"name": "Lotus", "shop": "supermarket"}}, "geometry": {"type": "Point", "coordinates": [106.5672003, 29.5569458]}}, {"type": "Feature", "properties": {"osm_id": 1866825427, "name": "永辉超市", "category": "supermarket", "poi_type": "demand", "tags": {"name": "永辉超市", "name:en": "Yonghui Superstores", "name:zh": "永辉超市", "shop": "supermarket"}}, "geometry": {"type": "Point", "coordinates": [106.5703877, 29.5568539]}}, {"type": "Feature", "properties": {"osm_id": 2392272773, "name": "星巴克", "category": "cafe", "poi_type": "demand", "tags": {"amenity": "cafe", "name": "星巴克", "name:en": "Starbucks", "name:zh": "星巴克"}}, "geometry": {"type": "Point", "coordinates": [106.5752645, 29.5628926]}}, {"type": "Feature", "properties": {"osm_id": 2392272774, "name": "肯德基", "category": "fast_food", "poi_type": "demand", "tags": {"addr:street": "民族路 Minzu Road", "amenity": "fast_food", "name": "肯德基", "name:en": "KFC", "name:zh": "肯德基"}}, "geometry": {"type": "Point", "coordinates": [106.5732221, 29.559743]}}, {"type": "Feature", "properties": {"osm_id": 2392272776, "name": "乡村基", "category": "fast_food", "poi_type": "demand", "tags": {"amenity": "fast_food", "name": "乡村基", "name:en": "CSC", "name:zh": "乡村基"}}, "geometry": {"type": "Point", "coordinates": [106.5728469, 29.56179]}}, {"type": "Feature", "properties": {"osm_id": 2392272778, "name": "星巴克", "category": "cafe", "poi_type": "demand", "tags": {"addr:street": "中华路 Zhonghua Road", "amenity": "cafe", "name": "星巴克", "name:en": "Starbucks", "name:zh": "星巴克"}}, "geometry": {"type": "Point", "coordinates": [106.570922, 29.5595365]}}, {"type": "Feature", "properties": {"osm_id": 2392272779, "name": "星巴克", "category": "cafe", "poi_type": "demand", "tags": {"amenity": "cafe", "name": "星巴克", "name:en": "Starbucks", "name:zh": "星巴克"}}, "geometry": {"type": "Point", "coordinates": [106.5748846, 29.5647644]}}, {"type": "Feature", "properties": {"osm_id": 2392272780, "name": "赛百味", "category": "fast_food", "poi_type": "demand", "tags": {"amenity": "fast_food", "name": "赛百味", "name:en": "Subway", "name:zh": "赛百味"}}, "geometry": {"type": "Point", "coordinates": [106.5749241, 29.5649363]}}, {"type": "Feature", "properties": {"osm_id": 3998410113, "name": "罗森", "category": "convenience", "poi_type": "demand", "tags": {"name": "罗森", "name:en": "Lawson", "name:zh": "罗森", "shop": "convenience"}}, "geometry": {"type": "Point", "coordinates": [106.5738218, 29.5564205]}}, {"type": "Feature", "properties": {"osm_id": 3998410115, "name": "新世界超市", "category": "supermarket", "poi_type": "demand", "tags": {"name": "新世界超市", "name:en": "Xin Shijie Supermarket", "name:zh": "新世界超市", "shop": "supermarket"}}, "geometry": {"type": "Point", "coordinates": [106.5719312, 29.5586958]}}, {"type": "Feature", "properties": {"osm_id": 4135242190, "name": "太平洋咖啡", "category": "cafe", "poi_type": "demand", "tags": {"amenity": "cafe", "name": "太平洋咖啡", "name:en": "Pacific Coffee", "name:zh": "太平洋咖啡"}}, "geometry": {"type": "Point", "coordinates": [106.5726563, 29.5585357]}}, {"type": "Feature", "properties": {"osm_id": 4139797189, "name": "", "category": "supermarket", "poi_type": "demand", "tags": {"shop": "supermarket"}}, "geometry": {"type": "Point", "coordinates": [106.550121, 29.5572735]}}, {"type": "Feature", "properties": {"osm_id": 4139951894, "name": "7-Eleven", "category": "convenience", "poi_type": "demand", "tags": {"name": "7-Eleven", "shop": "convenience"}}, "geometry": {"type": "Point", "coordinates": [106.5759595, 29.5613194]}}, {"type": "Feature", "properties": {"osm_id": 4139951895, "name": "火锅米线飞", "category": "restaurant", "poi_type": "demand", "tags": {"amenity": "restaurant", "name": "火锅米线飞"}}, "geometry": {"type": "Point", "coordinates": [106.5759284, 29.561847]}}, {"type": "Feature", "properties": {"osm_id": 4139951904, "name": "7-Eleven", "category": "convenience", "poi_type": "demand", "tags": {"name": "7-Eleven", "shop": "convenience"}}, "geometry": {"type": "Point", "coordinates": [106.5729567, 29.5616229]}}, {"type": "Feature", "properties": {"osm_id": 4139951905, "name": "鲜果优", "category": "convenience", "poi_type": "demand", "tags": {"name": "鲜果优", "name:en": "Freshmix", "shop": "convenience"}}, "geometry": {"type": "Point", "coordinates": [106.5727336, 29.5618125]}}, {"type": "Feature", "properties": {"osm_id": 4139951953, "name": "王府井百货", "category": "mall", "poi_type": "demand", "tags": {"name": "王府井百货", "shop": "mall"}}, "geometry": {"type": "Point", "coordinates": [106.5745456, 29.5620146]}}, {"type": "Feature", "properties": {"osm_id": 4139951954, "name": "必胜客", "category": "restaurant", "poi_type": "demand", "tags": {"amenity": "restaurant", "name": "必胜客", "name:en": "Pizza Hut", "name:zh": "必胜客"}}, "geometry": {"type": "Point", "coordinates": [106.5753025, 29.562156]}}, {"type": "Feature", "properties": {"osm_id": 4139951983, "name": "丘二馆", "category": "restaurant", "poi_type": "demand", "tags": {"amenity": "restaurant", "name": "丘二馆"}}, "geometry": {"type": "Point", "coordinates": [106.5740459, 29.5585258]}}, {"type": "Feature", "properties": {"osm_id": 4139952092, "name": "瑞富购物中心", "category": "mall", "poi_type": "demand", "tags": {"name": "瑞富购物中心", "shop": "mall"}}, "geometry": {"type": "Point", "coordinates": [106.5722251, 29.5578894]}}, {"type": "Feature", "properties": {"osm_id": 4143850847, "name": "段记烤鱼", "category": "restaurant", "poi_type": "demand", "tags": {"amenity": "restaurant", "name": "段记烤鱼"}}, "geometry": {"type": "Point", "coordinates": [106.552687, 29.5606968]}}, {"type": "Feature", "properties": {"osm_id": 4150419392, "name": "星巴克", "category": "cafe", "poi_type": "demand", "tags": {"amenity": "cafe", "name": "星巴克", "name:en": "Starbucks", "name:zh": "星巴克"}}, "geometry": {"type": "Point", "coordinates": [106.5727097, 29.5607251]}}, {"type": "Feature", "properties": {"osm_id": 4150438789, "name": "汉堡王", "category": "fast_food", "poi_type": "demand", "tags": {"amenity": "fast_food", "name": "汉堡王", "name:en": "Burger King", "name:zh": "汉堡王"}}, "geometry": {"type": "Point", "coordinates": [106.572282, 29.5605566]}}, {"type": "Feature", "properties": {"osm_id": 4208598732, "name": "肯德基", "category": "fast_food", "poi_type": "demand", "tags": {"amenity": "fast_food", "name": "肯德基", "name:en": "KFC", "name:zh": "肯德基"}}, "geometry": {"type": "Point", "coordinates": [106.5721618, 29.5565486]}}, {"type": "Feature", "properties": {"osm_id": 4208598806, "name": "太平洋咖啡", "category": "cafe", "poi_type": "demand", "tags": {"amenity": "cafe", "name": "太平洋咖啡", "name:en": "Pacific Coffee", "name:zh": "太平洋咖啡"}}, "geometry": {"type": "Point", "coordinates": [106.573319, 29.5579454]}}, {"type": "Feature", "properties": {"osm_id": 4208598808, "name": "德克士", "category": "fast_food", "poi_type": "demand", "tags": {"amenity": "fast_food", "name": "德克士", "name:en": "Dicos", "name:zh": "德克士"}}, "geometry": {"type": "Point", "coordinates": [106.5732455, 29.5577504]}}, {"type": "Feature", "properties": {"osm_id": 4460519589, "name": "赵二火锅总店", "category": "restaurant", "poi_type": "demand", "tags": {"amenity": "restaurant", "name": "赵二火锅总店", "name:en": "Zhao Er Huo Guo Zong Dian"}}, "geometry": {"type": "Point", "coordinates": [106.5800949, 29.5586155]}}, {"type": "Feature", "properties": {"osm_id": 4813310823, "name": "", "category": "restaurant", "poi_type": "demand", "tags": {"addr:street": "石灰市", "amenity": "restaurant", "name:en": "Japanese Restaurant"}}, "geometry": {"type": "Point", "coordinates": [106.5688207, 29.557497]}}, {"type": "Feature", "properties": {"osm_id": 5211342422, "name": "", "category": "restaurant", "poi_type": "demand", "tags": {"amenity": "restaurant"}}, "geometry": {"type": "Point", "coordinates": [106.5671834, 29.5521346]}}, {"type": "Feature", "properties": {"osm_id": 5341106732, "name": "星巴克", "category": "cafe", "poi_type": "demand", "tags": {"amenity": "cafe", "name": "星巴克", "name:en": "Starbucks", "name:zh": "星巴克"}}, "geometry": {"type": "Point", "coordinates": [106.5122593, 29.5433318]}}, {"type": "Feature", "properties": {"osm_id": 5458158321, "name": "齊齊鱔魚火鍋", "category": "restaurant", "poi_type": "demand", "tags": {"amenity": "restaurant", "name": "齊齊鱔魚火鍋"}}, "geometry": {"type": "Point", "coordinates": [106.5682423, 29.5631829]}}, {"type": "Feature", "properties": {"osm_id": 5706998452, "name": "", "category": "fast_food", "poi_type": "demand", "tags": {"amenity": "fast_food", "name:en": "Burger King"}}, "geometry": {"type": "Point", "coordinates": [106.5747208, 29.5540028]}}, {"type": "Feature", "properties": {"osm_id": 5706999243, "name": "", "category": "convenience", "poi_type": "demand", "tags": {"name:en": "OurHours", "shop": "convenience"}}, "geometry": {"type": "Point", "coordinates": [106.5492318, 29.5568638]}}, {"type": "Feature", "properties": {"osm_id": 5707000124, "name": "", "category": "convenience", "poi_type": "demand", "tags": {"shop": "convenience"}}, "geometry": {"type": "Point", "coordinates": [106.5640575, 29.562841]}}, {"type": "Feature", "properties": {"osm_id": 5915047285, "name": "赛百味", "category": "fast_food", "poi_type": "demand", "tags": {"amenity": "fast_food", "name": "赛百味", "name:en": "Subway", "name:zh": "赛百味"}}, "geometry": {"type": "Point", "coordinates": [106.5742639, 29.5630822]}}, {"type": "Feature", "properties": {"osm_id": 6874556527, "name": "罗森", "category": "convenience", "poi_type": "demand", "tags": {"name": "罗森", "name:en": "Lawson", "name:zh": "罗森", "shop": "convenience"}}, "geometry": {"type": "Point", "coordinates": [106.5431571, 29.5646924]}}, {"type": "Feature", "properties": {"osm_id": 6874569386, "name": "罗森", "category": "convenience", "poi_type": "demand", "tags": {"name": "罗森", "name:en": "LAOSON", "name:zh": "罗森", "shop": "convenience"}}, "geometry": {"type": "Point", "coordinates": [106.5756869, 29.5612466]}}, {"type": "Feature", "properties": {"osm_id": 6874569387, "name": "麦当劳", "category": "fast_food", "poi_type": "demand", "tags": {"amenity": "fast_food", "name": "麦当劳", "name:en": "McDonald's", "name:zh": "麦当劳"}}, "geometry": {"type": "Point", "coordinates": [106.5751398, 29.5610483]}}, {"type": "Feature", "properties": {"osm_id": 7544707416, "name": "海底捞火锅", "category": "restaurant", "poi_type": "demand", "tags": {"amenity": "restaurant", "name": "海底捞火锅", "name:en": "Haidilao Hot Pot", "name:zh": "海底捞火锅"}}, "geometry": {"type": "Point", "coordinates": [106.5841688, 29.5681182]}}, {"type": "Feature", "properties": {"osm_id": 7570757992, "name": "", "category": "restaurant", "poi_type": "demand", "tags": {"amenity": "restaurant"}}, "geometry": {"type": "Point", "coordinates": [106.5734875, 29.5651882]}}, {"type": "Feature", "properties": {"osm_id": 7578168406, "name": "必胜客", "category": "restaurant", "poi_type": "demand", "tags": {"amenity": "restaurant", "name": "必胜客", "name:en": "Pizza Hut", "name:zh": "必胜客"}}, "geometry": {"type": "Point", "coordinates": [106.5747251, 29.562419]}}, {"type": "Feature", "properties": {"osm_id": 7578200726, "name": "星巴克", "category": "cafe", "poi_type": "demand", "tags": {"amenity": "cafe", "name": "星巴克", "name:en": "Starbucks", "name:zh": "星巴克"}}, "geometry": {"type": "Point", "coordinates": [106.5731594, 29.5612845]}}, {"type": "Feature", "properties": {"osm_id": 7578235325, "name": "喜茶", "category": "cafe", "poi_type": "demand", "tags": {"amenity": "cafe", "name": "喜茶", "name:en": "Heytea", "name:zh": "喜茶"}}, "geometry": {"type": "Point", "coordinates": [106.5726636, 29.5612961]}}, {"type": "Feature", "properties": {"osm_id": 8106182183, "name": "大正小商品市场", "category": "marketplace", "poi_type": "demand", "tags": {"amenity": "marketplace", "name": "大正小商品市场", "name:en": "Taisho Market"}}, "geometry": {"type": "Point", "coordinates": [106.5810661, 29.5644556]}}, {"type": "Feature", "properties": {"osm_id": 8106182214, "name": "天门商场", "category": "mall", "poi_type": "demand", "tags": {"name": "天门商场", "name:en": "Tianmen Mall", "shop": "mall"}}, "geometry": {"type": "Point", "coordinates": [106.5821014, 29.5641069]}}, {"type": "Feature", "properties": {"osm_id": 8441264117, "name": "夜福火锅", "category": "restaurant", "poi_type": "demand", "tags": {"amenity": "restaurant", "name": "夜福火锅", "name:en": "Fuye Hot Pot"}}, "geometry": {"type": "Point", "coordinates": [106.5677518, 29.563061]}}, {"type": "Feature", "properties": {"osm_id": 8574694267, "name": "新世纪百货", "category": "convenience", "poi_type": "demand", "tags": {"name": "新世纪百货", "shop": "convenience"}}, "geometry": {"type": "Point", "coordinates": [106.5429215, 29.5608799]}}, {"type": "Feature", "properties": {"osm_id": 8574694276, "name": "陈姐老火锅", "category": "restaurant", "poi_type": "demand", "tags": {"amenity": "restaurant", "name": "陈姐老火锅"}}, "geometry": {"type": "Point", "coordinates": [106.543774, 29.5613507]}}, {"type": "Feature", "properties": {"osm_id": 8574694277, "name": "莱得快", "category": "restaurant", "poi_type": "demand", "tags": {"amenity": "restaurant", "name": "莱得快"}}, "geometry": {"type": "Point", "coordinates": [106.5438755, 29.5614092]}}, {"type": "Feature", "properties": {"osm_id": 8574694279, "name": "粗布印象", "category": "convenience", "poi_type": "demand", "tags": {"name": "粗布印象", "shop": "convenience"}}, "geometry": {"type": "Point", "coordinates": [106.5442702, 29.5615359]}}, {"type": "Feature", "properties": {"osm_id": 8574694309, "name": "水城特色羊肉粉", "category": "restaurant", "poi_type": "demand", "tags": {"amenity": "restaurant", "name": "水城特色羊肉粉"}}, "geometry": {"type": "Point", "coordinates": [106.5433757, 29.5611229]}}, {"type": "Feature", "properties": {"osm_id": 8574694315, "name": "吉友豆花饭", "category": "fast_food", "poi_type": "demand", "tags": {"addr:street": "美专校街", "amenity": "fast_food", "name": "吉友豆花饭"}}, "geometry": {"type": "Point", "coordinates": [106.5434203, 29.5612698]}}, {"type": "Feature", "properties": {"osm_id": 8574694316, "name": "鼎锅羊鼎食居", "category": "restaurant", "poi_type": "demand", "tags": {"amenity": "restaurant", "name": "鼎锅羊鼎食居"}}, "geometry": {"type": "Point", "coordinates": [106.5435721, 29.5613144]}}, {"type": "Feature", "properties": {"osm_id": 8574699817, "name": "周家大连水饺", "category": "restaurant", "poi_type": "demand", "tags": {"amenity": "restaurant", "name": "周家大连水饺"}}, "geometry": {"type": "Point", "coordinates": [106.5436356, 29.5613193]}}, {"type": "Feature", "properties": {"osm_id": 8574699851, "name": "新世纪百货", "category": "convenience", "poi_type": "demand", "tags": {"addr:street": "美专校街", "name": "新世纪百货", "shop": "convenience"}}, "geometry": {"type": "Point", "coordinates": [106.543059, 29.5611181]}}, {"type": "Feature", "properties": {"osm_id": 8575296570, "name": "华莱士汉堡店", "category": "fast_food", "poi_type": "demand", "tags": {"amenity": "fast_food", "name": "华莱士汉堡店"}}, "geometry": {"type": "Point", "coordinates": [106.5438833, 29.5616432]}}, {"type": "Feature", "properties": {"osm_id": 8575296573, "name": "长寿肥肠饭", "category": "restaurant", "poi_type": "demand", "tags": {"amenity": "restaurant", "name": "长寿肥肠饭"}}, "geometry": {"type": "Point", "coordinates": [106.5440355, 29.5616887]}}, {"type": "Feature", "properties": {"osm_id": 8575296574, "name": "绝味鸭脖", "category": "restaurant", "poi_type": "demand", "tags": {"amenity": "restaurant", "name": "绝味鸭脖"}}, "geometry": {"type": "Point", "coordinates": [106.5440825, 29.5616974]}}, {"type": "Feature", "properties": {"osm_id": 8575296576, "name": "董记山城碗碗香", "category": "restaurant", "poi_type": "demand", "tags": {"amenity": "restaurant", "name": "董记山城碗碗香"}}, "geometry": {"type": "Point", "coordinates": [106.5438049, 29.5616315]}}, {"type": "Feature", "properties": {"osm_id": 8575594497, "name": "海宁皮草城", "category": "convenience", "poi_type": "demand", "tags": {"name": "海宁皮草城", "shop": "convenience"}}, "geometry": {"type": "Point", "coordinates": [106.5796204, 29.5628599]}}, {"type": "Feature", "properties": {"osm_id": 11392171669, "name": "学田湾大阳沟菜市场", "category": "supermarket", "poi_type": "demand", "tags": {"name": "学田湾大阳沟菜市场", "shop": "supermarket"}}, "geometry": {"type": "Point", "coordinates": [106.5486765, 29.5623627]}}, {"type": "Feature", "properties": {"osm_id": 11401036652, "name": "群益便利店", "category": "convenience", "poi_type": "demand", "tags": {"name": "群益便利店", "shop": "convenience"}}, "geometry": {"type": "Point", "coordinates": [106.5388549, 29.5552898]}}, {"type": "Feature", "properties": {"osm_id": 11403386223, "name": "饭粑砣", "category": "restaurant", "poi_type": "demand", "tags": {"amenity": "restaurant", "name": "饭粑砣"}}, "geometry": {"type": "Point", "coordinates": [106.5711526, 29.5555746]}}, {"type": "Feature", "properties": {"osm_id": 11727734283, "name": "", "category": "convenience", "poi_type": "demand", "tags": {"shop": "convenience"}}, "geometry": {"type": "Point", "coordinates": [106.5701491, 29.5642767]}}, {"type": "Feature", "properties": {"osm_id": 11727734305, "name": "一只酸奶牛", "category": "cafe", "poi_type": "demand", "tags": {"amenity": "cafe", "name": "一只酸奶牛"}}, "geometry": {"type": "Point", "coordinates": [106.5747067, 29.5645323]}}, {"type": "Feature", "properties": {"osm_id": 11860293363, "name": "8号便利店", "category": "convenience", "poi_type": "demand", "tags": {"name": "8号便利店", "shop": "convenience"}}, "geometry": {"type": "Point", "coordinates": [106.5285349, 29.5512587]}}, {"type": "Feature", "properties": {"osm_id": 11994722905, "name": "虎头岩社区食堂", "category": "restaurant", "poi_type": "demand", "tags": {"amenity": "restaurant", "name": "虎头岩社区食堂"}}, "geometry": {"type": "Point", "coordinates": [106.494108, 29.5519185]}}, {"type": "Feature", "properties": {"osm_id": 12020336069, "name": "Galerie ROBINSON", "category": "supermarket", "poi_type": "demand", "tags": {"name": "Galerie ROBINSON", "shop": "supermarket"}}, "geometry": {"type": "Point", "coordinates": [106.5617819, 29.5575816]}}, {"type": "Feature", "properties": {"osm_id": 12118263960, "name": "憩茶", "category": "cafe", "poi_type": "demand", "tags": {"amenity": "cafe", "name": "憩茶"}}, "geometry": {"type": "Point", "coordinates": [106.5266725, 29.5508473]}}, {"type": "Feature", "properties": {"osm_id": 12249097578, "name": "林食天便当(时代天街店)", "category": "restaurant", "poi_type": "demand", "tags": {"amenity": "restaurant", "name": "林食天便当(时代天街店)"}}, "geometry": {"type": "Point", "coordinates": [106.5064028, 29.5398478]}}, {"type": "Feature", "properties": {"osm_id": 12250851023, "name": "唐不甜老火锅", "category": "restaurant", "poi_type": "demand", "tags": {"amenity": "restaurant", "name": "唐不甜老火锅"}}, "geometry": {"type": "Point", "coordinates": [106.5781036, 29.5634874]}}, {"type": "Feature", "properties": {"osm_id": 12293982274, "name": "陌宁便利店", "category": "convenience", "poi_type": "demand", "tags": {"name": "陌宁便利店", "shop": "convenience"}}, "geometry": {"type": "Point", "coordinates": [106.5841954, 29.5633115]}}, {"type": "Feature", "properties": {"osm_id": 12294008827, "name": "沙县小吃", "category": "restaurant", "poi_type": "demand", "tags": {"amenity": "restaurant", "name": "沙县小吃"}}, "geometry": {"type": "Point", "coordinates": [106.5742897, 29.5532033]}}, {"type": "Feature", "properties": {"osm_id": 12294008828, "name": "碗碗菜", "category": "restaurant", "poi_type": "demand", "tags": {"amenity": "restaurant", "name": "碗碗菜"}}, "geometry": {"type": "Point", "coordinates": [106.5742836, 29.553237]}}, {"type": "Feature", "properties": {"osm_id": 12294008829, "name": "重庆特色小面", "category": "restaurant", "poi_type": "demand", "tags": {"amenity": "restaurant", "name": "重庆特色小面"}}, "geometry": {"type": "Point", "coordinates": [106.5743014, 29.5531721]}}, {"type": "Feature", "properties": {"osm_id": 12369673111, "name": "太山小馆", "category": "restaurant", "poi_type": "demand", "tags": {"amenity": "restaurant", "name": "太山小馆"}}, "geometry": {"type": "Point", "coordinates": [106.4900138, 29.5519775]}}, {"type": "Feature", "properties": {"osm_id": 12369673112, "name": "可购", "category": "convenience", "poi_type": "demand", "tags": {"name": "可购", "shop": "convenience"}}, "geometry": {"type": "Point", "coordinates": [106.4900144, 29.551968]}}, {"type": "Feature", "properties": {"osm_id": 12369673113, "name": "非凡生鲜", "category": "supermarket", "poi_type": "demand", "tags": {"name": "非凡生鲜", "shop": "supermarket"}}, "geometry": {"type": "Point", "coordinates": [106.4900142, 29.5520052]}}, {"type": "Feature", "properties": {"osm_id": 12369673125, "name": "乡村基", "category": "fast_food", "poi_type": "demand", "tags": {"amenity": "fast_food", "name": "乡村基", "name:en": "CSC", "name:zh": "乡村基"}}, "geometry": {"type": "Point", "coordinates": [106.5217154, 29.5442576]}}, {"type": "Feature", "properties": {"osm_id": 12390055750, "name": "瑞幸咖啡", "category": "cafe", "poi_type": "demand", "tags": {"amenity": "cafe", "name": "瑞幸咖啡", "name:en": "Luckin Coffee", "name:zh": "瑞幸咖啡"}}, "geometry": {"type": "Point", "coordinates": [106.5069527, 29.5402172]}}, {"type": "Feature", "properties": {"osm_id": 12466822116, "name": "", "category": "convenience", "poi_type": "demand", "tags": {"shop": "convenience"}}, "geometry": {"type": "Point", "coordinates": [106.5424973, 29.5587455]}}, {"type": "Feature", "properties": {"osm_id": 12605650409, "name": "ARTEASG", "category": "cafe", "poi_type": "demand", "tags": {"amenity": "cafe", "name": "ARTEASG"}}, "geometry": {"type": "Point", "coordinates": [106.5755179, 29.5623548]}}, {"type": "Feature", "properties": {"osm_id": 12614292953, "name": "罗森", "category": "convenience", "poi_type": "demand", "tags": {"name": "罗森", "name:en": "Lawson", "name:zh": "罗森", "shop": "convenience"}}, "geometry": {"type": "Point", "coordinates": [106.512743, 29.5434268]}}, {"type": "Feature", "properties": {"osm_id": 12730545125, "name": "星巴克", "category": "cafe", "poi_type": "demand", "tags": {"amenity": "cafe", "name": "星巴克", "name:en": "Starbucks", "name:zh": "星巴克"}}, "geometry": {"type": "Point", "coordinates": [106.5690407, 29.5596529]}}, {"type": "Feature", "properties": {"osm_id": 12757577473, "name": "星巴克", "category": "cafe", "poi_type": "demand", "tags": {"amenity": "cafe", "name": "星巴克", "name:en": "Starbucks", "name:zh": "星巴克"}}, "geometry": {"type": "Point", "coordinates": [106.5064364, 29.5413008]}}, {"type": "Feature", "properties": {"osm_id": 13043924056, "name": "", "category": "restaurant", "poi_type": "demand", "tags": {"amenity": "restaurant"}}, "geometry": {"type": "Point", "coordinates": [106.5339648, 29.5529273]}}, {"type": "Feature", "properties": {"osm_id": 13044115129, "name": "", "category": "cafe", "poi_type": "demand", "tags": {"amenity": "cafe"}}, "geometry": {"type": "Point", "coordinates": [106.5335303, 29.5528836]}}, {"type": "Feature", "properties": {"osm_id": 13147469058, "name": "", "category": "convenience", "poi_type": "demand", "tags": {"shop": "convenience"}}, "geometry": {"type": "Point", "coordinates": [106.5432139, 29.5643159]}}, {"type": "Feature", "properties": {"osm_id": 13147493223, "name": "汉堡王", "category": "fast_food", "poi_type": "demand", "tags": {"amenity": "fast_food", "name": "汉堡王", "name:en": "Burger King", "name:zh": "汉堡王"}}, "geometry": {"type": "Point", "coordinates": [106.547859, 29.5641521]}}, {"type": "Feature", "properties": {"osm_id": 13147494405, "name": "", "category": "fast_food", "poi_type": "demand", "tags": {"amenity": "fast_food"}}, "geometry": {"type": "Point", "coordinates": [106.5668678, 29.5588877]}}, {"type": "Feature", "properties": {"osm_id": 13147598156, "name": "星巴克", "category": "cafe", "poi_type": "demand", "tags": {"amenity": "cafe", "name": "星巴克", "name:en": "Starbucks", "name:zh": "星巴克"}}, "geometry": {"type": "Point", "coordinates": [106.5432079, 29.5649164]}}, {"type": "Feature", "properties": {"osm_id": 13147604538, "name": "Jiuyan", "category": "fast_food", "poi_type": "demand", "tags": {"amenity": "fast_food", "name": "Jiuyan"}}, "geometry": {"type": "Point", "coordinates": [106.5433202, 29.5654536]}}, {"type": "Feature", "properties": {"osm_id": 13147686441, "name": "", "category": "convenience", "poi_type": "demand", "tags": {"shop": "convenience"}}, "geometry": {"type": "Point", "coordinates": [106.5784607, 29.5599908]}}, {"type": "Feature", "properties": {"osm_id": 13232880677, "name": "金香译江湖菜", "category": "restaurant", "poi_type": "demand", "tags": {"addr:street": "长江一路", "amenity": "restaurant", "name": "金香译江湖菜"}}, "geometry": {"type": "Point", "coordinates": [106.5445702, 29.5552188]}}, {"type": "Feature", "properties": {"osm_id": 13232880678, "name": "万州杂酱面", "category": "restaurant", "poi_type": "demand", "tags": {"amenity": "restaurant", "name": "万州杂酱面"}}, "geometry": {"type": "Point", "coordinates": [106.5452492, 29.5551505]}}, {"type": "Feature", "properties": {"osm_id": 13232880679, "name": "渝乐居手工馄饨", "category": "restaurant", "poi_type": "demand", "tags": {"amenity": "restaurant", "name": "渝乐居手工馄饨"}}, "geometry": {"type": "Point", "coordinates": [106.5450958, 29.5551341]}}, {"type": "Feature", "properties": {"osm_id": 13232883806, "name": "第四人民医院咖啡吧", "category": "cafe", "poi_type": "demand", "tags": {"amenity": "cafe", "name": "第四人民医院咖啡吧"}}, "geometry": {"type": "Point", "coordinates": [106.5426321, 29.5551687]}}, {"type": "Feature", "properties": {"osm_id": 13273833642, "name": "", "category": "restaurant", "poi_type": "demand", "tags": {"amenity": "restaurant"}}, "geometry": {"type": "Point", "coordinates": [106.5716854, 29.5631432]}}, {"type": "Feature", "properties": {"osm_id": 13273874328, "name": "霸王茶姬", "category": "cafe", "poi_type": "demand", "tags": {"amenity": "cafe", "name": "霸王茶姬", "name:en": "Chagee", "name:zh": "霸王茶姬"}}, "geometry": {"type": "Point", "coordinates": [106.5769291, 29.5616429]}}, {"type": "Feature", "properties": {"osm_id": 13286348301, "name": "罗森", "category": "convenience", "poi_type": "demand", "tags": {"name": "罗森", "name:en": "Lawson", "name:zh": "罗森", "shop": "convenience"}}, "geometry": {"type": "Point", "coordinates": [106.570811, 29.5596969]}}, {"type": "Feature", "properties": {"osm_id": 13286382802, "name": "Busy For You (Snacks)", "category": "convenience", "poi_type": "demand", "tags": {"name": "Busy For You (Snacks)", "shop": "convenience"}}, "geometry": {"type": "Point", "coordinates": [106.5676134, 29.5565776]}}, {"type": "Feature", "properties": {"osm_id": 13286392201, "name": "麦当劳", "category": "fast_food", "poi_type": "demand", "tags": {"amenity": "fast_food", "name": "麦当劳", "name:en": "McDonald's", "name:zh": "麦当劳"}}, "geometry": {"type": "Point", "coordinates": [106.5738632, 29.5600341]}}, {"type": "Feature", "properties": {"osm_id": 13286433801, "name": "罗森", "category": "convenience", "poi_type": "demand", "tags": {"name": "罗森", "name:en": "Lawson", "name:zh": "罗森", "shop": "convenience"}}, "geometry": {"type": "Point", "coordinates": [106.5714928, 29.5583132]}}, {"type": "Feature", "properties": {"osm_id": 13288458501, "name": "麦当劳", "category": "fast_food", "poi_type": "demand", "tags": {"amenity": "fast_food", "name": "麦当劳", "name:en": "McDonald's", "name:zh": "麦当劳"}}, "geometry": {"type": "Point", "coordinates": [106.5749801, 29.5625113]}}, {"type": "Feature", "properties": {"osm_id": 13446342349, "name": "Few cafes with noodles and dumplings", "category": "cafe", "poi_type": "demand", "tags": {"amenity": "cafe", "name": "Few cafes with noodles and dumplings"}}, "geometry": {"type": "Point", "coordinates": [106.5753162, 29.558903]}}, {"type": "Feature", "properties": {"osm_id": 13447856001, "name": "noodles", "category": "cafe", "poi_type": "demand", "tags": {"amenity": "cafe", "name": "noodles"}}, "geometry": {"type": "Point", "coordinates": [106.5502329, 29.5577173]}}, {"type": "Feature", "properties": {"osm_id": 13448014935, "name": "", "category": "cafe", "poi_type": "demand", "tags": {"amenity": "cafe"}}, "geometry": {"type": "Point", "coordinates": [106.5297988, 29.5529913]}}, {"type": "Feature", "properties": {"osm_id": 13448014943, "name": "", "category": "cafe", "poi_type": "demand", "tags": {"amenity": "cafe"}}, "geometry": {"type": "Point", "coordinates": [106.5296999, 29.5532126]}}, {"type": "Feature", "properties": {"osm_id": 13449332601, "name": "", "category": "cafe", "poi_type": "demand", "tags": {"amenity": "cafe"}}, "geometry": {"type": "Point", "coordinates": [106.5759912, 29.5637214]}}, {"type": "Feature", "properties": {"osm_id": 13449374301, "name": "", "category": "cafe", "poi_type": "demand", "tags": {"amenity": "cafe"}}, "geometry": {"type": "Point", "coordinates": [106.5753194, 29.5567879]}}, {"type": "Feature", "properties": {"osm_id": 13450464801, "name": "Noodles", "category": "cafe", "poi_type": "demand", "tags": {"amenity": "cafe", "name": "Noodles"}}, "geometry": {"type": "Point", "coordinates": [106.5703533, 29.5610615]}}, {"type": "Feature", "properties": {"osm_id": 13452805401, "name": "", "category": "cafe", "poi_type": "demand", "tags": {"amenity": "cafe"}}, "geometry": {"type": "Point", "coordinates": [106.578907, 29.5652308]}}, {"type": "Feature", "properties": {"osm_id": 13513877201, "name": "", "category": "restaurant", "poi_type": "demand", "tags": {"amenity": "restaurant", "name:en": "Double noodles"}}, "geometry": {"type": "Point", "coordinates": [106.5469661, 29.5676053]}}, {"type": "Feature", "properties": {"osm_id": 13514054201, "name": "Yun Tai Tea", "category": "cafe", "poi_type": "demand", "tags": {"amenity": "cafe", "name": "Yun Tai Tea"}}, "geometry": {"type": "Point", "coordinates": [106.5685319, 29.5523257]}}, {"type": "Feature", "properties": {"osm_id": 13518833901, "name": "No 85 Creative Mansion Café", "category": "cafe", "poi_type": "demand", "tags": {"amenity": "cafe", "name": "No 85 Creative Mansion Café"}}, "geometry": {"type": "Point", "coordinates": [106.5457628, 29.5677301]}}, {"type": "Feature", "properties": {"osm_id": 13518920301, "name": "", "category": "restaurant", "poi_type": "demand", "tags": {"amenity": "restaurant", "name:en": "Flying Tiger Hotpot"}}, "geometry": {"type": "Point", "coordinates": [106.5299423, 29.5532933]}}, {"type": "Feature", "properties": {"osm_id": 13519120601, "name": "MPJ TEA", "category": "cafe", "poi_type": "demand", "tags": {"amenity": "cafe", "name": "MPJ TEA"}}, "geometry": {"type": "Point", "coordinates": [106.5298048, 29.5530527]}}, {"type": "Feature", "properties": {"osm_id": 13519145102, "name": "B Bakery & Café", "category": "cafe", "poi_type": "demand", "tags": {"amenity": "cafe", "name": "B Bakery & Café"}}, "geometry": {"type": "Point", "coordinates": [106.5334679, 29.5554921]}}, {"type": "Feature", "properties": {"osm_id": 13520930101, "name": "", "category": "restaurant", "poi_type": "demand", "tags": {"amenity": "restaurant", "name:en": "Zengjiayan Community Canteen"}}, "geometry": {"type": "Point", "coordinates": [106.5449522, 29.5677775]}}, {"type": "Feature", "properties": {"osm_id": 13594241026, "name": "罗森", "category": "convenience", "poi_type": "demand", "tags": {"name": "罗森", "name:en": "Lawson", "name:zh": "罗森", "shop": "convenience"}}, "geometry": {"type": "Point", "coordinates": [106.567671, 29.5525082]}}, {"type": "Feature", "properties": {"osm_id": 13594241027, "name": "自选寿司", "category": "fast_food", "poi_type": "demand", "tags": {"amenity": "fast_food", "name": "自选寿司"}}, "geometry": {"type": "Point", "coordinates": [106.5686881, 29.5535845]}}, {"type": "Feature", "properties": {"osm_id": 13594241028, "name": "瑞幸咖啡", "category": "cafe", "poi_type": "demand", "tags": {"amenity": "cafe", "name": "瑞幸咖啡", "name:en": "Luckin Coffee", "name:zh": "瑞幸咖啡"}}, "geometry": {"type": "Point", "coordinates": [106.569064, 29.5541329]}}, {"type": "Feature", "properties": {"osm_id": 13594241033, "name": "十八梯豆花馆", "category": "fast_food", "poi_type": "demand", "tags": {"amenity": "fast_food", "name": "十八梯豆花馆"}}, "geometry": {"type": "Point", "coordinates": [106.5691566, 29.5537636]}}, {"type": "Feature", "properties": {"osm_id": 296824570, "name": "", "category": "residential", "poi_type": "demand", "tags": {"building": "residential"}}, "geometry": {"type": "Point", "coordinates": [106.5675993, 29.5609418]}}, {"type": "Feature", "properties": {"osm_id": 296824571, "name": "", "category": "residential", "poi_type": "demand", "tags": {"building": "residential"}}, "geometry": {"type": "Point", "coordinates": [106.5634405, 29.5601573]}}, {"type": "Feature", "properties": {"osm_id": 296824573, "name": "", "category": "residential", "poi_type": "demand", "tags": {"building": "residential"}}, "geometry": {"type": "Point", "coordinates": [106.5628377, 29.5596021]}}, {"type": "Feature", "properties": {"osm_id": 296824574, "name": "", "category": "residential", "poi_type": "demand", "tags": {"building": "residential"}}, "geometry": {"type": "Point", "coordinates": [106.5629253, 29.5599897]}}, {"type": "Feature", "properties": {"osm_id": 296824576, "name": "", "category": "residential", "poi_type": "demand", "tags": {"building": "residential"}}, "geometry": {"type": "Point", "coordinates": [106.562996, 29.5603536]}}, {"type": "Feature", "properties": {"osm_id": 412612145, "name": "", "category": "commercial", "poi_type": "demand", "tags": {"building": "commercial"}}, "geometry": {"type": "Point", "coordinates": [106.5740316, 29.5601997]}}, {"type": "Feature", "properties": {"osm_id": 412612148, "name": "半岛国际大厦", "category": "commercial", "poi_type": "demand", "tags": {"building": "commercial", "name": "半岛国际大厦", "name:en": "Peninsula International Mansion"}}, "geometry": {"type": "Point", "coordinates": [106.5760344, 29.5590975]}}, {"type": "Feature", "properties": {"osm_id": 412612149, "name": "", "category": "commercial", "poi_type": "demand", "tags": {"building": "commercial"}}, "geometry": {"type": "Point", "coordinates": [106.5766362, 29.5604938]}}, {"type": "Feature", "properties": {"osm_id": 412612150, "name": "", "category": "commercial", "poi_type": "demand", "tags": {"building": "commercial"}}, "geometry": {"type": "Point", "coordinates": [106.577186, 29.5601088]}}, {"type": "Feature", "properties": {"osm_id": 412612151, "name": "解放碑威斯汀酒店", "category": "commercial", "poi_type": "demand", "tags": {"addr:street": "Xinhua Road", "building": "commercial", "name": "解放碑威斯汀酒店", "name:en": "The Westin Chongqing Liberation Square"}}, "geometry": {"type": "Point", "coordinates": [106.5763791, 29.5598467]}}, {"type": "Feature", "properties": {"osm_id": 412612152, "name": "", "category": "commercial", "poi_type": "demand", "tags": {"building": "commercial"}}, "geometry": {"type": "Point", "coordinates": [106.5771858, 29.5613642]}}, {"type": "Feature", "properties": {"osm_id": 412612154, "name": "", "category": "commercial", "poi_type": "demand", "tags": {"building": "commercial"}}, "geometry": {"type": "Point", "coordinates": [106.5718595, 29.5623043]}}, {"type": "Feature", "properties": {"osm_id": 412612155, "name": "", "category": "commercial", "poi_type": "demand", "tags": {"building": "commercial"}}, "geometry": {"type": "Point", "coordinates": [106.5713415, 29.5615275]}}, {"type": "Feature", "properties": {"osm_id": 464928512, "name": "", "category": "commercial", "poi_type": "demand", "tags": {"building": "commercial"}}, "geometry": {"type": "Point", "coordinates": [106.5785484, 29.5601409]}}, {"type": "Feature", "properties": {"osm_id": 481835399, "name": "", "category": "apartments", "poi_type": "demand", "tags": {"building": "apartments"}}, "geometry": {"type": "Point", "coordinates": [106.5339113, 29.5556547]}}, {"type": "Feature", "properties": {"osm_id": 486221587, "name": "科协大厦", "category": "office", "poi_type": "demand", "tags": {"building": "office", "name": "科协大厦"}}, "geometry": {"type": "Point", "coordinates": [106.5613696, 29.5639804]}}, {"type": "Feature", "properties": {"osm_id": 583427159, "name": "天江苑", "category": "apartments", "poi_type": "demand", "tags": {"building": "apartments", "name": "天江苑"}}, "geometry": {"type": "Point", "coordinates": [106.5379624, 29.5608893]}}, {"type": "Feature", "properties": {"osm_id": 583427163, "name": "", "category": "apartments", "poi_type": "demand", "tags": {"building": "apartments"}}, "geometry": {"type": "Point", "coordinates": [106.5317892, 29.5499826]}}, {"type": "Feature", "properties": {"osm_id": 583427203, "name": "", "category": "apartments", "poi_type": "demand", "tags": {"building": "apartments"}}, "geometry": {"type": "Point", "coordinates": [106.5324576, 29.5500971]}}, {"type": "Feature", "properties": {"osm_id": 583427208, "name": "", "category": "apartments", "poi_type": "demand", "tags": {"building": "apartments"}}, "geometry": {"type": "Point", "coordinates": [106.5322895, 29.5507064]}}, {"type": "Feature", "properties": {"osm_id": 583427210, "name": "", "category": "apartments", "poi_type": "demand", "tags": {"building": "apartments"}}, "geometry": {"type": "Point", "coordinates": [106.5324403, 29.5504948]}}, {"type": "Feature", "properties": {"osm_id": 583427214, "name": "", "category": "apartments", "poi_type": "demand", "tags": {"building": "apartments"}}, "geometry": {"type": "Point", "coordinates": [106.5329679, 29.5508564]}}, {"type": "Feature", "properties": {"osm_id": 583427220, "name": "", "category": "apartments", "poi_type": "demand", "tags": {"building": "apartments"}}, "geometry": {"type": "Point", "coordinates": [106.5332161, 29.5512562]}}, {"type": "Feature", "properties": {"osm_id": 583427222, "name": "", "category": "apartments", "poi_type": "demand", "tags": {"building": "apartments"}}, "geometry": {"type": "Point", "coordinates": [106.5337356, 29.5513269]}}, {"type": "Feature", "properties": {"osm_id": 583427225, "name": "", "category": "apartments", "poi_type": "demand", "tags": {"building": "apartments"}}, "geometry": {"type": "Point", "coordinates": [106.5342941, 29.5514567]}}, {"type": "Feature", "properties": {"osm_id": 583628665, "name": "1栋", "category": "apartments", "poi_type": "demand", "tags": {"building": "apartments", "name": "1栋"}}, "geometry": {"type": "Point", "coordinates": [106.5337122, 29.5509712]}}, {"type": "Feature", "properties": {"osm_id": 583628670, "name": "", "category": "apartments", "poi_type": "demand", "tags": {"building": "apartments"}}, "geometry": {"type": "Point", "coordinates": [106.5351069, 29.5520606]}}, {"type": "Feature", "properties": {"osm_id": 583628671, "name": "", "category": "apartments", "poi_type": "demand", "tags": {"building": "apartments"}}, "geometry": {"type": "Point", "coordinates": [106.5348255, 29.5519543]}}, {"type": "Feature", "properties": {"osm_id": 583628675, "name": "", "category": "apartments", "poi_type": "demand", "tags": {"building": "apartments"}}, "geometry": {"type": "Point", "coordinates": [106.5303572, 29.5484367]}}, {"type": "Feature", "properties": {"osm_id": 583628676, "name": "", "category": "apartments", "poi_type": "demand", "tags": {"building": "apartments"}}, "geometry": {"type": "Point", "coordinates": [106.5308749, 29.548417]}}, {"type": "Feature", "properties": {"osm_id": 583628677, "name": "", "category": "apartments", "poi_type": "demand", "tags": {"building": "apartments"}}, "geometry": {"type": "Point", "coordinates": [106.531429, 29.5484174]}}, {"type": "Feature", "properties": {"osm_id": 583628678, "name": "地产大厦", "category": "commercial", "poi_type": "demand", "tags": {"building": "commercial", "name": "地产大厦"}}, "geometry": {"type": "Point", "coordinates": [106.5310391, 29.5492282]}}, {"type": "Feature", "properties": {"osm_id": 583628679, "name": "", "category": "commercial", "poi_type": "demand", "tags": {"building": "commercial"}}, "geometry": {"type": "Point", "coordinates": [106.5316404, 29.5492918]}}, {"type": "Feature", "properties": {"osm_id": 583628680, "name": "", "category": "apartments", "poi_type": "demand", "tags": {"building": "apartments"}}, "geometry": {"type": "Point", "coordinates": [106.5307864, 29.54817]}}, {"type": "Feature", "properties": {"osm_id": 583628682, "name": "", "category": "apartments", "poi_type": "demand", "tags": {"building": "apartments"}}, "geometry": {"type": "Point", "coordinates": [106.5316125, 29.547919]}}, {"type": "Feature", "properties": {"osm_id": 583628683, "name": "", "category": "apartments", "poi_type": "demand", "tags": {"building": "apartments"}}, "geometry": {"type": "Point", "coordinates": [106.5297431, 29.5513646]}}, {"type": "Feature", "properties": {"osm_id": 583628684, "name": "", "category": "apartments", "poi_type": "demand", "tags": {"building": "apartments"}}, "geometry": {"type": "Point", "coordinates": [106.5298605, 29.5517059]}}, {"type": "Feature", "properties": {"osm_id": 583628685, "name": "", "category": "apartments", "poi_type": "demand", "tags": {"building": "apartments"}}, "geometry": {"type": "Point", "coordinates": [106.5294402, 29.5515915]}}, {"type": "Feature", "properties": {"osm_id": 583628686, "name": "", "category": "apartments", "poi_type": "demand", "tags": {"building": "apartments"}}, "geometry": {"type": "Point", "coordinates": [106.5287055, 29.5513025]}}, {"type": "Feature", "properties": {"osm_id": 583628687, "name": "", "category": "apartments", "poi_type": "demand", "tags": {"building": "apartments"}}, "geometry": {"type": "Point", "coordinates": [106.529112, 29.5513258]}}, {"type": "Feature", "properties": {"osm_id": 585541370, "name": "渝亚大厦", "category": "apartments", "poi_type": "demand", "tags": {"building": "apartments", "name": "渝亚大厦"}}, "geometry": {"type": "Point", "coordinates": [106.5680323, 29.555262]}}, {"type": "Feature", "properties": {"osm_id": 704006934, "name": "", "category": "residential", "poi_type": "demand", "tags": {"building": "residential"}}, "geometry": {"type": "Point", "coordinates": [106.5679995, 29.5592649]}}, {"type": "Feature", "properties": {"osm_id": 704009350, "name": "重庆村1号", "category": "office", "poi_type": "demand", "tags": {"building": "office", "name": "重庆村1号"}}, "geometry": {"type": "Point", "coordinates": [106.5451996, 29.5572919]}}, {"type": "Feature", "properties": {"osm_id": 748940001, "name": "Haikeyingzhou", "category": "residential", "poi_type": "demand", "tags": {"addr:street": "Changjiang Binjiang Road", "building": "residential", "name": "Haikeyingzhou", "name:zh": "庆隆海客瀛洲"}}, "geometry": {"type": "Point", "coordinates": [106.5846516, 29.5643452]}}, {"type": "Feature", "properties": {"osm_id": 809248549, "name": "", "category": "apartments", "poi_type": "demand", "tags": {"building": "apartments"}}, "geometry": {"type": "Point", "coordinates": [106.5738013, 29.5546321]}}, {"type": "Feature", "properties": {"osm_id": 809248550, "name": "", "category": "apartments", "poi_type": "demand", "tags": {"building": "apartments"}}, "geometry": {"type": "Point", "coordinates": [106.5744504, 29.5549284]}}, {"type": "Feature", "properties": {"osm_id": 809248551, "name": "", "category": "apartments", "poi_type": "demand", "tags": {"building": "apartments"}}, "geometry": {"type": "Point", "coordinates": [106.5750926, 29.5553009]}}, {"type": "Feature", "properties": {"osm_id": 809248555, "name": "", "category": "residential", "poi_type": "demand", "tags": {"building": "residential"}}, "geometry": {"type": "Point", "coordinates": [106.5759594, 29.5566928]}}, {"type": "Feature", "properties": {"osm_id": 809248556, "name": "", "category": "residential", "poi_type": "demand", "tags": {"building": "residential"}}, "geometry": {"type": "Point", "coordinates": [106.576069, 29.5567882]}}, {"type": "Feature", "properties": {"osm_id": 809248562, "name": "", "category": "residential", "poi_type": "demand", "tags": {"building": "residential"}}, "geometry": {"type": "Point", "coordinates": [106.5746019, 29.556183]}}, {"type": "Feature", "properties": {"osm_id": 809248563, "name": "", "category": "residential", "poi_type": "demand", "tags": {"building": "residential"}}, "geometry": {"type": "Point", "coordinates": [106.5744463, 29.5560967]}}, {"type": "Feature", "properties": {"osm_id": 809248566, "name": "", "category": "residential", "poi_type": "demand", "tags": {"building": "residential"}}, "geometry": {"type": "Point", "coordinates": [106.5737763, 29.5558227]}}, {"type": "Feature", "properties": {"osm_id": 809248567, "name": "", "category": "residential", "poi_type": "demand", "tags": {"building": "residential"}}, "geometry": {"type": "Point", "coordinates": [106.5738603, 29.5557215]}}, {"type": "Feature", "properties": {"osm_id": 809248568, "name": "", "category": "residential", "poi_type": "demand", "tags": {"building": "residential"}}, "geometry": {"type": "Point", "coordinates": [106.5735481, 29.5556201]}}, {"type": "Feature", "properties": {"osm_id": 809248569, "name": "", "category": "residential", "poi_type": "demand", "tags": {"building": "residential"}}, "geometry": {"type": "Point", "coordinates": [106.5734187, 29.5555584]}}, {"type": "Feature", "properties": {"osm_id": 809248570, "name": "", "category": "residential", "poi_type": "demand", "tags": {"building": "residential"}}, "geometry": {"type": "Point", "coordinates": [106.5731766, 29.555434]}}, {"type": "Feature", "properties": {"osm_id": 809248571, "name": "刘湘公馆旧址", "category": "residential", "poi_type": "demand", "tags": {"building": "residential", "name": "刘湘公馆旧址"}}, "geometry": {"type": "Point", "coordinates": [106.5300681, 29.55408]}}, {"type": "Feature", "properties": {"osm_id": 809248572, "name": "", "category": "residential", "poi_type": "demand", "tags": {"building": "residential"}}, "geometry": {"type": "Point", "coordinates": [106.5287175, 29.5531737]}}, {"type": "Feature", "properties": {"osm_id": 809248577, "name": "", "category": "residential", "poi_type": "demand", "tags": {"building": "residential"}}, "geometry": {"type": "Point", "coordinates": [106.5270948, 29.553356]}}, {"type": "Feature", "properties": {"osm_id": 809248578, "name": "", "category": "residential", "poi_type": "demand", "tags": {"building": "residential"}}, "geometry": {"type": "Point", "coordinates": [106.5254466, 29.5526557]}}, {"type": "Feature", "properties": {"osm_id": 809248583, "name": "", "category": "residential", "poi_type": "demand", "tags": {"building": "residential"}}, "geometry": {"type": "Point", "coordinates": [106.5195575, 29.5514005]}}, {"type": "Feature", "properties": {"osm_id": 809248584, "name": "", "category": "residential", "poi_type": "demand", "tags": {"building": "residential"}}, "geometry": {"type": "Point", "coordinates": [106.5203109, 29.5512841]}}, {"type": "Feature", "properties": {"osm_id": 809248585, "name": "", "category": "residential", "poi_type": "demand", "tags": {"building": "residential"}}, "geometry": {"type": "Point", "coordinates": [106.5199185, 29.551307]}}, {"type": "Feature", "properties": {"osm_id": 809248589, "name": "", "category": "residential", "poi_type": "demand", "tags": {"building": "residential"}}, "geometry": {"type": "Point", "coordinates": [106.5197003, 29.5525578]}}, {"type": "Feature", "properties": {"osm_id": 809248590, "name": "", "category": "residential", "poi_type": "demand", "tags": {"building": "residential"}}, "geometry": {"type": "Point", "coordinates": [106.5195126, 29.5520538]}}, {"type": "Feature", "properties": {"osm_id": 809248591, "name": "", "category": "residential", "poi_type": "demand", "tags": {"building": "residential"}}, "geometry": {"type": "Point", "coordinates": [106.5200983, 29.5519036]}}, {"type": "Feature", "properties": {"osm_id": 809248592, "name": "", "category": "residential", "poi_type": "demand", "tags": {"building": "residential"}}, "geometry": {"type": "Point", "coordinates": [106.5205969, 29.5523661]}}, {"type": "Feature", "properties": {"osm_id": 809248593, "name": "", "category": "residential", "poi_type": "demand", "tags": {"building": "residential"}}, "geometry": {"type": "Point", "coordinates": [106.5206805, 29.5518886]}}, {"type": "Feature", "properties": {"osm_id": 809248594, "name": "", "category": "residential", "poi_type": "demand", "tags": {"building": "residential"}}, "geometry": {"type": "Point", "coordinates": [106.5211784, 29.5519209]}}, {"type": "Feature", "properties": {"osm_id": 809248595, "name": "", "category": "residential", "poi_type": "demand", "tags": {"building": "residential"}}, "geometry": {"type": "Point", "coordinates": [106.5214334, 29.5523353]}}, {"type": "Feature", "properties": {"osm_id": 809248596, "name": "", "category": "residential", "poi_type": "demand", "tags": {"building": "residential"}}, "geometry": {"type": "Point", "coordinates": [106.522027, 29.5521629]}}, {"type": "Feature", "properties": {"osm_id": 809248601, "name": "", "category": "residential", "poi_type": "demand", "tags": {"building": "residential"}}, "geometry": {"type": "Point", "coordinates": [106.5236075, 29.552539]}}, {"type": "Feature", "properties": {"osm_id": 809248602, "name": "", "category": "residential", "poi_type": "demand", "tags": {"building": "residential"}}, "geometry": {"type": "Point", "coordinates": [106.523061, 29.5524974]}}, {"type": "Feature", "properties": {"osm_id": 809271233, "name": "", "category": "residential", "poi_type": "demand", "tags": {"building": "residential"}}, "geometry": {"type": "Point", "coordinates": [106.5790973, 29.5587041]}}, {"type": "Feature", "properties": {"osm_id": 809271241, "name": "", "category": "residential", "poi_type": "demand", "tags": {"building": "residential"}}, "geometry": {"type": "Point", "coordinates": [106.5784379, 29.5579337]}}, {"type": "Feature", "properties": {"osm_id": 809271243, "name": "", "category": "residential", "poi_type": "demand", "tags": {"building": "residential"}}, "geometry": {"type": "Point", "coordinates": [106.5794033, 29.5579717]}}, {"type": "Feature", "properties": {"osm_id": 809271248, "name": "", "category": "residential", "poi_type": "demand", "tags": {"building": "residential"}}, "geometry": {"type": "Point", "coordinates": [106.5746995, 29.5591672]}}, {"type": "Feature", "properties": {"osm_id": 809271249, "name": "", "category": "residential", "poi_type": "demand", "tags": {"building": "residential"}}, "geometry": {"type": "Point", "coordinates": [106.5747643, 29.558884]}}, {"type": "Feature", "properties": {"osm_id": 809271250, "name": "", "category": "residential", "poi_type": "demand", "tags": {"building": "residential"}}, "geometry": {"type": "Point", "coordinates": [106.5744988, 29.55846]}}, {"type": "Feature", "properties": {"osm_id": 809271251, "name": "", "category": "residential", "poi_type": "demand", "tags": {"building": "residential"}}, "geometry": {"type": "Point", "coordinates": [106.572913, 29.5548702]}}, {"type": "Feature", "properties": {"osm_id": 809271252, "name": "", "category": "residential", "poi_type": "demand", "tags": {"building": "residential"}}, "geometry": {"type": "Point", "coordinates": [106.5726925, 29.5546172]}}, {"type": "Feature", "properties": {"osm_id": 809271253, "name": "", "category": "residential", "poi_type": "demand", "tags": {"building": "residential"}}, "geometry": {"type": "Point", "coordinates": [106.5722296, 29.5545207]}}, {"type": "Feature", "properties": {"osm_id": 809271254, "name": "", "category": "residential", "poi_type": "demand", "tags": {"building": "residential"}}, "geometry": {"type": "Point", "coordinates": [106.5718097, 29.5543284]}}, {"type": "Feature", "properties": {"osm_id": 809271255, "name": "", "category": "residential", "poi_type": "demand", "tags": {"building": "residential"}}, "geometry": {"type": "Point", "coordinates": [106.5718719, 29.5544994]}}, {"type": "Feature", "properties": {"osm_id": 809271256, "name": "", "category": "residential", "poi_type": "demand", "tags": {"building": "residential"}}, "geometry": {"type": "Point", "coordinates": [106.5715273, 29.5546526]}}, {"type": "Feature", "properties": {"osm_id": 809271257, "name": "", "category": "residential", "poi_type": "demand", "tags": {"building": "residential"}}, "geometry": {"type": "Point", "coordinates": [106.5715974, 29.5551112]}}, {"type": "Feature", "properties": {"osm_id": 809271258, "name": "", "category": "residential", "poi_type": "demand", "tags": {"building": "residential"}}, "geometry": {"type": "Point", "coordinates": [106.5713794, 29.5548951]}}, {"type": "Feature", "properties": {"osm_id": 809271259, "name": "", "category": "residential", "poi_type": "demand", "tags": {"building": "residential"}}, "geometry": {"type": "Point", "coordinates": [106.5718512, 29.5548756]}}, {"type": "Feature", "properties": {"osm_id": 809271262, "name": "", "category": "residential", "poi_type": "demand", "tags": {"building": "residential"}}, "geometry": {"type": "Point", "coordinates": [106.5733437, 29.5551051]}}, {"type": "Feature", "properties": {"osm_id": 809271263, "name": "", "category": "residential", "poi_type": "demand", "tags": {"building": "residential"}}, "geometry": {"type": "Point", "coordinates": [106.5735465, 29.5552139]}}, {"type": "Feature", "properties": {"osm_id": 809271264, "name": "", "category": "residential", "poi_type": "demand", "tags": {"building": "residential"}}, "geometry": {"type": "Point", "coordinates": [106.5738247, 29.555355]}}, {"type": "Feature", "properties": {"osm_id": 809271265, "name": "", "category": "residential", "poi_type": "demand", "tags": {"building": "residential"}}, "geometry": {"type": "Point", "coordinates": [106.5741336, 29.5555242]}}, {"type": "Feature", "properties": {"osm_id": 809271266, "name": "", "category": "residential", "poi_type": "demand", "tags": {"building": "residential"}}, "geometry": {"type": "Point", "coordinates": [106.5745037, 29.555733]}}, {"type": "Feature", "properties": {"osm_id": 809271268, "name": "", "category": "residential", "poi_type": "demand", "tags": {"building": "residential"}}, "geometry": {"type": "Point", "coordinates": [106.5773753, 29.5540491]}}, {"type": "Feature", "properties": {"osm_id": 809271269, "name": "", "category": "residential", "poi_type": "demand", "tags": {"building": "residential"}}, "geometry": {"type": "Point", "coordinates": [106.5772061, 29.5538965]}}, {"type": "Feature", "properties": {"osm_id": 809271270, "name": "", "category": "residential", "poi_type": "demand", "tags": {"building": "residential"}}, "geometry": {"type": "Point", "coordinates": [106.5769583, 29.5538156]}}, {"type": "Feature", "properties": {"osm_id": 809271271, "name": "", "category": "residential", "poi_type": "demand", "tags": {"building": "residential"}}, "geometry": {"type": "Point", "coordinates": [106.5767644, 29.5539681]}}, {"type": "Feature", "properties": {"osm_id": 809271272, "name": "", "category": "residential", "poi_type": "demand", "tags": {"building": "residential"}}, "geometry": {"type": "Point", "coordinates": [106.5766842, 29.5541189]}}, {"type": "Feature", "properties": {"osm_id": 809271273, "name": "", "category": "residential", "poi_type": "demand", "tags": {"building": "residential"}}, "geometry": {"type": "Point", "coordinates": [106.5767108, 29.5543361]}}, {"type": "Feature", "properties": {"osm_id": 809271275, "name": "", "category": "residential", "poi_type": "demand", "tags": {"building": "residential"}}, "geometry": {"type": "Point", "coordinates": [106.5773478, 29.555032]}}, {"type": "Feature", "properties": {"osm_id": 809271276, "name": "", "category": "residential", "poi_type": "demand", "tags": {"building": "residential"}}, "geometry": {"type": "Point", "coordinates": [106.5766248, 29.5548086]}}, {"type": "Feature", "properties": {"osm_id": 809271277, "name": "", "category": "residential", "poi_type": "demand", "tags": {"building": "residential"}}, "geometry": {"type": "Point", "coordinates": [106.575815, 29.5554376]}}, {"type": "Feature", "properties": {"osm_id": 809271278, "name": "", "category": "residential", "poi_type": "demand", "tags": {"building": "residential"}}, "geometry": {"type": "Point", "coordinates": [106.5758662, 29.5551297]}}, {"type": "Feature", "properties": {"osm_id": 809271280, "name": "", "category": "apartments", "poi_type": "demand", "tags": {"building": "apartments"}}, "geometry": {"type": "Point", "coordinates": [106.5769538, 29.5556454]}}, {"type": "Feature", "properties": {"osm_id": 809271281, "name": "", "category": "residential", "poi_type": "demand", "tags": {"building": "residential"}}, "geometry": {"type": "Point", "coordinates": [106.5774569, 29.5558248]}}, {"type": "Feature", "properties": {"osm_id": 809271282, "name": "", "category": "apartments", "poi_type": "demand", "tags": {"building": "apartments"}}, "geometry": {"type": "Point", "coordinates": [106.5770167, 29.5561472]}}, {"type": "Feature", "properties": {"osm_id": 809271283, "name": "", "category": "apartments", "poi_type": "demand", "tags": {"building": "apartments"}}, "geometry": {"type": "Point", "coordinates": [106.5768798, 29.5567817]}}, {"type": "Feature", "properties": {"osm_id": 809271284, "name": "", "category": "residential", "poi_type": "demand", "tags": {"building": "residential"}}, "geometry": {"type": "Point", "coordinates": [106.576564, 29.5571362]}}, {"type": "Feature", "properties": {"osm_id": 809271285, "name": "", "category": "residential", "poi_type": "demand", "tags": {"building": "residential"}}, "geometry": {"type": "Point", "coordinates": [106.5762017, 29.5571701]}}, {"type": "Feature", "properties": {"osm_id": 809271286, "name": "", "category": "residential", "poi_type": "demand", "tags": {"building": "residential"}}, "geometry": {"type": "Point", "coordinates": [106.5766909, 29.5573905]}}, {"type": "Feature", "properties": {"osm_id": 809271287, "name": "", "category": "residential", "poi_type": "demand", "tags": {"building": "residential"}}, "geometry": {"type": "Point", "coordinates": [106.576593, 29.5578029]}}, {"type": "Feature", "properties": {"osm_id": 809273568, "name": "", "category": "residential", "poi_type": "demand", "tags": {"building": "residential"}}, "geometry": {"type": "Point", "coordinates": [106.5713008, 29.5532707]}}, {"type": "Feature", "properties": {"osm_id": 809273569, "name": "", "category": "residential", "poi_type": "demand", "tags": {"building": "residential"}}, "geometry": {"type": "Point", "coordinates": [106.5713893, 29.5534965]}}, {"type": "Feature", "properties": {"osm_id": 809273570, "name": "", "category": "residential", "poi_type": "demand", "tags": {"building": "residential"}}, "geometry": {"type": "Point", "coordinates": [106.5712779, 29.5537565]}}, {"type": "Feature", "properties": {"osm_id": 809273571, "name": "", "category": "residential", "poi_type": "demand", "tags": {"building": "residential"}}, "geometry": {"type": "Point", "coordinates": [106.5714986, 29.5529478]}}, {"type": "Feature", "properties": {"osm_id": 809273572, "name": "", "category": "residential", "poi_type": "demand", "tags": {"building": "residential"}}, "geometry": {"type": "Point", "coordinates": [106.5724207, 29.5534251]}}, {"type": "Feature", "properties": {"osm_id": 809273573, "name": "", "category": "residential", "poi_type": "demand", "tags": {"building": "residential"}}, "geometry": {"type": "Point", "coordinates": [106.5735146, 29.5528872]}}, {"type": "Feature", "properties": {"osm_id": 809273574, "name": "", "category": "residential", "poi_type": "demand", "tags": {"building": "residential"}}, "geometry": {"type": "Point", "coordinates": [106.5731287, 29.5526111]}}, {"type": "Feature", "properties": {"osm_id": 809273576, "name": "", "category": "residential", "poi_type": "demand", "tags": {"building": "residential"}}, "geometry": {"type": "Point", "coordinates": [106.5728301, 29.5523556]}}, {"type": "Feature", "properties": {"osm_id": 809273582, "name": "", "category": "residential", "poi_type": "demand", "tags": {"building": "residential"}}, "geometry": {"type": "Point", "coordinates": [106.5781098, 29.5561457]}}, {"type": "Feature", "properties": {"osm_id": 809273583, "name": "", "category": "residential", "poi_type": "demand", "tags": {"building": "residential"}}, "geometry": {"type": "Point", "coordinates": [106.5775982, 29.556281]}}, {"type": "Feature", "properties": {"osm_id": 809273584, "name": "", "category": "residential", "poi_type": "demand", "tags": {"building": "residential"}}, "geometry": {"type": "Point", "coordinates": [106.5773176, 29.5565102]}}, {"type": "Feature", "properties": {"osm_id": 809273588, "name": "", "category": "residential", "poi_type": "demand", "tags": {"building": "residential"}}, "geometry": {"type": "Point", "coordinates": [106.5779141, 29.5591368]}}, {"type": "Feature", "properties": {"osm_id": 809273589, "name": "", "category": "residential", "poi_type": "demand", "tags": {"building": "residential"}}, "geometry": {"type": "Point", "coordinates": [106.5773128, 29.5587857]}}, {"type": "Feature", "properties": {"osm_id": 809273590, "name": "", "category": "residential", "poi_type": "demand", "tags": {"building": "residential"}}, "geometry": {"type": "Point", "coordinates": [106.5771647, 29.5587422]}}, {"type": "Feature", "properties": {"osm_id": 809273591, "name": "", "category": "residential", "poi_type": "demand", "tags": {"building": "residential"}}, "geometry": {"type": "Point", "coordinates": [106.5772556, 29.5590337]}}, {"type": "Feature", "properties": {"osm_id": 809273592, "name": "", "category": "residential", "poi_type": "demand", "tags": {"building": "residential"}}, "geometry": {"type": "Point", "coordinates": [106.577012, 29.5591906]}}, {"type": "Feature", "properties": {"osm_id": 809273593, "name": "", "category": "residential", "poi_type": "demand", "tags": {"building": "residential"}}, "geometry": {"type": "Point", "coordinates": [106.5769088, 29.558957]}}, {"type": "Feature", "properties": {"osm_id": 809273595, "name": "", "category": "residential", "poi_type": "demand", "tags": {"building": "residential"}}, "geometry": {"type": "Point", "coordinates": [106.5771079, 29.5588961]}}, {"type": "Feature", "properties": {"osm_id": 809273596, "name": "", "category": "residential", "poi_type": "demand", "tags": {"building": "residential"}}, "geometry": {"type": "Point", "coordinates": [106.5775177, 29.5587997]}}, {"type": "Feature", "properties": {"osm_id": 809273597, "name": "", "category": "residential", "poi_type": "demand", "tags": {"building": "residential"}}, "geometry": {"type": "Point", "coordinates": [106.5773533, 29.5585472]}}, {"type": "Feature", "properties": {"osm_id": 809273600, "name": "", "category": "residential", "poi_type": "demand", "tags": {"building": "residential"}}, "geometry": {"type": "Point", "coordinates": [106.5771329, 29.5577507]}}, {"type": "Feature", "properties": {"osm_id": 809273601, "name": "", "category": "residential", "poi_type": "demand", "tags": {"building": "residential"}}, "geometry": {"type": "Point", "coordinates": [106.5779772, 29.5576532]}}, {"type": "Feature", "properties": {"osm_id": 809273602, "name": "", "category": "residential", "poi_type": "demand", "tags": {"building": "residential"}}, "geometry": {"type": "Point", "coordinates": [106.5777877, 29.557493]}}, {"type": "Feature", "properties": {"osm_id": 809273603, "name": "", "category": "residential", "poi_type": "demand", "tags": {"building": "residential"}}, "geometry": {"type": "Point", "coordinates": [106.5775877, 29.5573353]}}, {"type": "Feature", "properties": {"osm_id": 809713441, "name": "", "category": "residential", "poi_type": "demand", "tags": {"building": "residential"}}, "geometry": {"type": "Point", "coordinates": [106.5713447, 29.5633526]}}, {"type": "Feature", "properties": {"osm_id": 809713449, "name": "", "category": "residential", "poi_type": "demand", "tags": {"building": "residential"}}, "geometry": {"type": "Point", "coordinates": [106.5713681, 29.5628352]}}, {"type": "Feature", "properties": {"osm_id": 809713450, "name": "", "category": "residential", "poi_type": "demand", "tags": {"building": "residential"}}, "geometry": {"type": "Point", "coordinates": [106.5710342, 29.562842]}}, {"type": "Feature", "properties": {"osm_id": 809713451, "name": "", "category": "residential", "poi_type": "demand", "tags": {"building": "residential"}}, "geometry": {"type": "Point", "coordinates": [106.5706572, 29.5626613]}}, {"type": "Feature", "properties": {"osm_id": 809713452, "name": "", "category": "residential", "poi_type": "demand", "tags": {"building": "residential"}}, "geometry": {"type": "Point", "coordinates": [106.572061, 29.5631888]}}, {"type": "Feature", "properties": {"osm_id": 809713453, "name": "", "category": "residential", "poi_type": "demand", "tags": {"building": "residential"}}, "geometry": {"type": "Point", "coordinates": [106.5717122, 29.5632216]}}, {"type": "Feature", "properties": {"osm_id": 809713456, "name": "", "category": "residential", "poi_type": "demand", "tags": {"building": "residential"}}, "geometry": {"type": "Point", "coordinates": [106.5761464, 29.5632731]}}, {"type": "Feature", "properties": {"osm_id": 809713457, "name": "", "category": "residential", "poi_type": "demand", "tags": {"building": "residential"}}, "geometry": {"type": "Point", "coordinates": [106.5757734, 29.5632681]}}, {"type": "Feature", "properties": {"osm_id": 809713458, "name": "", "category": "residential", "poi_type": "demand", "tags": {"building": "residential"}}, "geometry": {"type": "Point", "coordinates": [106.5763593, 29.563529]}}, {"type": "Feature", "properties": {"osm_id": 809713460, "name": "", "category": "residential", "poi_type": "demand", "tags": {"building": "residential"}}, "geometry": {"type": "Point", "coordinates": [106.5768552, 29.5636035]}}, {"type": "Feature", "properties": {"osm_id": 809713461, "name": "", "category": "residential", "poi_type": "demand", "tags": {"building": "residential"}}, "geometry": {"type": "Point", "coordinates": [106.5766943, 29.5637308]}}, {"type": "Feature", "properties": {"osm_id": 809713462, "name": "", "category": "residential", "poi_type": "demand", "tags": {"building": "residential"}}, "geometry": {"type": "Point", "coordinates": [106.5766632, 29.5638966]}}, {"type": "Feature", "properties": {"osm_id": 809713463, "name": "", "category": "residential", "poi_type": "demand", "tags": {"building": "residential"}}, "geometry": {"type": "Point", "coordinates": [106.5770438, 29.5639741]}}, {"type": "Feature", "properties": {"osm_id": 809713464, "name": "", "category": "residential", "poi_type": "demand", "tags": {"building": "residential"}}, "geometry": {"type": "Point", "coordinates": [106.577435, 29.5641448]}}, {"type": "Feature", "properties": {"osm_id": 809713465, "name": "", "category": "residential", "poi_type": "demand", "tags": {"building": "residential"}}, "geometry": {"type": "Point", "coordinates": [106.5772877, 29.5637593]}}, {"type": "Feature", "properties": {"osm_id": 809713466, "name": "", "category": "apartments", "poi_type": "demand", "tags": {"building": "apartments"}}, "geometry": {"type": "Point", "coordinates": [106.577388, 29.5645126]}}, {"type": "Feature", "properties": {"osm_id": 809713467, "name": "", "category": "apartments", "poi_type": "demand", "tags": {"building": "apartments"}}, "geometry": {"type": "Point", "coordinates": [106.5772484, 29.5648295]}}, {"type": "Feature", "properties": {"osm_id": 809713468, "name": "", "category": "residential", "poi_type": "demand", "tags": {"building": "residential"}}, "geometry": {"type": "Point", "coordinates": [106.5770383, 29.5643694]}}, {"type": "Feature", "properties": {"osm_id": 809713470, "name": "", "category": "residential", "poi_type": "demand", "tags": {"building": "residential"}}, "geometry": {"type": "Point", "coordinates": [106.5767003, 29.5646465]}}, {"type": "Feature", "properties": {"osm_id": 809713471, "name": "", "category": "residential", "poi_type": "demand", "tags": {"building": "residential"}}, "geometry": {"type": "Point", "coordinates": [106.5765663, 29.5648571]}}, {"type": "Feature", "properties": {"osm_id": 809713472, "name": "", "category": "residential", "poi_type": "demand", "tags": {"building": "residential"}}, "geometry": {"type": "Point", "coordinates": [106.576341, 29.5646976]}}, {"type": "Feature", "properties": {"osm_id": 809713473, "name": "", "category": "residential", "poi_type": "demand", "tags": {"building": "residential"}}, "geometry": {"type": "Point", "coordinates": [106.5764386, 29.5644284]}}, {"type": "Feature", "properties": {"osm_id": 809713474, "name": "", "category": "residential", "poi_type": "demand", "tags": {"building": "residential"}}, "geometry": {"type": "Point", "coordinates": [106.576646, 29.5644734]}}, {"type": "Feature", "properties": {"osm_id": 809713475, "name": "", "category": "residential", "poi_type": "demand", "tags": {"building": "residential"}}, "geometry": {"type": "Point", "coordinates": [106.5767848, 29.5642832]}}, {"type": "Feature", "properties": {"osm_id": 809713476, "name": "", "category": "residential", "poi_type": "demand", "tags": {"building": "residential"}}, "geometry": {"type": "Point", "coordinates": [106.5765284, 29.564148]}}, {"type": "Feature", "properties": {"osm_id": 809713477, "name": "", "category": "residential", "poi_type": "demand", "tags": {"building": "residential"}}, "geometry": {"type": "Point", "coordinates": [106.576078, 29.5641418]}}, {"type": "Feature", "properties": {"osm_id": 809713478, "name": "", "category": "residential", "poi_type": "demand", "tags": {"building": "residential"}}, "geometry": {"type": "Point", "coordinates": [106.5761956, 29.5639611]}}, {"type": "Feature", "properties": {"osm_id": 809713479, "name": "", "category": "residential", "poi_type": "demand", "tags": {"building": "residential"}}, "geometry": {"type": "Point", "coordinates": [106.5758946, 29.5638733]}}, {"type": "Feature", "properties": {"osm_id": 809713480, "name": "", "category": "residential", "poi_type": "demand", "tags": {"building": "residential"}}, "geometry": {"type": "Point", "coordinates": [106.5756694, 29.5637272]}}, {"type": "Feature", "properties": {"osm_id": 809713482, "name": "", "category": "residential", "poi_type": "demand", "tags": {"building": "residential"}}, "geometry": {"type": "Point", "coordinates": [106.5752727, 29.5638835]}}, {"type": "Feature", "properties": {"osm_id": 809713483, "name": "", "category": "residential", "poi_type": "demand", "tags": {"building": "residential"}}, "geometry": {"type": "Point", "coordinates": [106.5756187, 29.5639758]}}, {"type": "Feature", "properties": {"osm_id": 809713484, "name": "", "category": "residential", "poi_type": "demand", "tags": {"building": "residential"}}, "geometry": {"type": "Point", "coordinates": [106.5755572, 29.5641798]}}, {"type": "Feature", "properties": {"osm_id": 809713485, "name": "", "category": "residential", "poi_type": "demand", "tags": {"building": "residential"}}, "geometry": {"type": "Point", "coordinates": [106.5757931, 29.5644237]}}, {"type": "Feature", "properties": {"osm_id": 809713486, "name": "", "category": "residential", "poi_type": "demand", "tags": {"building": "residential"}}, "geometry": {"type": "Point", "coordinates": [106.5751893, 29.5643133]}}, {"type": "Feature", "properties": {"osm_id": 809713490, "name": "高盛创富展示中心", "category": "commercial", "poi_type": "demand", "tags": {"building": "commercial", "name": "高盛创富展示中心"}}, "geometry": {"type": "Point", "coordinates": [106.5699331, 29.5641905]}}, {"type": "Feature", "properties": {"osm_id": 809713491, "name": "", "category": "residential", "poi_type": "demand", "tags": {"building": "residential"}}, "geometry": {"type": "Point", "coordinates": [106.5690595, 29.5637283]}}, {"type": "Feature", "properties": {"osm_id": 809713492, "name": "", "category": "residential", "poi_type": "demand", "tags": {"building": "residential"}}, "geometry": {"type": "Point", "coordinates": [106.5691307, 29.5634822]}}, {"type": "Feature", "properties": {"osm_id": 809713493, "name": "", "category": "residential", "poi_type": "demand", "tags": {"building": "residential"}}, "geometry": {"type": "Point", "coordinates": [106.5689805, 29.5632799]}}, {"type": "Feature", "properties": {"osm_id": 809713495, "name": "", "category": "residential", "poi_type": "demand", "tags": {"building": "residential"}}, "geometry": {"type": "Point", "coordinates": [106.5728414, 29.5635544]}}, {"type": "Feature", "properties": {"osm_id": 809713496, "name": "", "category": "residential", "poi_type": "demand", "tags": {"building": "residential"}}, "geometry": {"type": "Point", "coordinates": [106.572897, 29.5634004]}}, {"type": "Feature", "properties": {"osm_id": 809713497, "name": "", "category": "residential", "poi_type": "demand", "tags": {"building": "residential"}}, "geometry": {"type": "Point", "coordinates": [106.5730785, 29.5634982]}}, {"type": "Feature", "properties": {"osm_id": 809713509, "name": "", "category": "residential", "poi_type": "demand", "tags": {"building": "residential"}}, "geometry": {"type": "Point", "coordinates": [106.5735543, 29.5647365]}}, {"type": "Feature", "properties": {"osm_id": 809713517, "name": "", "category": "residential", "poi_type": "demand", "tags": {"building": "residential"}}, "geometry": {"type": "Point", "coordinates": [106.5710747, 29.5635547]}}, {"type": "Feature", "properties": {"osm_id": 809713518, "name": "", "category": "residential", "poi_type": "demand", "tags": {"building": "residential"}}, "geometry": {"type": "Point", "coordinates": [106.5713655, 29.5638413]}}, {"type": "Feature", "properties": {"osm_id": 809713519, "name": "", "category": "residential", "poi_type": "demand", "tags": {"building": "residential"}}, "geometry": {"type": "Point", "coordinates": [106.5714362, 29.563974]}}, {"type": "Feature", "properties": {"osm_id": 809713520, "name": "", "category": "residential", "poi_type": "demand", "tags": {"building": "residential"}}, "geometry": {"type": "Point", "coordinates": [106.5717707, 29.5637477]}}, {"type": "Feature", "properties": {"osm_id": 809713521, "name": "", "category": "residential", "poi_type": "demand", "tags": {"building": "residential"}}, "geometry": {"type": "Point", "coordinates": [106.5717274, 29.5639737]}}, {"type": "Feature", "properties": {"osm_id": 809713522, "name": "", "category": "residential", "poi_type": "demand", "tags": {"building": "residential"}}, "geometry": {"type": "Point", "coordinates": [106.5720224, 29.5639731]}}, {"type": "Feature", "properties": {"osm_id": 809713523, "name": "", "category": "residential", "poi_type": "demand", "tags": {"building": "residential"}}, "geometry": {"type": "Point", "coordinates": [106.5723175, 29.5639081]}}, {"type": "Feature", "properties": {"osm_id": 809713524, "name": "", "category": "residential", "poi_type": "demand", "tags": {"building": "residential"}}, "geometry": {"type": "Point", "coordinates": [106.5722536, 29.5640936]}}, {"type": "Feature", "properties": {"osm_id": 809713525, "name": "", "category": "residential", "poi_type": "demand", "tags": {"building": "residential"}}, "geometry": {"type": "Point", "coordinates": [106.5726877, 29.5639787]}}, {"type": "Feature", "properties": {"osm_id": 809713526, "name": "", "category": "residential", "poi_type": "demand", "tags": {"building": "residential"}}, "geometry": {"type": "Point", "coordinates": [106.5729457, 29.5639877]}}, {"type": "Feature", "properties": {"osm_id": 809713527, "name": "", "category": "residential", "poi_type": "demand", "tags": {"building": "residential"}}, "geometry": {"type": "Point", "coordinates": [106.5736208, 29.5640722]}}, {"type": "Feature", "properties": {"osm_id": 809713528, "name": "", "category": "residential", "poi_type": "demand", "tags": {"building": "residential"}}, "geometry": {"type": "Point", "coordinates": [106.5736038, 29.5638906]}}, {"type": "Feature", "properties": {"osm_id": 809713529, "name": "", "category": "residential", "poi_type": "demand", "tags": {"building": "residential"}}, "geometry": {"type": "Point", "coordinates": [106.5736971, 29.5637505]}}, {"type": "Feature", "properties": {"osm_id": 809713530, "name": "", "category": "residential", "poi_type": "demand", "tags": {"building": "residential"}}, "geometry": {"type": "Point", "coordinates": [106.5734143, 29.5637818]}}, {"type": "Feature", "properties": {"osm_id": 809713531, "name": "", "category": "residential", "poi_type": "demand", "tags": {"building": "residential"}}, "geometry": {"type": "Point", "coordinates": [106.5730714, 29.5637351]}}, {"type": "Feature", "properties": {"osm_id": 809713534, "name": "", "category": "residential", "poi_type": "demand", "tags": {"building": "residential"}}, "geometry": {"type": "Point", "coordinates": [106.5725799, 29.563766]}}, {"type": "Feature", "properties": {"osm_id": 809713535, "name": "", "category": "residential", "poi_type": "demand", "tags": {"building": "residential"}}, "geometry": {"type": "Point", "coordinates": [106.572191, 29.5635876]}}, {"type": "Feature", "properties": {"osm_id": 809713537, "name": "", "category": "residential", "poi_type": "demand", "tags": {"building": "residential"}}, "geometry": {"type": "Point", "coordinates": [106.5734846, 29.5643035]}}, {"type": "Feature", "properties": {"osm_id": 809713538, "name": "", "category": "residential", "poi_type": "demand", "tags": {"building": "residential"}}, "geometry": {"type": "Point", "coordinates": [106.5739863, 29.5643912]}}, {"type": "Feature", "properties": {"osm_id": 809713539, "name": "", "category": "residential", "poi_type": "demand", "tags": {"building": "residential"}}, "geometry": {"type": "Point", "coordinates": [106.5740421, 29.5640839]}}, {"type": "Feature", "properties": {"osm_id": 809713540, "name": "", "category": "residential", "poi_type": "demand", "tags": {"building": "residential"}}, "geometry": {"type": "Point", "coordinates": [106.5739838, 29.563874]}}, {"type": "Feature", "properties": {"osm_id": 809713541, "name": "", "category": "residential", "poi_type": "demand", "tags": {"building": "residential"}}, "geometry": {"type": "Point", "coordinates": [106.5743477, 29.5642301]}}, {"type": "Feature", "properties": {"osm_id": 809887592, "name": "", "category": "residential", "poi_type": "demand", "tags": {"building": "residential"}}, "geometry": {"type": "Point", "coordinates": [106.5662212, 29.5578908]}}, {"type": "Feature", "properties": {"osm_id": 809887593, "name": "", "category": "residential", "poi_type": "demand", "tags": {"building": "residential"}}, "geometry": {"type": "Point", "coordinates": [106.5667852, 29.5591707]}}, {"type": "Feature", "properties": {"osm_id": 809887594, "name": "", "category": "residential", "poi_type": "demand", "tags": {"building": "residential"}}, "geometry": {"type": "Point", "coordinates": [106.5665598, 29.5592466]}}, {"type": "Feature", "properties": {"osm_id": 809887595, "name": "", "category": "residential", "poi_type": "demand", "tags": {"building": "residential"}}, "geometry": {"type": "Point", "coordinates": [106.566192, 29.5595004]}}, {"type": "Feature", "properties": {"osm_id": 809887596, "name": "", "category": "residential", "poi_type": "demand", "tags": {"building": "residential"}}, "geometry": {"type": "Point", "coordinates": [106.5663204, 29.5594053]}}, {"type": "Feature", "properties": {"osm_id": 809887597, "name": "", "category": "residential", "poi_type": "demand", "tags": {"building": "residential"}}, "geometry": {"type": "Point", "coordinates": [106.5664481, 29.5593017]}}, {"type": "Feature", "properties": {"osm_id": 809887605, "name": "", "category": "residential", "poi_type": "demand", "tags": {"building": "residential"}}, "geometry": {"type": "Point", "coordinates": [106.5681812, 29.5577545]}}, {"type": "Feature", "properties": {"osm_id": 809887606, "name": "", "category": "residential", "poi_type": "demand", "tags": {"building": "residential"}}, "geometry": {"type": "Point", "coordinates": [106.5667646, 29.557795]}}, {"type": "Feature", "properties": {"osm_id": 809887611, "name": "", "category": "residential", "poi_type": "demand", "tags": {"building": "residential"}}, "geometry": {"type": "Point", "coordinates": [106.5664369, 29.5589516]}}, {"type": "Feature", "properties": {"osm_id": 809887612, "name": "", "category": "residential", "poi_type": "demand", "tags": {"building": "residential"}}, "geometry": {"type": "Point", "coordinates": [106.5666119, 29.5583371]}}, {"type": "Feature", "properties": {"osm_id": 809887613, "name": "", "category": "residential", "poi_type": "demand", "tags": {"building": "residential"}}, "geometry": {"type": "Point", "coordinates": [106.5667095, 29.5581944]}}, {"type": "Feature", "properties": {"osm_id": 809887614, "name": "", "category": "residential", "poi_type": "demand", "tags": {"building": "residential"}}, "geometry": {"type": "Point", "coordinates": [106.5664956, 29.5585212]}}, {"type": "Feature", "properties": {"osm_id": 809887616, "name": "", "category": "residential", "poi_type": "demand", "tags": {"building": "residential"}}, "geometry": {"type": "Point", "coordinates": [106.5682511, 29.5591485]}}, {"type": "Feature", "properties": {"osm_id": 809887617, "name": "", "category": "residential", "poi_type": "demand", "tags": {"building": "residential"}}, "geometry": {"type": "Point", "coordinates": [106.5683202, 29.5587437]}}, {"type": "Feature", "properties": {"osm_id": 809887618, "name": "", "category": "residential", "poi_type": "demand", "tags": {"building": "residential"}}, "geometry": {"type": "Point", "coordinates": [106.5683892, 29.5589074]}}, {"type": "Feature", "properties": {"osm_id": 809887619, "name": "", "category": "residential", "poi_type": "demand", "tags": {"building": "residential"}}, "geometry": {"type": "Point", "coordinates": [106.5683082, 29.5590442]}}, {"type": "Feature", "properties": {"osm_id": 809887620, "name": "", "category": "residential", "poi_type": "demand", "tags": {"building": "residential"}}, "geometry": {"type": "Point", "coordinates": [106.568278, 29.5585658]}}, {"type": "Feature", "properties": {"osm_id": 809887621, "name": "", "category": "residential", "poi_type": "demand", "tags": {"building": "residential"}}, "geometry": {"type": "Point", "coordinates": [106.5681354, 29.5585898]}}, {"type": "Feature", "properties": {"osm_id": 809887622, "name": "", "category": "residential", "poi_type": "demand", "tags": {"building": "residential"}}, "geometry": {"type": "Point", "coordinates": [106.5680612, 29.5586507]}}, {"type": "Feature", "properties": {"osm_id": 809887623, "name": "", "category": "residential", "poi_type": "demand", "tags": {"building": "residential"}}, "geometry": {"type": "Point", "coordinates": [106.5678191, 29.5588383]}}, {"type": "Feature", "properties": {"osm_id": 809887624, "name": "", "category": "residential", "poi_type": "demand", "tags": {"building": "residential"}}, "geometry": {"type": "Point", "coordinates": [106.5685134, 29.5579563]}}, {"type": "Feature", "properties": {"osm_id": 809887625, "name": "", "category": "residential", "poi_type": "demand", "tags": {"building": "residential"}}, "geometry": {"type": "Point", "coordinates": [106.5686626, 29.5581211]}}, {"type": "Feature", "properties": {"osm_id": 809887626, "name": "", "category": "residential", "poi_type": "demand", "tags": {"building": "residential"}}, "geometry": {"type": "Point", "coordinates": [106.5673184, 29.5584101]}}, {"type": "Feature", "properties": {"osm_id": 809887627, "name": "", "category": "residential", "poi_type": "demand", "tags": {"building": "residential"}}, "geometry": {"type": "Point", "coordinates": [106.5673345, 29.5585699]}}, {"type": "Feature", "properties": {"osm_id": 809887628, "name": "", "category": "residential", "poi_type": "demand", "tags": {"building": "residential"}}, "geometry": {"type": "Point", "coordinates": [106.5673021, 29.55872]}}, {"type": "Feature", "properties": {"osm_id": 809887629, "name": "", "category": "residential", "poi_type": "demand", "tags": {"building": "residential"}}, "geometry": {"type": "Point", "coordinates": [106.5671602, 29.5587157]}}, {"type": "Feature", "properties": {"osm_id": 809887630, "name": "", "category": "residential", "poi_type": "demand", "tags": {"building": "residential"}}, "geometry": {"type": "Point", "coordinates": [106.567074, 29.5588302]}}, {"type": "Feature", "properties": {"osm_id": 809887631, "name": "", "category": "residential", "poi_type": "demand", "tags": {"building": "residential"}}, "geometry": {"type": "Point", "coordinates": [106.5670002, 29.5589196]}}, {"type": "Feature", "properties": {"osm_id": 809887632, "name": "", "category": "residential", "poi_type": "demand", "tags": {"building": "residential"}}, "geometry": {"type": "Point", "coordinates": [106.5668868, 29.5584879]}}, {"type": "Feature", "properties": {"osm_id": 809887633, "name": "", "category": "residential", "poi_type": "demand", "tags": {"building": "residential"}}, "geometry": {"type": "Point", "coordinates": [106.5669922, 29.5583622]}}, {"type": "Feature", "properties": {"osm_id": 809887634, "name": "", "category": "residential", "poi_type": "demand", "tags": {"building": "residential"}}, "geometry": {"type": "Point", "coordinates": [106.567089, 29.5582542]}}, {"type": "Feature", "properties": {"osm_id": 809887635, "name": "", "category": "residential", "poi_type": "demand", "tags": {"building": "residential"}}, "geometry": {"type": "Point", "coordinates": [106.5667863, 29.5586129]}}, {"type": "Feature", "properties": {"osm_id": 809887636, "name": "", "category": "residential", "poi_type": "demand", "tags": {"building": "residential"}}, "geometry": {"type": "Point", "coordinates": [106.5666849, 29.5587282]}}, {"type": "Feature", "properties": {"osm_id": 809887639, "name": "", "category": "residential", "poi_type": "demand", "tags": {"building": "residential"}}, "geometry": {"type": "Point", "coordinates": [106.5645801, 29.557872]}}, {"type": "Feature", "properties": {"osm_id": 809889593, "name": "", "category": "residential", "poi_type": "demand", "tags": {"building": "residential"}}, "geometry": {"type": "Point", "coordinates": [106.5663474, 29.5548741]}}, {"type": "Feature", "properties": {"osm_id": 809889594, "name": "", "category": "residential", "poi_type": "demand", "tags": {"building": "residential"}}, "geometry": {"type": "Point", "coordinates": [106.566013, 29.5551291]}}, {"type": "Feature", "properties": {"osm_id": 809889595, "name": "", "category": "residential", "poi_type": "demand", "tags": {"building": "residential"}}, "geometry": {"type": "Point", "coordinates": [106.5663415, 29.5556993]}}, {"type": "Feature", "properties": {"osm_id": 809889596, "name": "", "category": "residential", "poi_type": "demand", "tags": {"building": "residential"}}, "geometry": {"type": "Point", "coordinates": [106.5663478, 29.5553896]}}, {"type": "Feature", "properties": {"osm_id": 809889597, "name": "", "category": "residential", "poi_type": "demand", "tags": {"building": "residential"}}, "geometry": {"type": "Point", "coordinates": [106.5638864, 29.5563882]}}, {"type": "Feature", "properties": {"osm_id": 809889598, "name": "", "category": "residential", "poi_type": "demand", "tags": {"building": "residential"}}, "geometry": {"type": "Point", "coordinates": [106.5635252, 29.5561077]}}, {"type": "Feature", "properties": {"osm_id": 809889599, "name": "", "category": "residential", "poi_type": "demand", "tags": {"building": "residential"}}, "geometry": {"type": "Point", "coordinates": [106.5633654, 29.5557043]}}, {"type": "Feature", "properties": {"osm_id": 809889600, "name": "", "category": "residential", "poi_type": "demand", "tags": {"building": "residential"}}, "geometry": {"type": "Point", "coordinates": [106.5631421, 29.55528]}}, {"type": "Feature", "properties": {"osm_id": 809889601, "name": "", "category": "residential", "poi_type": "demand", "tags": {"building": "residential"}}, "geometry": {"type": "Point", "coordinates": [106.5625181, 29.5551749]}}, {"type": "Feature", "properties": {"osm_id": 809889602, "name": "", "category": "residential", "poi_type": "demand", "tags": {"building": "residential"}}, "geometry": {"type": "Point", "coordinates": [106.5630172, 29.5550805]}}, {"type": "Feature", "properties": {"osm_id": 809889603, "name": "", "category": "residential", "poi_type": "demand", "tags": {"building": "residential"}}, "geometry": {"type": "Point", "coordinates": [106.5655167, 29.5543734]}}, {"type": "Feature", "properties": {"osm_id": 809889604, "name": "", "category": "residential", "poi_type": "demand", "tags": {"building": "residential"}}, "geometry": {"type": "Point", "coordinates": [106.5651204, 29.5541942]}}, {"type": "Feature", "properties": {"osm_id": 809889606, "name": "", "category": "residential", "poi_type": "demand", "tags": {"building": "residential"}}, "geometry": {"type": "Point", "coordinates": [106.5645264, 29.5553645]}}, {"type": "Feature", "properties": {"osm_id": 809889607, "name": "", "category": "residential", "poi_type": "demand", "tags": {"building": "residential"}}, "geometry": {"type": "Point", "coordinates": [106.5658303, 29.5561199]}}, {"type": "Feature", "properties": {"osm_id": 809889611, "name": "", "category": "residential", "poi_type": "demand", "tags": {"building": "residential"}}, "geometry": {"type": "Point", "coordinates": [106.5657275, 29.556397]}}, {"type": "Feature", "properties": {"osm_id": 809889612, "name": "", "category": "residential", "poi_type": "demand", "tags": {"building": "residential"}}, "geometry": {"type": "Point", "coordinates": [106.5659988, 29.5554025]}}, {"type": "Feature", "properties": {"osm_id": 809889618, "name": "", "category": "residential", "poi_type": "demand", "tags": {"building": "residential"}}, "geometry": {"type": "Point", "coordinates": [106.5667296, 29.5562513]}}, {"type": "Feature", "properties": {"osm_id": 809889619, "name": "下回水沟1号楼", "category": "residential", "poi_type": "demand", "tags": {"building": "residential", "name": "下回水沟1号楼"}}, "geometry": {"type": "Point", "coordinates": [106.5670014, 29.5552345]}}, {"type": "Feature", "properties": {"osm_id": 809889620, "name": "", "category": "residential", "poi_type": "demand", "tags": {"building": "residential"}}, "geometry": {"type": "Point", "coordinates": [106.5671357, 29.5547815]}}, {"type": "Feature", "properties": {"osm_id": 809889621, "name": "", "category": "residential", "poi_type": "demand", "tags": {"building": "residential"}}, "geometry": {"type": "Point", "coordinates": [106.566432, 29.5544985]}}, {"type": "Feature", "properties": {"osm_id": 809889622, "name": "", "category": "residential", "poi_type": "demand", "tags": {"building": "residential"}}, "geometry": {"type": "Point", "coordinates": [106.5634947, 29.5534997]}}, {"type": "Feature", "properties": {"osm_id": 809889623, "name": "", "category": "residential", "poi_type": "demand", "tags": {"building": "residential"}}, "geometry": {"type": "Point", "coordinates": [106.5643836, 29.5526562]}}, {"type": "Feature", "properties": {"osm_id": 809889624, "name": "", "category": "residential", "poi_type": "demand", "tags": {"building": "residential"}}, "geometry": {"type": "Point", "coordinates": [106.5647089, 29.5530717]}}, {"type": "Feature", "properties": {"osm_id": 809889625, "name": "", "category": "residential", "poi_type": "demand", "tags": {"building": "residential"}}, "geometry": {"type": "Point", "coordinates": [106.5656386, 29.55363]}}, {"type": "Feature", "properties": {"osm_id": 809889626, "name": "", "category": "residential", "poi_type": "demand", "tags": {"building": "residential"}}, "geometry": {"type": "Point", "coordinates": [106.5651418, 29.5529718]}}, {"type": "Feature", "properties": {"osm_id": 809889627, "name": "", "category": "residential", "poi_type": "demand", "tags": {"building": "residential"}}, "geometry": {"type": "Point", "coordinates": [106.5651051, 29.5533115]}}, {"type": "Feature", "properties": {"osm_id": 809889628, "name": "", "category": "residential", "poi_type": "demand", "tags": {"building": "residential"}}, "geometry": {"type": "Point", "coordinates": [106.5646651, 29.5536844]}}, {"type": "Feature", "properties": {"osm_id": 809889629, "name": "", "category": "residential", "poi_type": "demand", "tags": {"building": "residential"}}, "geometry": {"type": "Point", "coordinates": [106.5647254, 29.5538636]}}, {"type": "Feature", "properties": {"osm_id": 809889630, "name": "", "category": "residential", "poi_type": "demand", "tags": {"building": "residential"}}, "geometry": {"type": "Point", "coordinates": [106.5644835, 29.5542042]}}, {"type": "Feature", "properties": {"osm_id": 809889631, "name": "", "category": "residential", "poi_type": "demand", "tags": {"building": "residential"}}, "geometry": {"type": "Point", "coordinates": [106.565354, 29.5547877]}}, {"type": "Feature", "properties": {"osm_id": 809889632, "name": "", "category": "residential", "poi_type": "demand", "tags": {"building": "residential"}}, "geometry": {"type": "Point", "coordinates": [106.5645216, 29.5546398]}}, {"type": "Feature", "properties": {"osm_id": 809889635, "name": "", "category": "residential", "poi_type": "demand", "tags": {"building": "residential"}}, "geometry": {"type": "Point", "coordinates": [106.5649819, 29.5550034]}}, {"type": "Feature", "properties": {"osm_id": 809893053, "name": "", "category": "residential", "poi_type": "demand", "tags": {"building": "residential"}}, "geometry": {"type": "Point", "coordinates": [106.5427622, 29.5501971]}}, {"type": "Feature", "properties": {"osm_id": 809893061, "name": "", "category": "residential", "poi_type": "demand", "tags": {"building": "residential"}}, "geometry": {"type": "Point", "coordinates": [106.5419648, 29.5529551]}}, {"type": "Feature", "properties": {"osm_id": 809893063, "name": "", "category": "residential", "poi_type": "demand", "tags": {"building": "residential"}}, "geometry": {"type": "Point", "coordinates": [106.5423584, 29.5526746]}}, {"type": "Feature", "properties": {"osm_id": 810032660, "name": "", "category": "residential", "poi_type": "demand", "tags": {"building": "residential"}}, "geometry": {"type": "Point", "coordinates": [106.5831618, 29.5640132]}}, {"type": "Feature", "properties": {"osm_id": 810032661, "name": "", "category": "residential", "poi_type": "demand", "tags": {"building": "residential"}}, "geometry": {"type": "Point", "coordinates": [106.5829519, 29.5640529]}}, {"type": "Feature", "properties": {"osm_id": 810032662, "name": "", "category": "residential", "poi_type": "demand", "tags": {"building": "residential"}}, "geometry": {"type": "Point", "coordinates": [106.5827647, 29.5640995]}}, {"type": "Feature", "properties": {"osm_id": 810032663, "name": "", "category": "residential", "poi_type": "demand", "tags": {"building": "residential"}}, "geometry": {"type": "Point", "coordinates": [106.5825476, 29.5639227]}}, {"type": "Feature", "properties": {"osm_id": 810032664, "name": "", "category": "residential", "poi_type": "demand", "tags": {"building": "residential"}}, "geometry": {"type": "Point", "coordinates": [106.5825816, 29.5641112]}}, {"type": "Feature", "properties": {"osm_id": 810032667, "name": "", "category": "residential", "poi_type": "demand", "tags": {"building": "residential"}}, "geometry": {"type": "Point", "coordinates": [106.5825081, 29.5636242]}}, {"type": "Feature", "properties": {"osm_id": 810032673, "name": "", "category": "residential", "poi_type": "demand", "tags": {"building": "residential"}}, "geometry": {"type": "Point", "coordinates": [106.5819671, 29.5646209]}}, {"type": "Feature", "properties": {"osm_id": 810032674, "name": "", "category": "residential", "poi_type": "demand", "tags": {"building": "residential"}}, "geometry": {"type": "Point", "coordinates": [106.5816776, 29.5646224]}}, {"type": "Feature", "properties": {"osm_id": 810032675, "name": "", "category": "residential", "poi_type": "demand", "tags": {"building": "residential"}}, "geometry": {"type": "Point", "coordinates": [106.581262, 29.564832]}}, {"type": "Feature", "properties": {"osm_id": 810032676, "name": "", "category": "residential", "poi_type": "demand", "tags": {"building": "residential"}}, "geometry": {"type": "Point", "coordinates": [106.5814457, 29.563877]}}, {"type": "Feature", "properties": {"osm_id": 810032677, "name": "", "category": "residential", "poi_type": "demand", "tags": {"building": "residential"}}, "geometry": {"type": "Point", "coordinates": [106.5817842, 29.5637227]}}, {"type": "Feature", "properties": {"osm_id": 810032679, "name": "", "category": "residential", "poi_type": "demand", "tags": {"building": "residential"}}, "geometry": {"type": "Point", "coordinates": [106.5831143, 29.5652257]}}, {"type": "Feature", "properties": {"osm_id": 810032680, "name": "", "category": "residential", "poi_type": "demand", "tags": {"building": "residential"}}, "geometry": {"type": "Point", "coordinates": [106.5821778, 29.5661277]}}, {"type": "Feature", "properties": {"osm_id": 810335106, "name": "", "category": "residential", "poi_type": "demand", "tags": {"building": "residential"}}, "geometry": {"type": "Point", "coordinates": [106.5789545, 29.5561456]}}, {"type": "Feature", "properties": {"osm_id": 810335112, "name": "", "category": "residential", "poi_type": "demand", "tags": {"building": "residential"}}, "geometry": {"type": "Point", "coordinates": [106.5739053, 29.5530974]}}, {"type": "Feature", "properties": {"osm_id": 810335114, "name": "", "category": "residential", "poi_type": "demand", "tags": {"building": "residential"}}, "geometry": {"type": "Point", "coordinates": [106.5775438, 29.5538237]}}, {"type": "Feature", "properties": {"osm_id": 810335115, "name": "", "category": "residential", "poi_type": "demand", "tags": {"building": "residential"}}, "geometry": {"type": "Point", "coordinates": [106.5714689, 29.5522528]}}, {"type": "Feature", "properties": {"osm_id": 810335116, "name": "", "category": "residential", "poi_type": "demand", "tags": {"building": "residential"}}, "geometry": {"type": "Point", "coordinates": [106.5712832, 29.5523782]}}, {"type": "Feature", "properties": {"osm_id": 810335117, "name": "", "category": "residential", "poi_type": "demand", "tags": {"building": "residential"}}, "geometry": {"type": "Point", "coordinates": [106.5720354, 29.5541707]}}, {"type": "Feature", "properties": {"osm_id": 810335118, "name": "", "category": "residential", "poi_type": "demand", "tags": {"building": "residential"}}, "geometry": {"type": "Point", "coordinates": [106.5782575, 29.5555319]}}, {"type": "Feature", "properties": {"osm_id": 810335119, "name": "", "category": "residential", "poi_type": "demand", "tags": {"building": "residential"}}, "geometry": {"type": "Point", "coordinates": [106.5782858, 29.5554401]}}, {"type": "Feature", "properties": {"osm_id": 810335125, "name": "", "category": "residential", "poi_type": "demand", "tags": {"building": "residential"}}, "geometry": {"type": "Point", "coordinates": [106.575614, 29.5544299]}}, {"type": "Feature", "properties": {"osm_id": 810335128, "name": "", "category": "residential", "poi_type": "demand", "tags": {"building": "residential"}}, "geometry": {"type": "Point", "coordinates": [106.5754864, 29.5534241]}}, {"type": "Feature", "properties": {"osm_id": 810335129, "name": "", "category": "residential", "poi_type": "demand", "tags": {"building": "residential"}}, "geometry": {"type": "Point", "coordinates": [106.5757492, 29.5533253]}}, {"type": "Feature", "properties": {"osm_id": 810335132, "name": "", "category": "residential", "poi_type": "demand", "tags": {"building": "residential"}},