{"version": 0.6, "generator": "Overpass API 0.7.62.10 2d4cfc48", "osm3s": {"timestamp_osm_base": "2026-02-25T17:44:45Z", "copyright": "The data included in this document is from www.openstreetmap.org. The data is made available under ODbL."}, "elements": [{"type": "node", "id": 892269619, "lat": 23.1349259, "lon": 113.3158265, "tags": {"amenity": "fast_food", "branch": "今日广场店", "brand": "麦当劳", "brand:en": "McDonald's", "brand:wikidata": "Q38076", "brand:wikipedia": "zh:麦当劳", "brand:zh": "麦当劳", "brand:zh-Hans": "麦当劳", "cuisine": "burger", "name": "麦当劳", "name:en": "McDonald's", "name:zh": "麦当劳", "name:zh-Hans": "麦当劳", "takeaway": "yes"}}, {"type": "node", "id": 892269766, "lat": 23.1354361, "lon": 113.3294517, "tags": {"amenity": "fast_food", "brand": "麦当劳", "brand:en": "McDonald's", "brand:wikidata": "Q38076", "brand:wikipedia": "zh:麦当劳", "brand:zh": "麦当劳", "brand:zh-Hans": "麦当劳", "cuisine": "burger", "delivery": "yes", "name": "麦当劳", "name:en": "McDonald's", "name:zh": "麦当劳", "name:zh-Hans": "麦当劳", "takeaway": "yes"}}, {"type": "node", "id": 892269793, "lat": 23.1443461, "lon": 113.3296951, "tags": {"amenity": "fast_food", "branch": "金田餐厅", "brand": "麦当劳", "brand:en": "McDonald's", "brand:wikidata": "Q38076", "brand:wikipedia": "zh:麦当劳", "brand:zh": "麦当劳", "brand:zh-Hans": "麦当劳", "cuisine": "burger", "name": "麦当劳", "name:en": "McDonald's", "name:zh": "麦当劳", "name:zh-Hans": "麦当劳", "takeaway": "yes"}}, {"type": "node", "id": 892269932, "lat": 23.1412425, "lon": 113.3275869, "tags": {"brand": "喜士多", "brand:en": "C-Store", "brand:wikidata": "Q60992580", "brand:zh": "喜士多", "name": "喜士多", "name:en": "C-Store", "name:zh": "喜士多", "opening_hours": "24/7", "shop": "convenience"}}, {"type": "node", "id": 892269937, "lat": 23.1402526, "lon": 113.3262925, "tags": {"brand": "7-Eleven", "brand:wikidata": "Q259340", "name": "7-Eleven", "shop": "convenience"}}, {"type": "node", "id": 892269942, "lat": 23.1438005, "lon": 113.3256342, "tags": {"brand": "7-Eleven", "brand:wikidata": "Q259340", "name": "7-Eleven", "shop": "convenience", "wheelchair": "yes"}}, {"type": "node", "id": 892269947, "lat": 23.1409099, "lon": 113.3238854, "tags": {"brand": "全家", "brand:en": "FamilyMart", "brand:wikidata": "Q11247682", "brand:zh": "全家", "name": "全家", "name:en": "FamilyMart", "name:zh": "全家", "shop": "convenience", "wheelchair": "limited"}}, {"type": "node", "id": 922164154, "lat": 23.1278, "lon": 113.2572606, "tags": {"amenity": "fast_food", "brand": "肯德基", "brand:en": "KFC", "brand:wikidata": "Q524757", "brand:wikipedia": "zh:肯德基", "brand:zh": "肯德基", "cuisine": "chicken", "name": "肯德基", "name:en": "KFC", "name:zh": "肯德基", "takeaway": "yes"}}, {"type": "node", "id": 1281196802, "lat": 23.102733, "lon": 113.2949639, "tags": {"amenity": "restaurant", "cuisine": "coffee_shop", "name": "名典咖啡语茶", "name:en": "Ming Time Coffee Languahe", "name:zh": "名典咖啡语茶"}}, {"type": "node", "id": 1302112951, "lat": 23.1428715, "lon": 113.2539446, "tags": {"amenity": "fast_food", "brand": "麦当劳", "brand:en": "McDonald's", "brand:wikidata": "Q38076", "brand:wikipedia": "zh:麦当劳", "brand:zh": "麦当劳", "brand:zh-Hans": "麦当劳", "cuisine": "burger", "internet_access": "wlan", "internet_access:fee": "yes", "name": "麦当劳", "name:en": "McDonald's", "name:zh": "麦当劳", "name:zh-Hans": "麦当劳", "operator": "McDonald's", "takeaway": "yes"}}, {"type": "node", "id": 1310112309, "lat": 23.1399176, "lon": 113.2530121, "tags": {"amenity": "restaurant", "name": "广东电视台餐厅"}}, {"type": "node", "id": 1703987361, "lat": 23.1286619, "lon": 113.2773861, "tags": {"addr:housename": "中华广场", "air_conditioning": "yes", "brand": "Taste", "level": "3", "name": "TASTE(中华广场店)", "opening_hours": "Mo-Su 10:00-22:00", "operator": "广州百佳超级市场有限公司", "payment:alipay": "yes", "payment:cash": "yes", "payment:credit_cards": "yes", "payment:debit_cards": "yes", "payment:wechat": "yes", "shop": "supermarket", "website": "http://www.parknshop.com.cn/", "wikidata": "Q7687667", "wikimedia_commons": "Category:Taste (supermarket)", "wikipedia": "zh:Taste"}}, {"type": "node", "id": 2049473663, "lat": 23.1462643, "lon": 113.3261365, "tags": {"amenity": "restaurant", "brand": "小肥羊", "brand:en": "LITTLE SHEEP", "brand:wikidata": "Q5976467", "brand:zh": "小肥羊", "cuisine": "chinese;hotpot", "name": "小肥羊", "name:en": "LITTLE SHEEP", "name:zh": "小肥羊"}}, {"type": "node", "id": 2051468104, "lat": 23.0907141, "lon": 113.2691419, "tags": {"amenity": "restaurant", "cuisine": "chinese", "name": "明记海鲜城", "name:zh": "明记海鲜城"}}, {"type": "node", "id": 2097412556, "lat": 23.1576288, "lon": 113.2487402, "tags": {"name": "华润", "shop": "supermarket"}}, {"type": "node", "id": 2098455382, "lat": 23.0926893, "lon": 113.2693131, "tags": {"amenity": "fast_food", "brand": "肯德基", "brand:en": "KFC", "brand:wikidata": "Q524757", "brand:wikipedia": "zh:肯德基", "brand:zh": "肯德基", "cuisine": "chicken", "name": "肯德基", "name:en": "KFC", "name:zh": "肯德基", "takeaway": "yes"}}, {"type": "node", "id": 2467858030, "lat": 23.157473, "lon": 113.2453497, "tags": {"amenity": "fast_food", "brand": "肯德基", "brand:en": "KFC", "brand:wikidata": "Q524757", "brand:wikipedia": "en:KFC", "brand:zh": "肯德基", "cuisine": "chicken", "name": "肯德基", "name:en": "KFC", "name:zh": "肯德基", "takeaway": "yes"}}, {"type": "node", "id": 2468396866, "lat": 23.1112847, "lon": 113.2580131, "tags": {"amenity": "marketplace", "name": "堑口市场", "name:en": "QianKou Marketplace", "name:zh": "堑口市场"}}, {"type": "node", "id": 2469519836, "lat": 23.1569365, "lon": 113.2451265, "tags": {"amenity": "fast_food", "brand": "麦当劳", "brand:en": "McDonald's", "brand:wikidata": "Q38076", "brand:wikipedia": "en:McDonald's", "brand:zh": "麦当劳", "cuisine": "burger", "name": "麦当劳", "name:en": "McDonald's", "name:zh": "麦当劳", "takeaway": "yes"}}, {"type": "node", "id": 2470238662, "lat": 23.1526449, "lon": 113.2438163, "tags": {"amenity": "fast_food", "brand": "麦当劳", "brand:en": "McDonald's", "brand:wikidata": "Q38076", "brand:wikipedia": "en:McDonald's", "brand:zh": "麦当劳", "cuisine": "burger", "name": "麦当劳", "name:en": "McDonald's", "name:zh": "麦当劳", "takeaway": "yes"}}, {"type": "node", "id": 2470238663, "lat": 23.1496132, "lon": 113.2433714, "tags": {"amenity": "fast_food", "brand": "麦当劳", "brand:en": "McDonald's", "brand:wikidata": "Q38076", "brand:wikipedia": "en:McDonald's", "brand:zh": "麦当劳", "cuisine": "burger", "name": "麦当劳", "name:en": "McDonald's", "name:zh": "麦当劳", "takeaway": "yes"}}, {"type": "node", "id": 2470642718, "lat": 23.1635814, "lon": 113.2520954, "tags": {"name": "Lotus Mart", "name:zh": "卜蜂莲花", "shop": "supermarket"}}, {"type": "node", "id": 2472128819, "lat": 23.1515673, "lon": 113.243434, "tags": {"brand": "7-Eleven", "brand:wikidata": "Q259340", "brand:wikipedia": "en:7-Eleven", "name": "7-Eleven", "shop": "convenience"}}, {"type": "node", "id": 2668683963, "lat": 23.116014, "lon": 113.2371726, "tags": {"alt_name:en": "To To Kui", "amenity": "restaurant", "brand": "陶陶居", "brand:en": "Tao Tao Ju", "brand:wikidata": "Q9012420", "brand:wikipedia": "zh:陶陶居", "brand:yue": "陶陶居", "brand:zh": "陶陶居", "cuisine": "cantonese", "name": "陶陶居", "name:en": "Tao Tao Ju", "name:yue": "陶陶居", "name:zh": "陶陶居"}}, {"type": "node", "id": 2697112602, "lat": 23.1202903, "lon": 113.318094, "tags": {"addr:city": "广州市", "addr:district": "天河区", "addr:housenumber": "5号", "addr:postcode": "510623", "addr:province": "广东省", "addr:street": "珠江西路", "amenity": "restaurant", "capacity": "132 indoor 16 private dining", "cuisine": "italian", "floor": "72", "name": "意珍", "name:it": "Caffe Mondo", "name:zh": "意珍", "opening_hours": "06:30-10:30 open \"Breakfast\", 11:30-14:30 open \"Lunch\", 17:30-22:00 \"Dinner\"", "phone": "+86 20 8883 3888", "website": "https://www.fourseasons.com/guangzhou/dining/restaurants/caffe_mondo/"}}, {"type": "node", "id": 2697112603, "lat": 23.1202114, "lon": 113.318094, "tags": {"addr:city": "广州市", "addr:district": "天河区", "addr:housenumber": "5号", "addr:postcode": "510623", "addr:province": "广东省", "addr:street": "珠江西路", "amenity": "restaurant", "capacity": "90 Indoor 10 Private Dining", "cuisine": "japanese", "floor": "72", "name": "云居", "name:en": "Kumoi", "name:zh": "云居", "opening_hours": "11:30-14:30,17:30-22:30", "phone": "+86 20 8883 3888", "website": "https://www.fourseasons.com/guangzhou/dining/restaurants/kumoi/"}}, {"type": "node", "id": 2697112609, "lat": 23.1200055, "lon": 113.3179945, "tags": {"addr:city": "广州市", "addr:district": "天河区", "addr:housenumber": "5号", "addr:postcode": "510623", "addr:province": "广东省", "addr:street": "珠江西路", "amenity": "restaurant", "capacity": "Total 174, Private 80", "cuisine": "chinese/cantonese", "floor": "71", "name": "愉悦轩", "name:en": "YU YUE HEEN", "opening_hours": "11:30-14:30,17:30-22:30", "phone": "+86 20 8883 3888", "website": "https://www.fourseasons.com/guangzhou/dining/restaurants/yu_yue_heen/", "wheelchair": "yes"}}, {"type": "node", "id": 2697112616, "lat": 23.1203668, "lon": 113.3180967, "tags": {"addr:city": "广州市", "addr:district": "天河区", "addr:housenumber": "5号", "addr:postcode": "510623", "addr:province": "广东省", "addr:street": "珠江西路", "amenity": "restaurant", "capacity": "102", "cuisine": "seafood", "floor": "100", "name": "佰鲜汇", "name:en": "Catch", "name:zh": "佰鲜汇", "opening_hours": "18:00-22:00", "phone": "+86 20 8883 3888", "website": "https://www.fourseasons.com/guangzhou/dining/restaurants/catch/"}}, {"type": "node", "id": 2997930655, "lat": 23.1424181, "lon": 113.2711364, "tags": {"amenity": "fast_food", "brand": "麦当劳", "brand:en": "McDonald's", "brand:wikidata": "Q38076", "brand:wikipedia": "zh:麦当劳", "brand:zh": "麦当劳", "brand:zh-Hans": "麦当劳", "cuisine": "burger", "name": "麦当劳", "name:en": "McDonald's", "name:zh": "麦当劳", "name:zh-Hans": "麦当劳", "takeaway": "yes"}}, {"type": "node", "id": 2997930656, "lat": 23.142787, "lon": 113.2721562, "tags": {"brand": "7-Eleven", "brand:wikidata": "Q259340", "brand:wikipedia": "en:7-Eleven", "name": "7-Eleven", "shop": "convenience"}}, {"type": "node", "id": 3002242135, "lat": 23.13715, "lon": 113.2797153, "tags": {"brand": "7-Eleven", "brand:wikidata": "Q259340", "brand:wikipedia": "en:7-Eleven", "name": "7-Eleven", "shop": "convenience"}}, {"type": "node", "id": 3002242433, "lat": 23.1373332, "lon": 113.2796151, "tags": {"amenity": "fast_food", "brand": "麦当劳", "brand:en": "McDonald's", "brand:wikidata": "Q38076", "brand:wikipedia": "zh:麦当劳", "brand:zh": "麦当劳", "brand:zh-Hans": "麦当劳", "cuisine": "burger", "name": "麦当劳", "name:en": "McDonald's", "name:zh": "麦当劳", "name:zh-Hans": "麦当劳", "takeaway": "yes"}}, {"type": "node", "id": 3003009833, "lat": 23.1408562, "lon": 113.2753002, "tags": {"brand": "喜士多", "brand:en": "C-Store", "brand:wikidata": "Q60992580", "brand:wikipedia": "zh:喜士多", "brand:zh": "喜士多", "name": "喜士多", "name:en": "C-Store", "name:zh": "喜士多", "opening_hours": "24/7", "shop": "convenience"}}, {"type": "node", "id": 3003794039, "lat": 23.1408098, "lon": 113.2756056, "tags": {"amenity": "restaurant", "cuisine": "chinese", "name": "兴悦酒家"}}, {"type": "node", "id": 3004009135, "lat": 23.1278338, "lon": 113.2855613, "tags": {"brand": "7-Eleven", "brand:wikidata": "Q259340", "brand:wikipedia": "en:7-Eleven", "name": "7-Eleven", "shop": "convenience"}}, {"type": "node", "id": 3005115509, "lat": 23.1471824, "lon": 113.2729239, "tags": {"amenity": "restaurant", "cuisine": "regional", "name": "十八涌"}}, {"type": "node", "id": 3005115511, "lat": 23.1476504, "lon": 113.2724173, "tags": {"amenity": "fast_food", "cuisine": "chinese", "name": "禄景记"}}, {"type": "node", "id": 3005115512, "lat": 23.1476292, "lon": 113.2724744, "tags": {"brand": "美宜佳", "brand:en": "Meiyijia", "brand:wikidata": "Q55719551", "brand:wikipedia": "zh:美宜佳", "brand:zh": "美宜佳", "name": "美宜佳", "name:en": "Meiyijia", "name:zh": "美宜佳", "opening_hours": "24/7", "shop": "convenience"}}, {"type": "node", "id": 3008322636, "lat": 23.1299254, "lon": 113.2755013, "tags": {"brand": "7-Eleven", "brand:wikidata": "Q259340", "brand:wikipedia": "en:7-Eleven", "name": "7-Eleven", "opening_hours": "24/7", "shop": "convenience"}}, {"type": "node", "id": 3008382937, "lat": 23.1389373, "lon": 113.2728644, "tags": {"brand": "喜士多", "brand:en": "C-Store", "brand:wikidata": "Q60992580", "brand:wikipedia": "zh:喜士多", "brand:zh": "喜士多", "name": "喜士多", "name:en": "C-Store", "name:zh": "喜士多", "shop": "convenience"}}, {"type": "node", "id": 3008401637, "lat": 23.141521, "lon": 113.2740244, "tags": {"brand": "全家", "brand:en": "FamilyMart", "brand:wikidata": "Q11247682", "brand:wikipedia": "zh:FamilyMart", "brand:zh": "全家", "name": "全家", "name:en": "FamilyMart", "name:zh": "全家", "shop": "convenience"}}, {"type": "node", "id": 3008401639, "lat": 23.1422558, "lon": 113.2734031, "tags": {"brand": "全家", "brand:en": "FamilyMart", "brand:wikidata": "Q11247682", "brand:wikipedia": "zh:FamilyMart", "brand:zh": "全家", "name": "全家", "name:en": "FamilyMart", "name:zh": "全家", "shop": "convenience"}}, {"type": "node", "id": 3008526733, "lat": 23.1424516, "lon": 113.2715215, "tags": {"amenity": "restaurant", "brand": "萨莉亚", "brand:en": "Saizeriya", "brand:ja": "サイゼリヤ", "brand:wikidata": "Q886564", "brand:wikipedia": "zh:萨莉亚", "brand:zh": "萨莉亚", "cuisine": "italian", "name": "萨莉亚", "name:en": "Saizeriya", "name:ja": "サイゼリヤ", "name:zh": "萨莉亚"}}, {"type": "node", "id": 3009766333, "lat": 23.1273044, "lon": 113.2856174, "tags": {"amenity": "restaurant", "cuisine": "regional", "name": "鸿富华酒家"}}, {"type": "node", "id": 3019367204, "lat": 23.153638, "lon": 113.2733247, "tags": {"amenity": "restaurant", "name": "畔山酒店"}}, {"type": "node", "id": 3019405633, "lat": 23.1368193, "lon": 113.2822378, "tags": {"brand": "7-Eleven", "brand:wikidata": "Q259340", "brand:wikipedia": "en:7-Eleven", "name": "7-Eleven", "shop": "convenience"}}, {"type": "node", "id": 3019556933, "lat": 23.1388302, "lon": 113.2762905, "tags": {"amenity": "cafe", "brand": "星巴克", "brand:en": "Starbucks", "brand:wikidata": "Q37158", "brand:wikipedia": "zh:星巴克", "brand:zh": "星巴克", "cuisine": "coffee_shop", "name": "星巴克", "name:en": "Starbucks", "name:zh": "星巴克", "official_name": "Starbucks Coffee", "takeaway": "yes"}}, {"type": "node", "id": 3019561333, "lat": 23.1422918, "lon": 113.2729822, "tags": {"amenity": "restaurant", "cuisine": "chinese", "name": "同湘会"}}, {"type": "node", "id": 3019561433, "lat": 23.1422972, "lon": 113.2727956, "tags": {"amenity": "restaurant", "name": "金成炖品"}}, {"type": "node", "id": 3023761634, "lat": 23.1261703, "lon": 113.2812552, "tags": {"amenity": "restaurant", "cuisine": "chinese", "name": "东川酒家"}}, {"type": "node", "id": 3023761636, "lat": 23.1254151, "lon": 113.2807531, "tags": {"name": "胜佳超市", "name:zh": "胜佳超市", "shop": "supermarket"}}, {"type": "node", "id": 3023761637, "lat": 23.1260951, "lon": 113.2795107, "tags": {"brand": "华润万家", "brand:en": "Vanguard", "brand:wikidata": "Q5099892", "brand:wikipedia": "zh:華潤萬家", "brand:zh": "华润万家", "name": "华润万家", "name:en": "Vanguard", "name:zh": "华润万家", "shop": "supermarket"}}, {"type": "node", "id": 3023787233, "lat": 23.1244494, "lon": 113.2805604, "tags": {"brand": "全家", "brand:en": "FamilyMart", "brand:wikidata": "Q11247682", "brand:wikipedia": "zh:FamilyMart", "brand:zh": "全家", "name": "全家", "name:en": "FamilyMart", "name:zh": "全家", "shop": "convenience"}}, {"type": "node", "id": 3023836433, "lat": 23.1252345, "lon": 113.2777363, "tags": {"brand": "7-Eleven", "brand:wikidata": "Q259340", "brand:wikipedia": "en:7-Eleven", "name": "7-Eleven", "shop": "convenience"}}, {"type": "node", "id": 3023836435, "lat": 23.1228736, "lon": 113.2799222, "tags": {"brand": "全家", "brand:en": "FamilyMart", "brand:wikidata": "Q11247682", "brand:wikipedia": "zh:FamilyMart", "brand:zh": "全家", "name": "全家", "name:en": "FamilyMart", "name:zh": "全家", "opening_hours": "24/7", "shop": "convenience"}}, {"type": "node", "id": 3023837237, "lat": 23.1243631, "lon": 113.2809036, "tags": {"amenity": "fast_food", "brand": "麦当劳", "brand:en": "McDonald's", "brand:wikidata": "Q38076", "brand:zh": "麦当劳", "cuisine": "burger", "name": "麦当劳", "name:en": "McDonald's", "name:zh": "麦当劳", "takeaway": "yes"}}, {"type": "node", "id": 3023837934, "lat": 23.1244573, "lon": 113.281032, "tags": {"amenity": "restaurant", "cuisine": "chinese", "name": "芸香居"}}, {"type": "node", "id": 3027270607, "lat": 23.1418348, "lon": 113.2747019, "tags": {"brand": "7-Eleven", "brand:wikidata": "Q259340", "brand:wikipedia": "en:7-Eleven", "name": "7-Eleven", "shop": "convenience"}}, {"type": "node", "id": 3027270608, "lat": 23.1417031, "lon": 113.2750289, "tags": {"amenity": "cafe", "branch": "新粤新店", "brand": "星巴克", "brand:en": "Starbucks", "brand:wikidata": "Q37158", "brand:wikipedia": "zh:星巴克", "brand:zh": "星巴克", "cuisine": "coffee_shop", "internet_access": "wlan", "name": "星巴克", "name:en": "Starbucks", "name:zh": "星巴克", "smoking": "no", "takeaway": "yes"}}, {"type": "node", "id": 3027277935, "lat": 23.1448198, "lon": 113.2684421, "tags": {"brand": "7-Eleven", "brand:wikidata": "Q259340", "brand:wikipedia": "en:7-Eleven", "name": "7-Eleven", "shop": "convenience"}}, {"type": "node", "id": 3027306657, "lat": 23.1391589, "lon": 113.2671127, "tags": {"amenity": "restaurant", "cuisine": "chinese", "name": "北园酒家", "name:en": "Bei Yuan", "wikidata": "Q9491540", "wikimedia_commons": "Category:Beiyuan Restaurant", "wikipedia": "zh:北园酒家"}}, {"type": "node", "id": 3027306658, "lat": 23.1398823, "lon": 113.2678201, "tags": {"brand": "7-Eleven", "brand:wikidata": "Q259340", "brand:wikipedia": "en:7-Eleven", "name": "7-Eleven", "shop": "convenience"}}, {"type": "node", "id": 3027334513, "lat": 23.1386287, "lon": 113.2555039, "tags": {"brand": "7-Eleven", "brand:wikidata": "Q259340", "brand:wikipedia": "en:7-Eleven", "name": "7-Eleven", "shop": "convenience"}}, {"type": "node", "id": 3027334515, "lat": 23.1374468, "lon": 113.2542265, "tags": {"brand": "7-Eleven", "brand:wikidata": "Q259340", "brand:wikipedia": "en:7-Eleven", "name": "7-Eleven", "shop": "convenience"}}, {"type": "node", "id": 3027334516, "lat": 23.1380977, "lon": 113.2544034, "tags": {"brand": "OK便利店", "brand:en": "Circle K", "brand:wikidata": "Q3268010", "brand:wikipedia": "zh:OK便利店", "brand:zh": "OK便利店", "name": "OK便利店", "name:en": "Circle K", "name:zh": "OK便利店", "shop": "convenience"}}, {"type": "node", "id": 3027357666, "lat": 23.1382955, "lon": 113.2543011, "tags": {"amenity": "restaurant", "name": "红色角落风味餐厅"}}, {"type": "node", "id": 3027357667, "lat": 23.1384875, "lon": 113.2542055, "tags": {"amenity": "restaurant", "name": "玲又珑"}}, {"type": "node", "id": 3027804016, "lat": 23.1284298, "lon": 113.279233, "tags": {"entrance": "yes", "name": "地王广场", "name:en": "Dynasty Plaza", "shop": "mall"}}, {"type": "node", "id": 3027804017, "lat": 23.1284435, "lon": 113.2782624, "tags": {"entrance": "yes", "name": "地王广场", "name:en": "Dynasty Plaza", "shop": "mall"}}, {"type": "node", "id": 3029381237, "lat": 23.1515617, "lon": 113.2684358, "tags": {"brand": "美宜佳", "brand:en": "Meiyijia", "brand:wikidata": "Q55719551", "brand:wikipedia": "zh:美宜佳", "brand:zh": "美宜佳", "name": "美宜佳", "name:en": "Meiyijia", "name:zh": "美宜佳", "shop": "convenience"}}, {"type": "node", "id": 3036591535, "lat": 23.1417121, "lon": 113.2724797, "tags": {"amenity": "restaurant", "cuisine": "chinese", "name": "肥婶厨房"}}, {"type": "node", "id": 3036646236, "lat": 23.1200731, "lon": 113.3127879, "tags": {"addr:city": "广州市", "addr:district": "天河区", "addr:housenumber": "48", "addr:province": "广东省", "addr:street": "华利路", "alt_name": "星巴克", "amenity": "cafe", "branch": "保利香槟花园店", "brand": "星巴克", "brand:en": "Starbucks", "brand:wikidata": "Q37158", "brand:wikipedia": "zh:星巴克", "brand:zh": "星巴克", "cuisine": "coffee_shop", "name": "星巴克", "name:en": "Starbucks", "name:zh": "星巴克", "official_name": "Starbucks Coffee", "opening_hours": "Mo 07:30-21:20; Tu-Fr 06:30-21:20; Sa 07:30-21:20; Su 06:30-21:20", "phone": "+86 20 3837 3501", "takeaway": "yes"}}, {"type": "node", "id": 3036646435, "lat": 23.1201283, "lon": 113.3113211, "tags": {"name": "喜市多", "shop": "convenience"}}, {"type": "node", "id": 3036646436, "lat": 23.12013, "lon": 113.3117133, "tags": {"amenity": "fast_food", "brand": "赛百味", "brand:en": "Subway", "brand:wikidata": "Q244457", "brand:wikipedia": "zh:赛百味", "brand:zh": "赛百味", "cuisine": "sandwich", "name": "赛百味", "name:en": "Subway", "name:zh": "赛百味", "takeaway": "yes"}}, {"type": "node", "id": 3036646638, "lat": 23.1205172, "lon": 113.313684, "tags": {"brand": "全家", "brand:en": "FamilyMart", "brand:wikidata": "Q11247682", "brand:wikipedia": "zh:FamilyMart", "brand:zh": "全家", "name": "全家", "name:en": "FamilyMart", "name:zh": "全家", "shop": "convenience", "wheelchair": "yes"}}, {"type": "node", "id": 3036907352, "lat": 23.1382803, "lon": 113.255405, "tags": {"amenity": "restaurant", "cuisine": "coffee_shop", "name": "甜心狗", "name:en": "Honey Dog"}}, {"type": "node", "id": 3036909542, "lat": 23.1426399, "lon": 113.2553581, "tags": {"addr:city": "Guangzhou", "air_conditioning": "yes", "amenity": "cafe", "brand": "星巴克", "brand:en": "Starbucks", "brand:wikidata": "Q37158", "brand:wikipedia": "zh:星巴克", "brand:zh": "星巴克", "cuisine": "coffee_shop", "drive_through": "no", "highchair": "no", "internet_access": "wlan", "name": "星巴克", "name:en": "Starbucks", "name:zh": "星巴克", "official_name": "Starbucks Coffee", "smoking": "outside", "takeaway": "yes"}}, {"type": "node", "id": 3036909572, "lat": 23.1421959, "lon": 113.255823, "tags": {"brand": "7-Eleven", "brand:wikidata": "Q259340", "brand:wikipedia": "en:7-Eleven", "name": "7-Eleven", "shop": "convenience"}}, {"type": "node", "id": 3036950431, "lat": 23.1352716, "lon": 113.2664892, "tags": {"name": "胜佳超市", "shop": "supermarket"}}, {"type": "node", "id": 3036970624, "lat": 23.136327, "lon": 113.2490805, "tags": {"amenity": "fast_food", "cuisine": "chinese", "name": "都城快餐"}}, {"type": "node", "id": 3036972552, "lat": 23.1353256, "lon": 113.2525218, "tags": {"amenity": "fast_food", "brand": "麦当劳", "brand:en": "McDonald's", "brand:wikidata": "Q38076", "brand:wikipedia": "zh:麦当劳", "brand:zh": "麦当劳", "brand:zh-Hans": "麦当劳", "cuisine": "burger", "delivery": "yes", "drive_through": "no", "level": "-1", "name": "麦当劳", "name:en": "McDonald's", "name:zh": "麦当劳", "name:zh-Hans": "麦当劳", "outdoor_seating": "no", "smoking": "no", "takeaway": "yes"}}, {"type": "node", "id": 3036975585, "lat": 23.1286817, "lon": 113.2495042, "tags": {"brand": "全家", "brand:en": "FamilyMart", "brand:wikidata": "Q11247682", "brand:wikipedia": "zh:FamilyMart", "brand:zh": "全家", "name": "全家", "name:en": "FamilyMart", "name:zh": "全家", "shop": "convenience", "wheelchair": "limited"}}, {"type": "node", "id": 3036975586, "lat": 23.1285254, "lon": 113.2494929, "tags": {"amenity": "fast_food", "brand": "真功夫", "brand:en": "Kungfu", "brand:wikidata": "Q15909765", "brand:wikipedia": "zh:真功夫", "brand:zh": "真功夫", "cuisine": "chinese", "name": "真功夫", "name:en": "Kungfu", "name:zh": "真功夫", "takeaway": "yes", "wheelchair": "limited"}}, {"type": "node", "id": 3036991675, "lat": 23.134917, "lon": 113.255115, "tags": {"amenity": "fast_food", "name": "都城快餐"}}, {"type": "node", "id": 3037003769, "lat": 23.1345165, "lon": 113.2569594, "tags": {"name": "8便利店", "name:en": "8-Mart", "name:zh": "8便利店", "shop": "convenience"}}, {"type": "node", "id": 3037003776, "lat": 23.1338786, "lon": 113.2578161, "tags": {"brand": "7-Eleven", "brand:wikidata": "Q259340", "brand:wikipedia": "en:7-Eleven", "name": "7-Eleven", "shop": "convenience"}}, {"type": "node", "id": 3037008027, "lat": 23.1285509, "lon": 113.2597054, "tags": {"amenity": "cafe", "brand": "星巴克", "brand:en": "Starbucks", "brand:wikidata": "Q37158", "brand:wikipedia": "zh:星巴克", "brand:zh": "星巴克", "cuisine": "coffee_shop", "internet_access": "wlan", "internet_access:fee": "no", "name": "星巴克", "name:en": "Starbucks", "name:zh": "星巴克", "official_name": "Starbucks Coffee", "outdoor_seating": "yes", "takeaway": "yes"}}, {"type": "node", "id": 3037034303, "lat": 23.1285223, "lon": 113.2585427, "tags": {"amenity": "cafe", "brand": "星巴克", "brand:en": "Starbucks", "brand:wikidata": "Q37158", "brand:wikipedia": "zh:星巴克", "brand:zh": "星巴克", "cuisine": "coffee_shop", "internet_access": "wlan", "internet_access:fee": "no", "name": "星巴克", "name:en": "Starbucks", "name:zh": "星巴克", "official_name": "Starbucks Coffee", "outdoor_seating": "yes", "takeaway": "yes"}}, {"type": "node", "id": 3037051266, "lat": 23.1293461, "lon": 113.2687202, "tags": {"name": "风行", "shop": "convenience"}}, {"type": "node", "id": 3037051269, "lat": 23.1263186, "lon": 113.2777716, "tags": {"brand": "7-Eleven", "brand:wikidata": "Q259340", "brand:wikipedia": "en:7-Eleven", "name": "7-Eleven", "shop": "convenience"}}, {"type": "node", "id": 3037051271, "lat": 23.1294609, "lon": 113.2756343, "tags": {"amenity": "restaurant", "cuisine": "chinese", "name": "常来小聚"}}, {"type": "node", "id": 3037062960, "lat": 23.1331135, "lon": 113.2692472, "tags": {"brand": "7-Eleven", "brand:wikidata": "Q259340", "brand:wikipedia": "en:7-Eleven", "name": "7-Eleven", "shop": "convenience"}}, {"type": "node", "id": 3037079677, "lat": 23.1317961, "lon": 113.2660036, "tags": {"brand": "罗森", "brand:en": "LAWSON", "brand:wikidata": "Q1557223", "brand:wikipedia": "en:Circle K", "brand:zh": "罗森", "name": "罗森", "name:en": "Lawson", "name:zh": "罗森", "operator": "罗森（中国）投资有限公司", "shop": "convenience"}}, {"type": "node", "id": 3037110081, "lat": 23.1286749, "lon": 113.2660876, "tags": {"amenity": "fast_food", "brand": "麦当劳", "brand:en": "McDonald's", "brand:wikidata": "Q38076", "brand:wikipedia": "zh:麦当劳", "brand:zh": "麦当劳", "brand:zh-Hans": "麦当劳", "cuisine": "burger", "name": "麦当劳", "name:en": "McDonald's", "name:zh": "麦当劳", "name:zh-Hans": "麦当劳", "takeaway": "yes"}}, {"type": "node", "id": 3039226410, "lat": 23.1169751, "lon": 113.2431777, "tags": {"brand": "7-Eleven", "brand:wikidata": "Q259340", "brand:wikipedia": "en:7-Eleven", "name": "7-Eleven", "shop": "convenience"}}, {"type": "node", "id": 3039226412, "lat": 23.1168263, "lon": 113.24322, "tags": {"brand": "7-Eleven", "brand:wikidata": "Q259340", "brand:wikipedia": "en:7-Eleven", "name": "7-Eleven", "shop": "convenience"}}, {"type": "node", "id": 3039267293, "lat": 23.1161081, "lon": 113.2379122, "tags": {"amenity": "restaurant", "cuisine": "cantonese", "name": "莲香楼", "name:en": "Lian Xiang Lou", "wikidata": "Q7212007", "wikimedia_commons": "Category:Lin Heung", "wikipedia": "zh:莲香楼"}}, {"type": "node", "id": 3039296252, "lat": 23.1277187, "lon": 113.2903385, "tags": {"amenity": "cafe", "brand": "星巴克", "brand:en": "Starbucks", "brand:wikidata": "Q37158", "brand:wikipedia": "zh:星巴克", "brand:zh": "星巴克", "cuisine": "coffee_shop", "internet_access": "wlan", "name": "星巴克", "name:en": "Starbucks", "name:zh": "星巴克", "official_name": "Starbucks Coffee", "takeaway": "yes"}}, {"type": "node", "id": 3039384888, "lat": 23.1462145, "lon": 113.2742863, "tags": {"amenity": "marketplace", "name": "沙河登峰综合市场"}}, {"type": "node", "id": 3040300133, "lat": 23.1300905, "lon": 113.273089, "tags": {"amenity": "restaurant", "cuisine": "chinese", "name": "海宝酒家"}}, {"type": "node", "id": 3040307652, "lat": 23.1299078, "lon": 113.2620991, "tags": {"brand": "OK便利店", "brand:en": "Circle K", "brand:wikidata": "Q3268010", "brand:wikipedia": "zh:OK便利店", "brand:zh": "OK便利店", "name": "OK便利店", "name:en": "Circle K", "name:zh": "OK便利店", "shop": "convenience"}}, {"type": "node", "id": 3041002538, "lat": 23.1293121, "lon": 113.2782333, "tags": {"addr:city": "广州市", "addr:district": "越秀区", "addr:province": "广东省", "addr:street": "中山三路", "name": "广州未来城", "name:en": "FUTURE CITY", "opening_hours": "Mo-Su 10:00-22:00", "shop": "mall", "start_date": "2023", "wikidata": "Q10383562", "wikipedia": "zh:流行前线名店城"}}, {"type": "node", "id": 3043163338, "lat": 23.1445394, "lon": 113.2823904, "tags": {"amenity": "restaurant", "cuisine": "chinese", "name": "发哥茶餐厅", "name:en": "Brother Fat"}}, {"type": "node", "id": 3043163843, "lat": 23.1411867, "lon": 113.2822632, "tags": {"amenity": "cafe", "brand": "星巴克", "brand:en": "Starbucks", "brand:wikidata": "Q37158", "brand:wikipedia": "zh:星巴克", "brand:zh": "星巴克", "cuisine": "coffee_shop", "name": "星巴克", "name:en": "Starbucks", "name:zh": "星巴克", "takeaway": "yes"}}, {"type": "node", "id": 3043163944, "lat": 23.1421561, "lon": 113.2823346, "tags": {"amenity": "fast_food", "brand": "肯德基", "brand:en": "KFC", "brand:wikidata": "Q524757", "brand:wikipedia": "zh:肯德基", "brand:zh": "肯德基", "cuisine": "chicken", "name": "肯德基", "name:en": "KFC", "name:zh": "肯德基", "takeaway": "yes"}}, {"type": "node", "id": 3045406836, "lat": 23.1307302, "lon": 113.2868875, "tags": {"brand": "7-Eleven", "brand:wikidata": "Q259340", "brand:wikipedia": "en:7-Eleven", "name": "7-Eleven", "name:en": "7-Eleven", "opening_hours": "24/7", "shop": "convenience"}}, {"type": "node", "id": 3045442734, "lat": 23.1346469, "lon": 113.2796135, "tags": {"amenity": "restaurant", "cuisine": "japanese", "name": "稻菊"}}, {"type": "node", "id": 3045475036, "lat": 23.132265, "lon": 113.2865623, "tags": {"brand": "罗森", "brand:en": "LAWSON", "brand:wikidata": "Q1557223", "brand:wikipedia": "zh:OK便利店", "brand:zh": "罗森", "name": "罗森", "name:en": "Lawson", "name:zh": "罗森", "operator": "罗森（中国）投资有限公司", "shop": "convenience"}}, {"type": "node", "id": 3045577533, "lat": 23.1408917, "lon": 113.2753351, "tags": {"amenity": "restaurant", "cuisine": "chinese", "name": "潮源食府"}}, {"type": "node", "id": 3045578033, "lat": 23.1458043, "lon": 113.2729047, "tags": {"amenity": "restaurant", "cuisine": "chinese", "name": "湖畔美食店"}}, {"type": "node", "id": 3048473834, "lat": 23.124952, "lon": 113.2719882, "tags": {"brand": "7-Eleven", "brand:wikidata": "Q259340", "name": "7-Eleven", "shop": "convenience"}}, {"type": "node", "id": 3049832633, "lat": 23.1288069, "lon": 113.2812333, "tags": {"amenity": "fast_food", "brand": "72街", "brand:en": "72 Street", "brand:wikidata": "Q108683743", "brand:zh": "72街", "cuisine": "chinese", "level": "0", "name": "72街", "name:en": "72 Street", "name:zh": "72街", "takeaway": "yes"}}, {"type": "node", "id": 3055052733, "lat": 23.128708, "lon": 113.2680632, "tags": {"addr:city": "广州市", "addr:district": "越秀区", "addr:housenumber": "199", "addr:province": "广东省", "addr:street": "中山四路", "amenity": "fast_food", "brand": "肯德基", "brand:en": "KFC", "brand:wikidata": "Q524757", "brand:wikipedia": "zh:肯德基", "brand:zh": "肯德基", "cuisine": "chicken", "delivery": "yes", "drive_through": "no", "level": "0", "name": "肯德基", "name:en": "KFC", "name:zh": "肯德基", "opening_hours": "24/7", "outdoor_seating": "no", "smoking": "no", "takeaway": "yes"}}, {"type": "node", "id": 3065005644, "lat": 23.0977229, "lon": 113.2864467, "tags": {"addr:city": "广州", "name": "西区教育超市", "name:zh": "西区教育超市", "shop": "supermarket"}}, {"type": "node", "id": 3065005868, "lat": 23.0977401, "lon": 113.2859425, "tags": {"addr:city": "广州", "amenity": "restaurant", "fast_food": "cafeteria", "name": "教工食堂"}}, {"type": "node", "id": 3081580561, "lat": 23.1300537, "lon": 113.2626952, "tags": {"brand": "7-Eleven", "brand:wikidata": "Q259340", "brand:wikipedia": "en:7-Eleven", "name": "7-Eleven", "shop": "convenience"}}, {"type": "node", "id": 3088619765, "lat": 23.1310909, "lon": 113.2643279, "tags": {"building": "office", "name": "瑞安广州中心"}}, {"type": "node", "id": 3200955362, "lat": 23.1286655, "lon": 113.2352287, "tags": {"amenity": "restaurant", "level": "4", "name": "九毛九"}}, {"type": "node", "id": 3200982361, "lat": 23.1286448, "lon": 113.234792, "tags": {"brand": "华润万家", "brand:en": "Vanguard", "brand:wikidata": "Q5099892", "brand:wikipedia": "zh:華潤萬家", "brand:zh": "华润万家", "name": "华润万家", "name:en": "Vanguard", "name:zh": "华润万家", "shop": "supermarket"}}, {"type": "node", "id": 3202490083, "lat": 23.1260324, "lon": 113.2816795, "tags": {"amenity": "marketplace", "name": "东川新街市"}}, {"type": "node", "id": 3215790461, "lat": 23.128604, "lon": 113.2620912, "tags": {"amenity": "cafe", "brand": "Honeymoon Dessert", "brand:en": "Honeymoon Dessert", "brand:wikidata": "Q11326608", "brand:zh": "满记甜品", "cuisine": "asian;dessert", "name": "Honeymoon Dessert", "name:en": "Honeymoon Dessert", "name:zh": "满记甜品", "takeaway": "yes"}}, {"type": "node", "id": 3215813661, "lat": 23.128466, "lon": 113.2640639, "tags": {"amenity": "restaurant", "name": "荔银肠粉", "name:en": "Liyin Rice Roll"}}, {"type": "node", "id": 3226012093, "lat": 23.1513744, "lon": 113.2684543, "tags": {"amenity": "cafe", "name": "Alone Me 2"}}, {"type": "node", "id": 3226012094, "lat": 23.1511944, "lon": 113.268162, "tags": {"amenity": "restaurant", "cuisine": "ramen", "name": "兰州拉面"}}, {"type": "node", "id": 3248807062, "lat": 23.1175898, "lon": 113.2795385, "tags": {"amenity": "fast_food", "brand": "麦当劳", "brand:en": "McDonald's", "brand:wikidata": "Q38076", "brand:wikipedia": "zh:麦当劳", "brand:zh": "麦当劳", "brand:zh-Hans": "麦当劳", "cuisine": "burger", "name": "麦当劳", "name:en": "McDonald's", "name:zh": "麦当劳", "name:zh-Hans": "麦当劳", "takeaway": "yes"}}, {"type": "node", "id": 3248807361, "lat": 23.1220025, "lon": 113.28021, "tags": {"amenity": "restaurant", "cuisine": "chinese", "microbrewery": "no", "name": "鸿星海鲜酒家", "name:zh": "鸿星海鲜酒家"}}, {"type": "node", "id": 3248808261, "lat": 23.1169716, "lon": 113.2777479, "tags": {"brand": "7-Eleven", "brand:wikidata": "Q259340", "name": "7-Eleven", "shop": "convenience"}}, {"type": "node", "id": 3262643367, "lat": 23.1316749, "lon": 113.3254713, "tags": {"amenity": "restaurant", "microbrewery": "no", "name": "椒堂米粉", "name:zh": "椒堂米粉"}}, {"type": "node", "id": 3276720464, "lat": 23.1414712, "lon": 113.2689321, "tags": {"brand": "7-Eleven", "brand:wikidata": "Q259340", "brand:wikipedia": "en:7-Eleven", "name": "7-Eleven", "shop": "convenience"}}, {"type": "node", "id": 3276720465, "lat": 23.1414957, "lon": 113.268964, "tags": {"amenity": "fast_food", "brand": "赛百味", "brand:en": "Subway", "brand:wikidata": "Q244457", "brand:wikipedia": "zh:赛百味", "brand:zh": "赛百味", "cuisine": "sandwich", "name": "赛百味", "name:en": "Subway", "name:zh": "赛百味", "takeaway": "yes"}}, {"type": "node", "id": 3287751063, "lat": 23.1635942, "lon": 113.2514971, "tags": {"amenity": "fast_food", "brand": "肯德基", "brand:en": "KFC", "brand:wikidata": "Q524757", "brand:wikipedia": "zh:肯德基", "brand:zh": "肯德基", "cuisine": "chicken", "name": "肯德基", "name:en": "KFC", "name:zh": "肯德基", "takeaway": "yes"}}, {"type": "node", "id": 3287751064, "lat": 23.1637606, "lon": 113.25118, "tags": {"amenity": "restaurant", "brand": "味千拉面", "brand:en": "Ajisen Ramen", "brand:ja": "味千ラーメン", "brand:wikidata": "Q4699761", "brand:wikipedia": "zh:味千拉麵", "brand:zh": "味千拉面", "brand:zn": "味千拉面", "cuisine": "ramen", "name": "味千拉面", "name:en": "Ajisen Ramen", "name:ja": "味千ラーメン", "name:zh": "味千拉面"}}, {"type": "node", "id": 3287757713, "lat": 23.1757087, "lon": 113.2451496, "tags": {"amenity": "restaurant", "name": "嘉利喜宴"}}, {"type": "node", "id": 3290554643, "lat": 23.1756024, "lon": 113.2497865, "tags": {"brand": "7-Eleven", "brand:wikidata": "Q259340", "brand:wikipedia": "en:7-Eleven", "name": "7-Eleven", "shop": "convenience"}}, {"type": "node", "id": 3290554645, "lat": 23.175591, "lon": 113.2499546, "tags": {"amenity": "restaurant", "brand": "必胜客", "brand:en": "Pizza Hut", "brand:wikidata": "Q191615", "brand:wikipedia": "en:Pizza Hut", "brand:zh": "必胜客", "cuisine": "pizza", "name": "必胜客", "name:en": "Pizza Hut", "name:zh": "必胜客"}}, {"type": "node", "id": 3290554861, "lat": 23.1755447, "lon": 113.2504936, "tags": {"amenity": "fast_food", "brand": "肯德基", "brand:en": "KFC", "brand:wikidata": "Q524757", "brand:wikipedia": "en:KFC", "brand:zh": "肯德基", "cuisine": "chicken", "name": "肯德基", "name:en": "KFC", "name:ko": "웬징루 KFC", "name:zh": "肯德基", "takeaway": "yes"}}, {"type": "node", "id": 3292160895, "lat": 23.169381, "lon": 113.2480655, "tags": {"amenity": "fast_food", "brand": "麦当劳", "brand:en": "McDonald's", "brand:wikidata": "Q38076", "brand:wikipedia": "zh:麦当劳", "brand:zh": "麦当劳", "brand:zh-Hans": "麦当劳", "cuisine": "burger", "name": "麦当劳", "name:en": "McDonald's", "name:zh": "麦当劳", "name:zh-Hans": "麦当劳", "takeaway": "yes"}}, {"type": "node", "id": 3292188448, "lat": 23.1755789, "lon": 113.250136, "tags": {"amenity": "cafe", "brand": "Costa咖啡", "brand:en": "Costa", "brand:wikidata": "Q608845", "brand:wikipedia": "en:Costa Coffee", "brand:zh": "Costa咖啡", "cuisine": "coffee_shop", "name": "Costa咖啡", "name:en": "Costa", "name:zh": "Costa咖啡", "takeaway": "yes"}}, {"type": "node", "id": 3320051069, "lat": 23.1286298, "lon": 113.279586, "tags": {"amenity": "restaurant", "name": "西游记"}}, {"type": "node", "id": 3353423699, "lat": 23.1272129, "lon": 113.2702386, "tags": {"amenity": "restaurant", "name": "陶园美食"}}, {"type": "node", "id": 3353431993, "lat": 23.1294126, "lon": 113.2689503, "tags": {"amenity": "restaurant", "name": "永盈茶餐厅"}}, {"type": "node", "id": 3353565594, "lat": 23.1233377, "lon": 113.2640257, "tags": {"amenity": "fast_food", "brand": "麦当劳", "brand:en": "McDonald's", "brand:wikidata": "Q38076", "brand:wikipedia": "zh:麦当劳", "brand:zh": "麦当劳", "brand:zh-Hans": "麦当劳", "cuisine": "burger", "name": "麦当劳", "name:en": "McDonald's", "name:zh": "麦当劳", "name:zh-Hans": "麦当劳", "takeaway": "yes"}}, {"type": "node", "id": 3355249597, "lat": 23.1244266, "lon": 113.2809171, "tags": {"amenity": "cafe", "brand": "瑞幸咖啡", "brand:en": "Luckin Coffee", "brand:wikidata": "Q56811344", "brand:zh": "瑞幸咖啡", "cuisine": "coffee_shop", "name": "瑞幸咖啡", "name:en": "Luckin Coffee", "name:zh": "瑞幸咖啡", "takeaway": "yes"}}, {"type": "node", "id": 3355271899, "lat": 23.1239621, "lon": 113.283299, "tags": {"amenity": "restaurant", "name": "福兴酒家", "name:zh": "福兴酒家"}}, {"type": "node", "id": 3355271907, "lat": 23.1244388, "lon": 113.2813487, "tags": {"amenity": "restaurant", "name": "老四川", "name:zh": "老四川"}}, {"type": "node", "id": 3369854689, "lat": 23.1422782, "lon": 113.2813778, "tags": {"amenity": "fast_food", "name": "都城快餐"}}, {"type": "node", "id": 3386983494, "lat": 23.1248079, "lon": 113.2776948, "tags": {"amenity": "restaurant", "name": "老刘家", "name:zh": "老刘家"}}, {"type": "node", "id": 3445120745, "lat": 23.1759181, "lon": 113.2623726, "tags": {"amenity": "cafe", "brand": "星巴克", "brand:en": "Starbucks", "brand:wikidata": "Q37158", "brand:wikipedia": "en:Starbucks", "brand:zh": "星巴克", "cuisine": "coffee_shop", "name": "星巴克", "name:en": "Starbucks", "name:zh": "星巴克", "official_name": "Starbucks Coffee", "takeaway": "yes"}}, {"type": "node", "id": 3445120746, "lat": 23.1757629, "lon": 113.2621017, "tags": {"brand": "沃尔玛", "brand:en": "Walmart", "brand:wikidata": "Q483551", "brand:zh": "沃尔玛", "name": "沃尔玛", "name:en": "Walmart", "name:zh": "沃尔玛", "shop": "supermarket"}}, {"type": "node", "id": 3446147431, "lat": 23.1636557, "lon": 113.2640486, "tags": {"amenity": "fast_food", "brand": "麦当劳", "brand:en": "McDonald's", "brand:wikidata": "Q38076", "brand:wikipedia": "zh:麦当劳", "brand:zh": "麦当劳", "brand:zh-Hans": "麦当劳", "cuisine": "burger", "name": "麦当劳", "name:en": "McDonald's", "name:zh": "麦当劳", "takeaway": "yes"}}, {"type": "node", "id": 3535150818, "lat": 23.1392284, "lon": 113.2822853, "tags": {"amenity": "fast_food", "brand": "汉堡王", "brand:en": "Burger King", "brand:wikidata": "Q177054", "brand:wikipedia": "zh:漢堡王", "brand:zh": "汉堡王", "cuisine": "burger", "name": "汉堡王", "name:en": "Burger King", "name:zh": "汉堡王", "takeaway": "yes"}}, {"type": "node", "id": 3535150830, "lat": 23.1454371, "lon": 113.2824038, "tags": {"amenity": "restaurant", "cuisine": "indian", "name": "阿苏克印度餐厅", "name:en": "Ashoka"}}, {"type": "node", "id": 3645923094, "lat": 23.1317877, "lon": 113.3165907, "tags": {"amenity": "restaurant", "cuisine": "chinese", "name": "真过瘾新疆大盘鸡", "name:zh": "真过瘾新疆大盘鸡"}}, {"type": "node", "id": 3662509825, "lat": 23.1285074, "lon": 113.2508232, "tags": {"amenity": "fast_food", "brand": "麦当劳", "brand:en": "McDonald's", "brand:wikidata": "Q38076", "brand:wikipedia": "zh:麦当劳", "brand:zh": "麦当劳", "brand:zh-Hans": "麦当劳", "cuisine": "burger", "name": "麦当劳", "name:en": "McDonald's", "name:zh": "麦当劳", "name:zh-Hans": "麦当劳", "takeaway": "yes", "wheelchair": "no"}}, {"type": "node", "id": 3662509925, "lat": 23.1276562, "lon": 113.2500985, "tags": {"amenity": "fast_food", "brand": "肯德基", "brand:en": "KFC", "brand:wikidata": "Q524757", "brand:wikipedia": "zh:肯德基", "brand:zh": "肯德基", "cuisine": "chicken", "name": "肯德基", "name:en": "KFC", "name:zh": "肯德基", "takeaway": "yes", "wheelchair": "no"}}, {"type": "node", "id": 3662509927, "lat": 23.1275432, "lon": 113.2501336, "tags": {"brand": "华润万家", "brand:en": "Vanguard", "brand:wikidata": "Q5099892", "brand:wikipedia": "zh:華潤萬家", "brand:zh": "华润万家", "name": "华润万家", "name:en": "Vanguard", "name:zh": "华润万家", "nat_name": "Vanguard", "shop": "supermarket", "wheelchair": "no"}}, {"type": "node", "id": 3662509928, "lat": 23.1276291, "lon": 113.249774, "tags": {"brand": "7-Eleven", "brand:wikidata": "Q259340", "brand:wikipedia": "en:7-Eleven", "name": "7-Eleven", "shop": "convenience", "wheelchair": "limited"}}, {"type": "node", "id": 3662510025, "lat": 23.1276524, "lon": 113.2502184, "tags": {"amenity": "restaurant", "brand": "必胜客", "brand:en": "Pizza Hut", "brand:wikidata": "Q191615", "brand:wikipedia": "zh:必胜客", "brand:zh": "必胜客", "cuisine": "pizza", "name": "必胜客", "name:en": "Pizza Hut", "name:zh": "必胜客", "wheelchair": "no"}}, {"type": "node", "id": 3662510327, "lat": 23.1268318, "lon": 113.2491807, "tags": {"brand": "喜士多", "brand:en": "C-Store", "brand:wikidata": "Q60992580", "brand:wikipedia": "zh:喜士多", "brand:zh": "喜士多", "name": "喜士多", "name:en": "C-Store", "name:zh": "喜士多", "shop": "convenience"}}, {"type": "node", "id": 3663968925, "lat": 23.1277022, "lon": 113.2494151, "tags": {"amenity": "restaurant", "cuisine": "chinese", "diet:halal": "yes", "name": "回民饭店", "name:en": "Huimin Restaurant", "wheelchair": "no"}}, {"type": "node", "id": 3663975325, "lat": 23.1418588, "lon": 113.2720019, "tags": {"amenity": "fast_food", "brand": "真功夫", "brand:en": "Kungfu", "brand:wikidata": "Q15909765", "brand:wikipedia": "zh:真功夫", "brand:zh": "真功夫", "cuisine": "chinese", "name": "真功夫", "name:en": "Kungfu", "name:zh": "真功夫", "takeaway": "yes"}}, {"type": "node", "id": 3664156731, "lat": 23.1300367, "lon": 113.2507366, "tags": {"amenity": "restaurant", "cuisine": "chinese", "name": "都城", "name:zh": "都城", "name:zh-Hans": "都城", "name:zh-Hant": "都城", "wheelchair": "no"}}, {"type": "node", "id": 3664181127, "lat": 23.1294594, "lon": 113.2508604, "tags": {"brand": "OK便利店", "brand:en": "Circle K", "brand:wikidata": "Q3268010", "brand:wikipedia": "en:Circle K", "brand:zh": "OK便利店", "name": "OK便利店", "name:en": "Circle K", "name:zh": "OK便利店", "shop": "convenience", "wheelchair": "no"}}, {"type": "node", "id": 3665742826, "lat": 23.127258, "lon": 113.2505901, "tags": {"brand": "美宜佳", "brand:en": "Meiyijia", "brand:wikidata": "Q55719551", "brand:wikipedia": "zh:美宜佳", "brand:zh": "美宜佳", "name": "美宜佳", "name:en": "Meiyijia", "name:zh": "美宜佳", "shop": "convenience", "wheelchair": "no"}}, {"type": "node", "id": 3665743125, "lat": 23.1274621, "lon": 113.2506477, "tags": {"amenity": "fast_food", "cuisine": "chinese", "name": "大西豪", "name:zh": "大西豪", "name:zh-Hans": "大西豪", "name:zh-Hant": "大西豪", "wheelchair": "no"}}, {"type": "node", "id": 3675755937, "lat": 23.1241232, "lon": 113.2483562, "tags": {"amenity": "restaurant", "cuisine": "chinese", "name": "星洲大椰"}}, {"type": "node", "id": 3675756330, "lat": 23.1238509, "lon": 113.2486258, "tags": {"amenity": "marketplace", "name": "惠福西肉菜市场"}}, {"type": "node", "id": 3675756428, "lat": 23.1239954, "lon": 113.2483275, "tags": {"brand": "全家", "brand:en": "FamilyMart", "brand:wikidata": "Q11247682", "brand:wikipedia": "zh:FamilyMart", "brand:zh": "全家", "name": "全家", "name:en": "FamilyMart", "name:zh": "全家", "shop": "convenience"}}, {"type": "node", "id": 3675759425, "lat": 23.1261028, "lon": 113.2483039, "tags": {"brand": "7-Eleven", "brand:wikidata": "Q259340", "brand:wikipedia": "en:7-Eleven", "name": "7-Eleven", "shop": "convenience"}}, {"type": "node", "id": 3675909225, "lat": 23.1278571, "lon": 113.2861167, "tags": {"amenity": "fast_food", "brand": "72街", "brand:en": "72 Street", "brand:wikidata": "Q108683743", "brand:zh": "72街", "cuisine": "chinese", "name": "72街", "name:en": "72 Street", "name:zh": "72街", "takeaway": "yes"}}, {"type": "node", "id": 3680628225, "lat": 23.1318705, "lon": 113.2492058, "tags": {"brand": "OK便利店", "brand:en": "Circle K", "brand:wikidata": "Q3268010", "brand:wikipedia": "zh:OK便利店", "brand:zh": "OK便利店", "name": "OK便利店", "name:en": "Circle K", "name:zh": "OK便利店", "shop": "convenience"}}, {"type": "node", "id": 3790036459, "lat": 23.1201376, "lon": 113.3115108, "tags": {"amenity": "restaurant", "cuisine": "burger", "name": "Gail's"}}, {"type": "node", "id": 3801686304, "lat": 23.1190137, "lon": 113.2328598, "tags": {"addr:city": "广州", "addr:housenumber": "北侧", "addr:postcode": "020", "addr:street": "多宝路", "level": "底层", "name": "利群超市", "opening_hours": "1:00-01:00", "operator": "张生", "phone": "+86 20 4521 5678", "shop": "supermarket", "source": "网站"}}, {"type": "node", "id": 3870407462, "lat": 23.1300303, "lon": 113.2743561, "tags": {"amenity": "restaurant", "name": "英德宾馆"}}, {"type": "node", "id": 4005884155, "lat": 23.1337605, "lon": 113.2577533, "tags": {"amenity": "fast_food", "brand": "赛百味", "brand:en": "Subway", "brand:wikidata": "Q244457", "brand:wikipedia": "zh:赛百味", "brand:zh": "赛百味", "cuisine": "sandwich", "name": "赛百味", "name:en": "Subway", "name:zh": "赛百味", "takeaway": "yes"}}, {"type": "node", "id": 4110728489, "lat": 23.1026499, "lon": 113.2752301, "tags": {"amenity": "restaurant", "name": "南园酒家", "name:zh": "南园酒家"}}, {"type": "node", "id": 4131792790, "lat": 23.1265517, "lon": 113.2702309, "tags": {"amenity": "restaurant", "name": "百搭果"}}, {"type": "node", "id": 4131821468, "lat": 23.1254176, "lon": 113.2699723, "tags": {"amenity": "cafe", "name": "明记甜品"}}, {"type": "node", "id": 4131821469, "lat": 23.1251697, "lon": 113.2701817, "tags": {"amenity": "cafe", "cuisine": "dessert", "name": "百花甜品", "name:en": "Baihua Traditional Dessert Shop"}}, {"type": "node", "id": 4142148986, "lat": 23.098188, "lon": 113.3290917, "tags": {"amenity": "fast_food", "brand": "肯德基", "brand:en": "KFC", "brand:wikidata": "Q524757", "brand:wikipedia": "zh:肯德基", "brand:zh": "肯德基", "cuisine": "chicken", "name": "肯德基", "name:en": "KFC", "name:zh": "肯德基", "takeaway": "yes"}}, {"type": "node", "id": 4142170872, "lat": 23.0982557, "lon": 113.3299867, "tags": {"amenity": "fast_food", "brand": "72街", "brand:en": "72 Street", "brand:wikidata": "Q108683743", "brand:zh": "72街", "cuisine": "chinese", "name": "72街", "name:en": "72 Street", "name:zh": "72街", "takeaway": "yes"}}, {"type": "node", "id": 4198724490, "lat": 23.0938204, "lon": 113.2563814, "tags": {"amenity": "restaurant", "cuisine": "chinese;cantonese", "name": "淇乐多", "name:zh": "淇乐多", "note": "\n該餐廳已搬遷至寶業路新民里3號。\nThe restaurant is closed and relocated to 3rd. Xinmin Li，Baoye Road.", "smoking": "yes"}}, {"type": "node", "id": 4210580396, "lat": 23.1097672, "lon": 113.2695476, "tags": {"amenity": "restaurant", "name": "纽伦港茶餐厅", "name:zh": "纽伦港茶餐厅"}}, {"type": "node", "id": 4234701289, "lat": 23.1412789, "lon": 113.2769534, "tags": {"amenity": "fast_food", "brand": "麦当劳", "brand:en": "McDonald's", "brand:wikidata": "Q38076", "brand:wikipedia": "zh:麦当劳", "brand:zh": "麦当劳", "brand:zh-Hans": "麦当劳", "cuisine": "burger", "name": "麦当劳", "name:en": "McDonald's", "name:zh": "麦当劳", "name:zh-Hans": "麦当劳", "takeaway": "yes"}}, {"type": "node", "id": 4242318623, "lat": 23.1110344, "lon": 113.2491772, "tags": {"amenity": "restaurant", "name": "大同酒家", "name:en": "Dai Tung Restaurant", "wikidata": "Q10934207", "wikipedia": "zh:大同酒家"}}, {"type": "node", "id": 4275221105, "lat": 23.1478474, "lon": 113.2731189, "tags": {"amenity": "restaurant", "cuisine": "chinese", "name": "唐渔酒家"}}, {"type": "node", "id": 4283506597, "lat": 23.1290004, "lon": 113.2774696, "tags": {"amenity": "cafe", "brand": "星巴克", "brand:en": "Starbucks", "brand:wikidata": "Q37158", "brand:wikipedia": "zh:星巴克", "brand:zh": "星巴克", "cuisine": "coffee_shop", "internet_access": "wlan", "internet_access:fee": "no", "internet_access:ssid": "STARBUCKS", "level": "-1", "name": "星巴克", "name:en": "Starbucks", "name:zh": "星巴克", "official_name": "Starbucks Coffee", "opening_hours": "Mo-Su 10:00-22:00", "smoking": "no", "takeaway": "yes"}}, {"type": "node", "id": 4283515192, "lat": 23.1294365, "lon": 113.2810381, "tags": {"amenity": "fast_food", "cuisine": "chinese", "level": "0", "name": "都城快餐"}}, {"type": "node", "id": 4295392794, "lat": 23.1276055, "lon": 113.2874885, "tags": {"brand": "7-Eleven", "brand:wikidata": "Q259340", "brand:wikipedia": "en:7-Eleven", "name": "7-Eleven", "shop": "convenience"}}, {"type": "node", "id": 4306977314, "lat": 23.0921173, "lon": 113.2468581, "tags": {"amenity": "restaurant", "cuisine": "american", "name": "洛奇先生餐吧", "name:en": "Mr. Rocky", "name:zh": "洛奇先生餐吧"}}, {"type": "node", "id": 4306977708, "lat": 23.1283365, "lon": 113.2783059, "tags": {"amenity": "restaurant", "cuisine": "chinese", "name": "陆小凤"}}, {"type": "node", "id": 4319031590, "lat": 23.1385061, "lon": 113.2761471, "tags": {"amenity": "restaurant", "cuisine": "chinese", "name": "客语"}}, {"type": "node", "id": 4328607400, "lat": 23.1751313, "lon": 113.2500529, "tags": {"amenity": "restaurant", "cuisine": "korean", "level": "0", "name": "喜来稀肉", "name:ko": "서래갈매기"}}, {"type": "node", "id": 4328694294, "lat": 23.1751418, "lon": 113.2501372, "tags": {"name": "FM25", "shop": "supermarket"}}, {"type": "node", "id": 4369419296, "lat": 23.1385773, "lon": 113.3159341, "tags": {"brand": "全家", "brand:en": "FamilyMart", "brand:wikidata": "Q11247682", "brand:wikipedia": "en:FamilyMart", "brand:zh": "全家", "name": "全家", "name:en": "FamilyMart", "name:zh": "全家", "operator": "全家便利商店股份有限公司", "shop": "convenience"}}, {"type": "node", "id": 4369430491, "lat": 23.1345982, "lon": 113.3172578, "tags": {"addr:city": "广州市", "addr:district": "天河区", "addr:housenumber": "208号", "addr:province": "广东省", "addr:street": "天河路", "brand": "永旺", "brand:en": "AEON", "brand:wikidata": "Q271413", "brand:wikipedia": "zh:永旺", "brand:zh": "永旺", "level": "-1", "name": "永旺", "name:en": "AEON", "name:zh": "永旺", "shop": "supermarket"}}, {"type": "node", "id": 4370809720, "lat": 23.1436447, "lon": 113.2797593, "tags": {"amenity": "restaurant", "cuisine": "chinese", "name": "麓苑轩酒家"}}, {"type": "node", "id": 4373173289, "lat": 23.1508884, "lon": 113.3186516, "tags": {"amenity": "fast_food", "branch": "东方宝泰店", "brand": "吉野家", "brand:en": "Yoshinoya", "brand:ja": "吉野家", "brand:wikidata": "Q776272", "brand:wikipedia": "ja:吉野家", "brand:zh": "吉野家", "brand:zh-Hans": "吉野家", "brand:zh-Hant": "吉野家", "cuisine": "beef_bowl", "name": "吉野家", "name:en": "Yoshinoya", "name:ja": "吉野家", "name:zh": "吉野家", "name:zh-Hans": "吉野家", "name:zh-Hant": "吉野家", "takeaway": "yes"}}, {"type": "node", "id": 4394946627, "lat": 23.1637874, "lon": 113.2511213, "tags": {"amenity": "cafe", "brand": "星巴克", "brand:en": "Starbucks", "brand:wikidata": "Q37158", "brand:wikipedia": "zh:星巴克", "brand:zh": "星巴克", "cuisine": "coffee_shop", "name": "星巴克", "name:en": "Starbucks", "name:ja-Hira": "スターバックス", "name:ko": "스타벅스", "name:zh": "星巴克", "official_name": "Starbucks Coffee", "takeaway": "yes"}}, {"type": "node", "id": 4465847689, "lat": 23.1416992, "lon": 113.2727131, "tags": {"amenity": "restaurant", "cuisine": "barbecue;arab;pasta;fine_dining;oriental;seafood;kebab;beef_bowl;grill;steak_house;tea;fish_and_chips;fish;chicken;diner;noodles", "internet_access": "wlan", "name": "洒德餐厅", "name:ar": "مطعم السدة حلال"}}, {"type": "node", "id": 4466455957, "lat": 23.1142462, "lon": 113.2457981, "tags": {"name": "光杨市场", "name:en": "Kwong Yeung Market", "name:zh": "光杨市场", "shop": "supermarket"}}, {"type": "node", "id": 4511445191, "lat": 23.1418191, "lon": 113.2711653, "tags": {"amenity": "restaurant", "cuisine": "barbecue;noodles;diner;pizza;chicken;sandwich;sausage;fish;fish_and_chips;tea;steak_house;grill;beef_bowl;breakfast;kebab;seafood;turkish", "diet:halal": "yes", "internet_access": "wlan", "name": "铂斯西餐厅", "name:ar": "مطعم البسفور التركي حلال", "name:en": "Bosphorus Turkish Restaurant", "phone": "+862083563578"}}, {"type": "node", "id": 4568379996, "lat": 23.1257546, "lon": 113.2699555, "tags": {"name": "胜佳超市", "shop": "supermarket"}}, {"type": "node", "id": 4590296305, "lat": 23.1161681, "lon": 113.2372775, "tags": {"addr:city": "广州市", "addr:housenumber": "No 47, Liwan", "addr:street": "Dishifu Road, Guangzhou", "amenity": "restaurant", "cuisine": "dessert", "name": "南信牛奶甜品专家", "name:en": "Nanxin Milk Desserts Expert", "opening_hours": "Mo-Su 09:30-23:00", "phone": "+86 20 8138 9904"}}, {"type": "node", "id": 4624001189, "lat": 23.1196421, "lon": 113.2809945, "tags": {"amenity": "marketplace", "name": "澳讯数码手机城", "name:en": "Aoxun Digital Mobile Phones Town Centr", "name:ru": "Магазин электроники"}}, {"type": "node", "id": 4624001289, "lat": 23.1191824, "lon": 113.2797191, "tags": {"amenity": "marketplace", "name": "盛贤大沙头旧货市场", "name:en": "Shengxian Dashatou Second-Hand Trade Market", "name:ru": "Секонд хенд электроники", "name:zh": "盛贤大沙头旧货市场"}}, {"type": "node", "id": 4735438824, "lat": 23.1508202, "lon": 113.3200414, "tags": {"amenity": "fast_food", "brand": "麦当劳", "brand:en": "McDonald's", "brand:wikidata": "Q38076", "brand:wikipedia": "zh:麦当劳", "brand:zh": "麦当劳", "brand:zh-Hans": "麦当劳", "cuisine": "burger", "name": "麦当劳", "name:en": "McDonald's", "name:zh": "麦当劳", "name:zh-Hans": "麦当劳", "takeaway": "yes"}}, {"type": "node", "id": 4735438827, "lat": 23.1624073, "lon": 113.3146431, "tags": {"addr:city": "广州市", "addr:street": "沙太南路, upstairs in Health food Shop", "amenity": "restaurant", "diet:vegan": "yes", "diet:vegetarian": "only", "name:en": "Wen Xing vegetarian", "source": "survey"}}, {"type": "node", "id": 4756190455, "lat": 23.1232155, "lon": 113.3241668, "tags": {"amenity": "restaurant", "name": "Hooley's Irish", "name:en": "Hooley's Irish", "name:zh": "Hooley's Irish"}}, {"type": "node", "id": 4757391221, "lat": 23.1439229, "lon": 113.3257276, "tags": {"amenity": "cafe", "cuisine": "american;coffee_shop", "name:en": "W Coffee", "wheelchair": "yes"}}, {"type": "node", "id": 4757391222, "lat": 23.1430333, "lon": 113.3246155, "tags": {"amenity": "cafe", "cuisine": "american;bagel;coffee_shop", "name:en": "Feel More Bagels and Coffee", "wheelchair": "no"}}, {"type": "node", "id": 4757391223, "lat": 23.1440125, "lon": 113.3291814, "tags": {"amenity": "cafe", "cuisine": "american;pancake;coffee_shop", "name:en": "Maan Coffee"}}, {"type": "node", "id": 4810677125, "lat": 23.136894, "lon": 113.3142853, "tags": {"amenity": "cafe", "brand": "星巴克", "brand:en": "Starbucks", "brand:wikidata": "Q37158", "brand:wikipedia": "zh:星巴克", "brand:zh": "星巴克", "cuisine": "coffee_shop", "name": "星巴克", "name:en": "Starbucks", "name:fr": "Starbucks", "name:zh": "星巴克", "official_name": "Starbucks Coffee", "takeaway": "yes"}}, {"type": "node", "id": 4810677126, "lat": 23.1364019, "lon": 113.3237384, "tags": {"amenity": "fast_food", "brand": "麦当劳", "brand:en": "McDonald's", "brand:wikidata": "Q38076", "brand:wikipedia": "zh:麦当劳", "brand:zh": "麦当劳", "brand:zh-Hans": "麦当劳", "cuisine": "burger", "name": "麦当劳", "name:en": "McDonald's", "name:fr": "Mac do", "name:zh": "麦当劳", "name:zh-Hans": "麦当劳", "takeaway": "yes"}}, {"type": "node", "id": 4847033721, "lat": 23.130911, "lon": 113.23703, "tags": {"amenity": "restaurant", "name": "佛有缘", "name:en": "Fo You Yuan Vegetarian Restaurant", "name:zh": "佛有缘"}}, {"type": "node", "id": 4859909914, "lat": 23.127793, "lon": 113.2904716, "tags": {"amenity": "fast_food", "brand": "赛百味", "brand:en": "Subway", "brand:wikidata": "Q244457", "brand:wikipedia": "zh:赛百味", "brand:zh": "赛百味", "cuisine": "sandwich", "level": "0", "name": "赛百味", "name:en": "Subway", "name:zh": "赛百味", "takeaway": "yes"}}, {"type": "node", "id": 4859909915, "lat": 23.1284436, "lon": 113.290626, "tags": {"amenity": "fast_food", "brand": "肯德基", "brand:en": "KFC", "brand:wikidata": "Q524757", "brand:wikipedia": "zh:肯德基", "brand:zh": "肯德基", "cuisine": "chicken", "level": "0", "name": "肯德基", "name:en": "KFC", "name:zh": "肯德基", "takeaway": "yes"}}, {"type": "node", "id": 4866286478, "lat": 23.1325339, "lon": 113.2679396, "tags": {"amenity": "marketplace", "name": "豪贤路肉菜市场"}}, {"type": "node", "id": 4882714921, "lat": 23.105548, "lon": 113.2208116, "tags": {"addr:street": "芳村大道中", "amenity": "cafe", "cuisine": "chinese", "email": "mail@teamotea.com", "internet_access": "wlan", "name": "龙哥茶", "name:en": "Teamotea", "name:ru": "Теамоти", "name:zh": "龙哥茶", "opening_hours": "Mo-Su 09:00-19:00", "operator": "Evgeniy Smoley", "phone": "+86 186 2010 0022", "website": "https://teamotea.shop/"}}, {"type": "node", "id": 4909026098, "lat": 23.1216181, "lon": 113.2897432, "tags": {"amenity": "restaurant", "name": "馨园", "name:zh": "馨园"}}, {"type": "node", "id": 4925330421, "lat": 23.131006, "lon": 113.3208117, "tags": {"amenity": "restaurant", "cuisine": "american;mexican", "internet_access": "wlan", "name:en": "Tristan's"}}, {"type": "node", "id": 4937826921, "lat": 23.134868, "lon": 113.3266642, "tags": {"amenity": "cafe", "brand": "喜茶", "brand:en": "Heytea", "brand:wikidata": "Q60875376", "brand:wikipedia": "zh:喜茶", "brand:zh": "喜茶", "cuisine": "bubble_tea", "name": "喜茶", "name:en": "Heytea", "name:zh": "喜茶", "takeaway": "yes"}}, {"type": "node", "id": 4948036822, "lat": 23.1169411, "lon": 113.2626886, "tags": {"amenity": "restaurant", "name": "鸿星海鲜酒家", "name:en": "Hong Xing SeaFood"}}, {"type": "node", "id": 4970502889, "lat": 23.1313433, "lon": 113.2915434, "tags": {"brand": "永旺", "brand:en": "AEON", "brand:wikidata": "Q271413", "brand:wikipedia": "zh:永旺", "brand:zh": "永旺", "name": "永旺", "name:en": "AEON", "name:zh": "永旺", "shop": "supermarket"}}, {"type": "node", "id": 4988296320, "lat": 23.154497, "lon": 113.3220196, "tags": {"shop": "convenience", "wheelchair": "no"}}, {"type": "node", "id": 5027767628, "lat": 23.1262437, "lon": 113.3124959, "tags": {"amenity": "restaurant", "diet:vegetarian": "only", "name": "Vegetarian"}}, {"type": "node", "id": 5036052341, "lat": 23.1205887, "lon": 113.3267168, "tags": {"amenity": "fast_food", "brand": "肯德基", "brand:en": "KFC", "brand:wikidata": "Q524757", "brand:wikipedia": "zh:肯德基", "brand:zh": "肯德基", "cuisine": "chicken", "name": "肯德基", "name:en": "KFC", "name:zh": "肯德基", "takeaway": "yes"}}, {"type": "node", "id": 5036052342, "lat": 23.1205682, "lon": 113.326977, "tags": {"amenity": "fast_food", "brand": "麦当劳", "brand:en": "McDonald's", "brand:wikidata": "Q38076", "brand:wikipedia": "zh:麦当劳", "brand:zh": "麦当劳", "brand:zh-Hans": "麦当劳", "cuisine": "burger", "name": "麦当劳", "name:en": "McDonald's", "name:zh": "麦当劳", "name:zh-Hans": "麦当劳", "takeaway": "yes"}}, {"type": "node", "id": 5036052359, "lat": 23.1205171, "lon": 113.3250111, "tags": {"name": "开芯好美式超市", "name:zh": "开芯好美式超市", "shop": "supermarket"}}, {"type": "node", "id": 5039352291, "lat": 23.125407, "lon": 113.2699207, "tags": {"amenity": "restaurant", "name": "銀記腸粉"}}, {"type": "node", "id": 5039355398, "lat": 23.1253724, "lon": 113.2678874, "tags": {"amenity": "restaurant", "name": "九爷鸡"}}, {"type": "node", "id": 5043882425, "lat": 23.138388, "lon": 113.2847389, "tags": {"amenity": "cafe", "brand": "星巴克", "brand:en": "Starbucks", "brand:wikidata": "Q37158", "brand:wikipedia": "zh:星巴克", "brand:zh": "星巴克", "cuisine": "coffee_shop", "name": "星巴克", "name:en": "Starbucks", "name:zh": "星巴克", "official_name": "Starbucks Coffee", "opening_hours": "PH,Mo-Su 10:00-22:00", "takeaway": "yes", "wheelchair": "yes"}}, {"type": "node", "id": 5063351821, "lat": 23.1558133, "lon": 113.3283006, "tags": {"addr:city": "广州市", "addr:housenumber": "68", "addr:street": "粤垦路", "amenity": "restaurant", "name": "沙拉姐姐", "name:en": "Enjoy Salad", "name:zh": "沙拉姐姐"}}, {"type": "node", "id": 5066829160, "lat": 23.1221597, "lon": 113.306676, "tags": {"air_conditioning": "yes", "amenity": "fast_food", "brand": "肯德基", "brand:en": "KFC", "brand:wikidata": "Q524757", "brand:wikipedia": "en:KFC", "brand:zh": "肯德基", "cuisine": "chicken", "delivery": "yes", "internet_access": "wlan", "internet_access:fee": "no", "name": "肯德基", "name:en": "KFC", "name:zh": "肯德基", "outdoor_seating": "no", "payment:alipay": "yes", "payment:cash": "yes", "payment:wechat": "yes", "smoking": "no", "takeaway": "yes", "wheelchair": "no"}}, {"type": "node", "id": 5066829169, "lat": 23.122106, "lon": 113.3032363, "tags": {"air_conditioning": "yes", "brand": "华润万家", "brand:en": "Vanguard", "brand:wikidata": "Q5099892", "brand:wikipedia": "zh:華潤萬家", "brand:zh": "华润万家", "name": "华润万家", "name:en": "Vanguard", "name:zh": "华润万家", "operator": "华润集团", "payment:cash": "yes", "payment:contactless": "yes", "payment:credit_cards": "yes", "shop": "supermarket"}}, {"type": "node", "id": 5066962559, "lat": 23.1081048, "lon": 113.2810218, "tags": {"addr:street": "东晓路", "alt_name": "炳胜海鲜酒家", "amenity": "restaurant", "cuisine": "chinese;seafood", "name": "炳胜", "name:en": "BingSheng Pin Wei", "opening_hours": "Mo-Su 11:00-23:00", "self_service": "no", "website": "http://bingsheng.com"}}, {"type": "node", "id": 5074874585, "lat": 23.1353755, "lon": 113.3296122, "tags": {"name": "颐高数码广场", "name:zh": "颐高数码广场", "shop": "mall"}}, {"type": "node", "id": 5075269595, "lat": 23.1203732, "lon": 113.2363308, "tags": {"brand": "MaxValu", "brand:wikidata": "Q11340427", "brand:wikipedia": "en:MaxValu", "name": "MaxValu", "name:en": "Aeon", "shop": "supermarket"}}, {"type": "node", "id": 5075318052, "lat": 23.1211588, "lon": 113.2273501, "tags": {"amenity": "restaurant", "name": "竹溪酒家", "name:en": "Bamboo Creek Restaurant", "name:zh": "竹溪荔湖酒家"}}, {"type": "node", "id": 5083924821, "lat": 23.1231353, "lon": 113.3255801, "tags": {"amenity": "restaurant", "name:en": "King Shwarma"}}, {"type": "node", "id": 5100814591, "lat": 23.1105094, "lon": 113.3041525, "tags": {"amenity": "restaurant", "name": "陶苑酒家", "name:zh": "陶苑酒家"}}, {"type": "node", "id": 5127751493, "lat": 23.0991082, "lon": 113.2682944, "tags": {"amenity": "fast_food", "branch": "南油", "brand": "肯德基", "brand:en": "KFC", "brand:wikidata": "Q524757", "brand:wikipedia": "zh:肯德基", "brand:zh": "肯德基", "cuisine": "chicken", "drive_through": "no", "name": "肯德基", "name:en": "KFC", "name:zh": "肯德基", "opening_hours": "24/7", "phone": "+86 20 8447 0166", "socket:domestic": "yes", "takeaway": "yes"}}, {"type": "node", "id": 5142852427, "lat": 23.1205554, "lon": 113.2674936, "tags": {"amenity": "marketplace", "name": "珠光农贸市场"}}, {"type": "node", "id": 5151905723, "lat": 23.1096225, "lon": 113.2396137, "tags": {"shop": "convenience"}}, {"type": "node", "id": 5154040223, "lat": 23.1437317, "lon": 113.2825658, "tags": {"amenity": "restaurant", "name:ru": "мусульманка"}}, {"type": "node", "id": 5181024722, "lat": 23.1036093, "lon": 113.2711103, "tags": {"addr:city": "广州市", "addr:housenumber": "80-3", "addr:street": "前进路", "amenity": "restaurant", "cuisine": "chinese;ramen", "name": "竹升面", "name:zh": "竹升面", "opening_hours": "Mo-Su 07:00-01:00"}}, {"type": "node", "id": 5181179221, "lat": 23.1033979, "lon": 113.2723302, "tags": {"amenity": "restaurant", "cuisine": "ramen;sushi", "name": "辣辣寿司", "name:zh": "辣辣寿司"}}, {"type": "node", "id": 5199665722, "lat": 23.143274, "lon": 113.326869, "tags": {"amenity": "cafe", "name:en": "Pancake Place"}}, {"type": "node", "id": 5206705537, "lat": 23.1231907, "lon": 113.2894496, "tags": {"amenity": "marketplace", "name": "东山肉菜市场"}}, {"type": "node", "id": 5207734861, "lat": 23.1252429, "lon": 113.2739116, "tags": {"amenity": "marketplace", "name": "三角市肉菜市场"}}, {"type": "node", "id": 5210701294, "lat": 23.096591, "lon": 113.2605362, "tags": {"brand": "盒马鲜生", "brand:en": "Fresh Hema", "brand:wikidata": "Q58617964", "brand:wikipedia": "zh:盒馬鮮生", "brand:zh": "盒马鲜生", "name": "盒马鲜生", "name:en": "Fresh Hema", "name:zh": "盒马鲜生", "shop": "supermarket"}}, {"type": "node", "id": 5216465024, "lat": 23.1225872, "lon": 113.3127718, "tags": {"amenity": "fast_food", "branch": "双城国际店", "brand": "肯德基", "brand:en": "KFC", "brand:wikidata": "Q524757", "brand:wikipedia": "zh:肯德基", "brand:zh": "肯德基", "cuisine": "chicken", "drive_through": "no", "name": "肯德基", "name:en": "KFC", "name:zh": "肯德基", "takeaway": "yes"}}, {"type": "node", "id": 5224312476, "lat": 23.1311994, "lon": 113.2837057, "tags": {"amenity": "restaurant", "name": "北学一饭堂", "name:zh": "北學一飯堂"}}, {"type": "node", "id": 5230055731, "lat": 23.1272426, "lon": 113.2859834, "tags": {"brand": "全家", "brand:en": "FamilyMart", "brand:wikidata": "Q11247682", "brand:wikipedia": "zh:FamilyMart", "brand:zh": "全家", "name": "全家", "name:en": "FamilyMart", "name:zh": "全家", "shop": "convenience"}}, {"type": "node", "id": 5230059190, "lat": 23.1277883, "lon": 113.2858441, "tags": {"amenity": "restaurant", "name": "华辉广味道"}}, {"type": "node", "id": 5230059196, "lat": 23.1277476, "lon": 113.2862518, "tags": {"amenity": "restaurant", "name": "三餐乐", "name:zh": "三餐樂"}}, {"type": "node", "id": 5230059197, "lat": 23.1276557, "lon": 113.2862398, "tags": {"amenity": "restaurant", "name": "佳星潮式鱼蛋粉", "name:zh": "佳星潮式魚蛋粉"}}, {"type": "node", "id": 5230059199, "lat": 23.1275626, "lon": 113.2865234, "tags": {"amenity": "restaurant", "name": "幸江饭店", "name:zh": "幸江飯店"}}, {"type": "node", "id": 5230316201, "lat": 23.1016342, "lon": 113.3011344, "tags": {"amenity": "restaurant", "name": "地下饭堂", "name:zh": "地下饭堂"}}, {"type": "node", "id": 5230316202, "lat": 23.1013121, "lon": 113.3009337, "tags": {"amenity": "restaurant", "name": "第二饭堂", "name:zh": "第二饭堂"}}, {"type": "node", "id": 5230316203, "lat": 23.1016353, "lon": 113.3008538, "tags": {"amenity": "restaurant", "name": "新疆饭堂", "name:zh": "新疆饭堂"}}, {"type": "node", "id": 5230316204, "lat": 23.1009532, "lon": 113.3009314, "tags": {"amenity": "restaurant", "name": "第一饭堂", "name:zh": "第一饭堂"}}, {"type": "node", "id": 5230316205, "lat": 23.101161, "lon": 113.30092, "tags": {"amenity": "restaurant", "name": "教师饭堂", "name:zh": "教师饭堂"}}, {"type": "node", "id": 5232370901, "lat": 23.0989468, "lon": 113.2596279, "tags": {"brand": "全家", "brand:en": "FamilyMart", "brand:wikidata": "Q11247682", "brand:wikipedia": "zh:FamilyMart", "brand:zh": "全家", "name": "全家", "name:en": "FamilyMart", "name:zh": "全家", "shop": "convenience"}}, {"type": "node", "id": 5232371519, "lat": 23.1002585, "lon": 113.2630022, "tags": {"amenity": "restaurant", "name": "石岗渔村宝岗店", "name:zh": "石岗渔村宝岗店"}}, {"type": "node", "id": 5232371650, "lat": 23.0936367, "lon": 113.2710993, "tags": {"amenity": "fast_food", "brand": "麦当劳", "brand:en": "McDonald's", "brand:wikidata": "Q38076", "brand:wikipedia": "zh:麦当劳", "brand:zh": "麦当劳", "brand:zh-Hans": "麦当劳", "cuisine": "burger", "name": "麦当劳", "name:en": "McDonald's", "name:zh": "麦当劳", "name:zh-Hans": "麦当劳", "operator": "金拱门(中国)有限公司", "takeaway": "yes"}}, {"type": "node", "id": 5232371651, "lat": 23.09355, "lon": 113.2710027, "tags": {"amenity": "fast_food", "brand": "72街", "brand:en": "72 Street", "brand:wikidata": "Q108683743", "brand:zh": "72街", "cuisine": "chinese", "name": "72街", "name:en": "72 Street", "name:zh": "72街", "takeaway": "yes"}}, {"type": "node", "id": 5237387893, "lat": 23.1087366, "lon": 113.2578496, "tags": {"amenity": "restaurant", "name": "佛世界素食社", "name:zh": "佛世界素食社"}}, {"type": "node", "id": 5239125018, "lat": 23.1115136, "lon": 113.2501116, "tags": {"brand": "7-Eleven", "brand:wikidata": "Q259340", "brand:wikipedia": "en:7-Eleven", "name": "7-Eleven", "shop": "convenience"}}, {"type": "node", "id": 5241194441, "lat": 23.1299488, "lon": 113.286903, "tags": {"amenity": "restaurant", "name": "职工饭堂", "name:zh": "職工飯堂"}}, {"type": "node", "id": 5257028506, "lat": 23.0981446, "lon": 113.3170379, "tags": {"brand": "7-Eleven", "brand:wikidata": "Q259340", "level": "1", "name": "7-Eleven", "outdoor_seating": "no", "shop": "convenience"}}, {"type": "node", "id": 5257241790, "lat": 23.1427413, "lon": 113.2489109, "tags": {"amenity": "restaurant", "cuisine": "chinese;seafood", "name": "东海海鲜酒家"}}, {"type": "node", "id": 5257241793, "lat": 23.1444831, "lon": 113.2550264, "tags": {"amenity": "fast_food", "brand": "汉堡王", "brand:en": "Burger King", "brand:wikidata": "Q177054", "brand:wikipedia": "zh:漢堡王", "brand:zh": "汉堡王", "cuisine": "burger", "diet:halal": "no", "name": "汉堡王", "name:en": "Burger King", "name:zh": "汉堡王", "operator": "Burger King", "takeaway": "yes"}}, {"type": "node", "id": 5259895566, "lat": 23.1102851, "lon": 113.2998335, "tags": {"amenity": "cafe", "brand": "星巴克", "brand:en": "Starbucks", "brand:wikidata": "Q37158", "brand:wikipedia": "en:Starbucks", "brand:zh": "星巴克", "cuisine": "coffee_shop", "name": "星巴克", "name:en": "Starbucks", "name:zh": "星巴克", "official_name": "Starbucks Coffee", "takeaway": "yes"}}, {"type": "node", "id": 5266078865, "lat": 23.1215063, "lon": 113.3118499, "tags": {"amenity": "restaurant", "name": "开饭", "name:zh": "开饭"}}, {"type": "node", "id": 5266078866, "lat": 23.1216256, "lon": 113.3120365, "tags": {"amenity": "fast_food", "brand": "汉堡王", "brand:en": "Burger King", "brand:wikidata": "Q177054", "brand:wikipedia": "zh:漢堡王", "brand:zh": "汉堡王", "cuisine": "burger", "name": "汉堡王", "name:en": "Burger King", "name:zh": "汉堡王", "takeaway": "yes"}}, {"type": "node", "id": 5266078867, "lat": 23.1217251, "lon": 113.3123096, "tags": {"amenity": "cafe", "brand": "星巴克", "brand:en": "Starbucks", "brand:wikidata": "Q37158", "brand:wikipedia": "zh:星巴克", "brand:zh": "星巴克", "cuisine": "coffee_shop", "name": "星巴克", "name:en": "Starbucks", "name:zh": "星巴克", "official_name": "Starbucks Coffee", "takeaway": "yes"}}, {"type": "node", "id": 5266099832, "lat": 23.1262036, "lon": 113.3129396, "tags": {"amenity": "fast_food", "brand": "麦当劳", "brand:en": "McDonald's", "brand:wikidata": "Q38076", "brand:wikipedia": "zh:麦当劳", "brand:zh": "麦当劳", "brand:zh-Hans": "麦当劳", "cuisine": "burger", "name": "麦当劳", "name:en": "McDonald's", "name:zh": "麦当劳", "name:zh-Hans": "麦当劳", "takeaway": "yes"}}, {"type": "node", "id": 5272996392, "lat": 23.1384353, "lon": 113.3232188, "tags": {"brand": "OK便利店", "brand:en": "Circle K", "brand:wikidata": "Q3268010", "brand:wikipedia": "zh:OK便利店", "brand:zh": "OK便利店", "name": "OK便利店", "name:en": "Circle K", "name:zh": "OK便利店", "shop": "convenience", "wheelchair": "yes"}}, {"type": "node", "id": 5281075822, "lat": 23.1183882, "lon": 113.3080445, "tags": {"addr:street": "明月二路", "amenity": "cafe", "cuisine": "sandwich;bagel;breakfast;tea;cake;coffee_shop", "internet_access": "wlan", "name": "日照工场", "name:de": "Daily Craft", "name:en": "Daily Craft", "opening_hours": "Mo-Su 08:30-20:00"}}, {"type": "node", "id": 5286004740, "lat": 23.1294953, "lon": 113.3139941, "tags": {"name": "保利时光里商场", "shop": "mall"}}, {"type": "node", "id": 5289145522, "lat": 23.1476143, "lon": 113.3248438, "tags": {"addr:street": "华庭路", "amenity": "cafe", "cuisine": "sandwich;international;breakfast;ice_cream;tea;cake;coffee_shop;noodles;pasta", "internet_access": "wlan", "name": "不止咖啡", "name:en": "Hobbylab - Coffee & Fun", "opening_hours": "Su-Th 09:30-23:00; Fr-Sa 09:00-23:30"}}, {"type": "node", "id": 5314410768, "lat": 23.0953992, "lon": 113.2312767, "tags": {"amenity": "restaurant", "name": "花地美食广场（芳村食街）", "name:zh": "花地美食广场（芳村食街）"}}, {"type": "node", "id": 5340649421, "lat": 23.1385664, "lon": 113.2512282, "tags": {"addr:city": "广州市", "addr:housenumber": "626-636", "addr:street": "人民北路", "amenity": "restaurant", "name": "大可以饭店"}}, {"type": "node", "id": 5341746637, "lat": 23.1194551, "lon": 113.2296781, "tags": {"addr:city": "广州市", "addr:housenumber": "88号", "addr:street": "多寶路 多宝路", "amenity": "restaurant", "name": "新联肠粉", "wheelchair": "limited"}}, {"type": "node", "id": 5341760522, "lat": 23.1092178, "lon": 113.2627869, "tags": {"addr:city": "广州市", "addr:housenumber": "617号", "addr:street": "同福东路", "amenity": "restaurant", "name": "芬芳甜品（同福路点）", "name:zh": "芬芳甜品（同福路点）"}}, {"type": "node", "id": 5341770921, "lat": 23.1186694, "lon": 113.2364768, "tags": {"addr:city": "广州市", "addr:housenumber": "117号", "addr:street": "寶華路", "amenity": "restaurant", "cuisine": "noodle;cantonese", "name": "宝华面店", "name:en": "Po Wah Noodles"}}, {"type": "node", "id": 5343892927, "lat": 23.1252247, "lon": 113.2687523, "tags": {"addr:city": "广州市", "addr:housenumber": "160号-1铺", "addr:street": "文明路", "amenity": "restaurant", "cuisine": "cantonese", "name": "达杨原味炖品", "name:en": "Dayang"}}, {"type": "node", "id": 5343906621, "lat": 23.1132224, "lon": 113.2410644, "tags": {"addr:city": "广州市", "addr:housenumber": "163号", "addr:street": "杉木欄路", "amenity": "restaurant", "name": "友联菜馆"}}, {"type": "node", "id": 5344921822, "lat": 23.1337899, "lon": 113.2460603, "tags": {"addr:city": "广州市", "addr:housenumber": "10", "addr:street": "司马街", "amenity": "restaurant", "name": "方姨猪脚姜"}}, {"type": "node", "id": 5349257922, "lat": 23.12073, "lon": 113.2492522, "tags": {"addr:city": "广州市", "addr:housenumber": "56號", "addr:postcode": "510000", "addr:street": "诗书路", "amenity": "restaurant", "cuisine": "chinese;asian", "name": "容意发牛杂店", "name:zh-Hant": "容意發牛雜店", "phone": "+86 20 8187 1630"}}, {"type": "node", "id": 5358006684, "lat": 23.0924979, "lon": 113.2469964, "tags": {"amenity": "restaurant", "name": "唐苑酒家", "name:zh": "唐苑酒家"}}, {"type": "node", "id": 5377178381, "lat": 23.1364285, "lon": 113.279576, "tags": {"amenity": "restaurant", "cuisine": "brazilian", "name": "拉丁餐厅", "name:en": "Latin Grillhouse", "name:zh": "拉丁餐厅"}}, {"type": "node", "id": 5416286477, "lat": 23.0923753, "lon": 113.2710537, "tags": {"amenity": "restaurant", "branch": "昌岗店", "brand": "广州酒家", "brand:en": "Guangzhou Restaurant", "brand:wikidata": "Q11062214", "brand:wikipedia": "zh:广州酒家", "brand:yue": "廣州酒家", "brand:zh": "广州酒家", "cuisine": "cantonese", "name": "广州酒家", "name:en": "Guangzhou Restaurant", "name:yue": "廣州酒家", "name:zh": "广州酒家"}}, {"type": "node", "id": 5416286478, "lat": 23.0915906, "lon": 113.2698898, "tags": {"name": "合生生活天地", "name:zh": "合生生活天地", "shop": "mall"}}, {"type": "node", "id": 5419356798, "lat": 23.089027, "lon": 113.2573083, "tags": {"amenity": "restaurant", "cuisine": "seafood", "name": "鸿星海鲜酒家", "name:zh": "鸿星海鲜酒家"}}, {"type": "node", "id": 5436606247, "lat": 23.1431445, "lon": 113.3127454, "tags": {"brand": "全家", "brand:en": "FamilyMart", "brand:wikidata": "Q11247682", "brand:wikipedia": "zh:FamilyMart", "brand:zh": "全家", "name": "全家", "name:en": "FamilyMart", "name:zh": "全家", "shop": "convenience"}}, {"type": "node", "id": 5436606249, "lat": 23.1526446, "lon": 113.3076757, "tags": {"amenity": "marketplace", "name": "西支涌市场", "name:zh": "西支涌市场"}}, {"type": "node", "id": 5437532471, "lat": 23.1185427, "lon": 113.267628, "tags": {"brand": "美宜佳", "brand:en": "Meiyijia", "brand:wikidata": "Q55719551", "brand:wikipedia": "zh:美宜佳", "brand:zh": "美宜佳", "name": "美宜佳", "name:en": "Meiyijia", "name:zh": "美宜佳", "shop": "convenience"}}, {"type": "node", "id": 5437532473, "lat": 23.1180209, "lon": 113.2672645, "tags": {"brand": "7-Eleven", "brand:wikidata": "Q259340", "name": "7-Eleven", "shop": "convenience"}}, {"type": "node", "id": 5437532474, "lat": 23.1182393, "lon": 113.2683073, "tags": {"brand": "7-Eleven", "brand:wikidata": "Q259340", "brand:wikipedia": "en:7-Eleven", "name": "7-Eleven", "shop": "convenience"}}, {"type": "node", "id": 5450668954, "lat": 23.1335502, "lon": 113.2649591, "tags": {"addr:city": "Guangzhou", "addr:district": "Yuexiu", "addr:housenumber": "362", "addr:province": "Guangdong", "addr:street": "东风中路", "amenity": "cafe", "brand": "星巴克", "brand:en": "Starbucks", "brand:wikidata": "Q37158", "brand:wikipedia": "en:Starbucks", "brand:zh": "星巴克", "cuisine": "coffee_shop", "internet_access": "wlan", "internet_access:fee": "no", "internet_access:ssid": "Starbucks", "name": "星巴克", "name:en": "Starbucks", "name:zh": "星巴克", "official_name": "Starbucks Coffee", "opening_hours": "Mo-Su 07:30-22:30", "outdoor_seating": "no", "smoking": "no", "takeaway": "yes"}}, {"type": "node", "id": 5451150624, "lat": 23.1389627, "lon": 113.252316, "tags": {"amenity": "restaurant", "diet:halal": "yes", "name": "兰州拉面", "name:en": "Lanzhou Noodle", "name:zh": "兰州拉面"}}, {"type": "node", "id": 5464429621, "lat": 23.1435259, "lon": 113.2697338, "tags": {"amenity": "restaurant", "diet:halal": "yes", "name": "阿勒玛蒂娜餐厅", "name:en": "New Madina Restaurant"}}, {"type": "node", "id": 5497460622, "lat": 23.1095664, "lon": 113.2402836, "tags": {"name": "8字", "name:en": "8-Mart", "name:zh": "8字", "shop": "convenience"}}, {"type": "node", "id": 5498729924, "lat": 23.1372678, "lon": 113.2790881, "tags": {"amenity": "restaurant", "name:en": "Happy Monk"}}, {"type": "node", "id": 5501135924, "lat": 23.1394944, "lon": 113.2842718, "tags": {"amenity": "restaurant", "name": "喜马拉雅藏吧", "name:fr": "Restaurant Tibétain"}}, {"type": "node", "id": 5502632624, "lat": 23.1101177, "lon": 113.2384963, "tags": {"amenity": "cafe", "brand": "星巴克", "brand:en": "Starbucks", "brand:wikidata": "Q37158", "brand:wikipedia": "zh:星巴克", "brand:zh": "星巴克", "cuisine": "coffee_shop", "name": "星巴克", "name:en": "Starbucks", "name:zh": "星巴克", "takeaway": "yes"}}, {"type": "node", "id": 5549715621, "lat": 23.1417254, "lon": 113.2749735, "tags": {"amenity": "restaurant", "cuisine": "chinese", "internet_access": "wlan", "name": "又一间茶点轩"}}, {"type": "node", "id": 5566414243, "lat": 23.1520972, "lon": 113.3178094, "tags": {"amenity": "fast_food", "brand": "麦当劳", "brand:en": "McDonald's", "brand:wikidata": "Q38076", "brand:wikipedia": "zh:麦当劳", "brand:zh": "麦当劳", "brand:zh-Hans": "麦当劳", "cuisine": "burger", "drive_through": "no", "name": "麦当劳", "name:en": "McDonald's", "name:zh": "麦当劳", "name:zh-Hans": "麦当劳", "outdoor_seating": "no", "takeaway": "yes"}}, {"type": "node", "id": 5572445511, "lat": 23.1614699, "lon": 113.3222961, "tags": {"amenity": "restaurant", "name": "海门鱼仔（燕岭店）", "name:zh": "海门鱼仔（燕岭店）"}}, {"type": "node", "id": 5596657473, "lat": 23.1205867, "lon": 113.3208873, "tags": {"addr:housenumber": "6", "addr:street": "珠江东路", "air_conditioning": "yes", "currency:CNY": "yes", "name": "K11", "name:en": "Guangzhou K11 Art Mall", "name:zh": "广州K11购物艺术中心", "opening_hours": "Mo-Su 10:00-22:00", "payment:cash": "yes", "payment:credit_cards": "yes", "phone": "+86 400 830 8032", "shop": "mall", "website": "https://gz.k11.com", "wheelchair": "yes"}}, {"type": "node", "id": 5647947433, "lat": 23.1711782, "lon": 113.2918632, "tags": {"shop": "convenience"}}, {"type": "node", "id": 5651137723, "lat": 23.1226137, "lon": 113.3208105, "tags": {"amenity": "cafe", "brand": "星巴克", "brand:en": "Starbucks", "brand:wikidata": "Q37158", "brand:wikipedia": "zh:星巴克", "brand:zh": "星巴克", "cuisine": "coffee_shop", "name": "星巴克", "name:en": "Starbucks", "name:zh": "星巴克", "takeaway": "yes"}}, {"type": "node", "id": 5751709223, "lat": 23.1165555, "lon": 113.236242, "tags": {"amenity": "restaurant", "name": "顺记冰室"}}, {"type": "node", "id": 5751709224, "lat": 23.1164519, "lon": 113.2362474, "tags": {"amenity": "restaurant", "name": "陈添记"}}, {"type": "node", "id": 5808273099, "lat": 23.1719906, "lon": 113.2505068, "tags": {"amenity": "restaurant", "cuisine": "regional;chinese", "name": "广新天地"}}, {"type": "node", "id": 5810715333, "lat": 23.1215398, "lon": 113.2811234, "tags": {"brand": "7-Eleven", "brand:wikidata": "Q259340", "brand:wikipedia": "en:7-Eleven", "name": "7-Eleven", "opening_hours": "24/7", "shop": "convenience"}}, {"type": "node", "id": 5810715336, "lat": 23.1192048, "lon": 113.2802863, "tags": {"brand": "全家", "brand:en": "FamilyMart", "brand:wikidata": "Q11247682", "brand:wikipedia": "zh:FamilyMart", "brand:zh": "全家", "name": "全家", "name:en": "FamilyMart", "name:zh": "全家", "shop": "convenience"}}, {"type": "node", "id": 5810715337, "lat": 23.1166359, "lon": 113.2803985, "tags": {"name": "8-Mart", "shop": "convenience"}}, {"type": "node", "id": 5810715338, "lat": 23.1169484, "lon": 113.279663, "tags": {"name": "8-Mart", "shop": "convenience"}}, {"type": "node", "id": 5810725173, "lat": 23.1204876, "lon": 113.2811242, "tags": {"amenity": "restaurant", "cuisine": "cantonese", "name": "表哥茶餐厅", "outdoor_seating": "no", "smoking": "no"}}, {"type": "node", "id": 5814559587, "lat": 23.097895, "lon": 113.3154714, "tags": {"amenity": "cafe", "brand": "星巴克", "brand:en": "Starbucks", "brand:wikidata": "Q37158", "brand:wikipedia": "zh:星巴克", "brand:zh": "星巴克", "cuisine": "coffee_shop", "internet_access": "wlan", "internet_access:fee": "no", "internet_access:ssid": "STARBUCKS", "level": "1;2", "name": "星巴克", "name:en": "Starbucks", "name:zh": "星巴克", "official_name": "Starbucks Coffee", "outdoor_seating": "yes", "smoking": "outside", "takeaway": "yes"}}, {"type": "node", "id": 5819616890, "lat": 23.1321581, "lon": 113.2523714, "tags": {"amenity": "restaurant", "diet:vegetarian": "yes"}}, {"type": "node", "id": 5825645073, "lat": 23.1339536, "lon": 113.2575821, "tags": {"amenity": "cafe", "brand": "星巴克", "brand:en": "Starbucks", "brand:wikidata": "Q37158", "brand:wikipedia": "zh:星巴克", "brand:zh": "星巴克", "cuisine": "coffee_shop", "internet_access": "wlan", "internet_access:fee": "no", "internet_access:ssid": "STARBUCKS", "name": "星巴克", "name:en": "Starbucks", "name:zh": "星巴克", "official_name": "Starbucks Coffee", "takeaway": "yes"}}, {"type": "node", "id": 5829313884, "lat": 23.0925433, "lon": 113.2496498, "tags": {"amenity": "restaurant", "name": "朱仔记(革新路店)", "name:en": "Zhuzai Ji"}}, {"type": "node", "id": 5829318311, "lat": 23.1251961, "lon": 113.2326629, "tags": {"brand": "7-Eleven", "brand:wikidata": "Q259340", "brand:wikipedia": "en:7-Eleven", "name": "7-Eleven", "shop": "convenience", "wheelchair": "no"}}, {"type": "node", "id": 5832003362, "lat": 23.0959266, "lon": 113.3018964, "tags": {"brand": "美宜佳", "brand:en": "Meiyijia", "brand:wikidata": "Q55719551", "brand:wikipedia": "zh:美宜佳", "brand:zh": "美宜佳", "name": "美宜佳", "name:en": "Meiyijia", "name:zh": "美宜佳", "shop": "convenience"}}, {"type": "node", "id": 5834317598, "lat": 23.1459286, "lon": 113.3237471, "tags": {"addr:city": "广州市", "addr:district": "天河区", "addr:housenumber": "39-49号三楼", "addr:postcode": "510000", "addr:province": "广东省", "addr:street": "林乐路", "amenity": "restaurant", "cuisine": "chinese;潮菜/粤菜", "name": "潮庄酒家"}}, {"type": "node", "id": 5834317657, "lat": 23.145996, "lon": 113.3248097, "tags": {"addr:city": "广州市", "addr:district": "天河区", "addr:postcode": "510000", "addr:province": "广东省", "addr:street": "林乐路", "amenity": "restaurant", "cuisine": "coffee_shop", "name": "Be Bright", "takeaway": "yes"}}, {"type": "node", "id": 5862644591, "lat": 23.1236632, "lon": 113.3251698, "tags": {"amenity": "restaurant", "diet:vegan": "only", "name": "Go Vegan", "name:de": "Go Vegan"}}, {"type": "node", "id": 5892108788, "lat": 23.1180342, "lon": 113.2596415, "tags": {"amenity": "fast_food", "brand": "麦当劳", "brand:en": "McDonald's", "brand:wikidata": "Q38076", "brand:wikipedia": "zh:麦当劳", "brand:zh": "麦当劳", "brand:zh-Hans": "麦当劳", "cuisine": "burger", "name": "麦当劳", "name:en": "McDonald's", "name:zh": "麦当劳", "name:zh-Hans": "麦当劳", "takeaway": "yes"}}, {"type": "node", "id": 5892267085, "lat": 23.1179981, "lon": 113.259633, "tags": {"amenity": "cafe", "name:en": "La Cafferia"}}, {"type": "node", "id": 5981695087, "lat": 23.1027023, "lon": 113.2486117, "tags": {"amenity": "marketplace", "name": "福龙东市场"}}, {"type": "node", "id": 6067806396, "lat": 23.126932, "lon": 113.2426675, "tags": {"amenity": "cafe", "brand": "星巴克", "brand:en": "Starbucks", "brand:wikidata": "Q37158", "brand:wikipedia": "zh:星巴克", "brand:zh": "星巴克", "cuisine": "coffee_shop", "level": "1", "name": "星巴克", "name:en": "Starbucks", "name:zh": "星巴克", "takeaway": "yes", "wheelchair": "yes"}}, {"type": "node", "id": 6082340987, "lat": 23.1581618, "lon": 113.3255906, "tags": {"amenity": "fast_food", "brand": "肯德基", "brand:en": "KFC", "brand:wikidata": "Q524757", "brand:zh": "肯德基", "cuisine": "chicken", "name": "肯德基", "name:en": "KFC", "name:zh": "肯德基", "takeaway": "yes"}}, {"type": "node", "id": 6138996411, "lat": 23.0955328, "lon": 113.2315939, "tags": {"amenity": "restaurant", "name": "顺德一品粥"}}, {"type": "node", "id": 6168282555, "lat": 23.1024994, "lon": 113.277849, "tags": {"brand": "华润万家", "brand:en": "Vanguard", "brand:wikidata": "Q5099892", "brand:zh": "华润万家", "name": "华润万家", "name:en": "Vanguard", "name:zh": "华润万家", "shop": "supermarket"}}, {"type": "node", "id": 6191758040, "lat": 23.1205388, "lon": 113.3219303, "tags": {"amenity": "restaurant", "brand": "点都德", "brand:en": "Diandoude", "brand:wikidata": "Q97780269", "brand:wikipedia": "zh:点都德", "brand:yue": "點都德", "brand:zh": "点都德", "cuisine": "cantonese", "name": "点都德", "name:en": "Diandoude", "name:yue": "點都德", "name:zh": "点都德"}}, {"type": "node", "id": 6247057915, "lat": 23.1782441, "lon": 113.2442153, "tags": {"amenity": "restaurant", "name": "潮味香汤粉世家"}}, {"type": "node", "id": 6247057918, "lat": 23.178138, "lon": 113.2430432, "tags": {"name": "家家旺生活超市", "shop": "supermarket"}}, {"type": "node", "id": 6261192485, "lat": 23.1401746, "lon": 113.2393333, "tags": {"amenity": "restaurant", "name": "流花茶艺城"}}, {"type": "node", "id": 6261197701, "lat": 23.1373315, "lon": 113.2541334, "tags": {"amenity": "restaurant", "name": "六婶西关小厨"}}, {"type": "node", "id": 6299082887, "lat": 23.1029632, "lon": 113.245626, "tags": {"amenity": "marketplace", "name": "洪德五巷街市"}}, {"type": "node", "id": 6342990553, "lat": 23.1206149, "lon": 113.2567099, "tags": {"brand": "7-Eleven", "brand:wikidata": "Q259340", "brand:wikipedia": "en:7-Eleven", "name": "7-Eleven", "name:en": "7 eleven", "shop": "convenience"}}, {"type": "node", "id": 6342990600, "lat": 23.1182022, "lon": 113.2825287, "tags": {"brand": "全家", "brand:en": "FamilyMart", "brand:wikidata": "Q11247682", "brand:zh": "全家", "name": "全家", "name:en": "FamilyMart", "name:zh": "全家", "shop": "convenience"}}, {"type": "node", "id": 6342990605, "lat": 23.1185636, "lon": 113.273171, "tags": {"amenity": "fast_food", "brand": "塔斯汀", "brand:en": "Tastien", "brand:wikidata": "Q117191831", "brand:zh": "塔斯汀", "cuisine": "burger", "delivery": "yes", "name": "塔斯汀", "name:en": "Tastien", "name:zh": "塔斯汀", "takeaway": "yes"}}, {"type": "node", "id": 6342990626, "lat": 23.1318661, "lon": 113.2663965, "tags": {"brand": "全家", "brand:en": "FamilyMart", "brand:wikidata": "Q11247682", "brand:wikipedia": "zh:FamilyMart", "brand:zh": "全家", "name": "全家", "name:en": "FamilyMart", "name:zh": "全家", "shop": "convenience"}}, {"type": "node", "id": 6342990640, "lat": 23.1277872, "lon": 113.2586514, "tags": {"shop": "supermarket"}}, {"type": "node", "id": 6342991286, "lat": 23.1230886, "lon": 113.2479891, "tags": {"amenity": "restaurant"}}, {"type": "node", "id": 6342991290, "lat": 23.1181358, "lon": 113.282749, "tags": {"amenity": "fast_food", "brand": "食其家", "brand:en": "Sukiya", "brand:ja": "すき家", "brand:wikidata": "Q6137375", "brand:wikipedia": "zh:食其家", "brand:zh": "食其家", "cuisine": "beef_bowl", "name": "食其家", "name:en": "Sukiya", "name:ja": "すき家", "name:zh": "食其家", "takeaway": "yes"}}, {"type": "node", "id": 6342991336, "lat": 23.1414022, "lon": 113.2520785, "tags": {"amenity": "restaurant"}}, {"type": "node", "id": 6342991338, "lat": 23.1193653, "lon": 113.2361999, "tags": {"amenity": "fast_food", "brand": "肯德基", "brand:en": "KFC", "brand:wikidata": "Q524757", "brand:wikipedia": "zh:肯德基", "brand:zh": "肯德基", "cuisine": "chicken", "name": "肯德基", "name:en": "KFC", "name:zh": "肯德基", "takeaway": "yes"}}, {"type": "node", "id": 6342991340, "lat": 23.1160876, "lon": 113.2362493, "tags": {"amenity": "fast_food", "brand": "麦当劳", "brand:en": "McDonald's", "brand:wikidata": "Q38076", "brand:wikipedia": "zh:麦当劳", "brand:zh": "麦当劳", "brand:zh-Hans": "麦当劳", "cuisine": "burger", "name": "麦当劳", "name:en": "McDonald's", "name:zh": "麦当劳", "name:zh-Hans": "麦当劳", "takeaway": "yes"}}, {"type": "node", "id": 6342991343, "lat": 23.1149709, "lon": 113.2348174, "tags": {"addr:city": "广州市", "addr:district": "荔湾区", "addr:housenumber": "174", "addr:province": "广东省", "addr:street": "丛桂路", "amenity": "restaurant", "cuisine": "chinese", "name": "湛记餐馆", "phone": "+86 20 8193 8129"}}, {"type": "node", "id": 6342991349, "lat": 23.1230029, "lon": 113.2312042, "tags": {"brand": "7-Eleven", "brand:wikidata": "Q259340", "brand:wikipedia": "en:7-Eleven", "name": "7-Eleven", "name:en": "7 eleven", "shop": "convenience"}}, {"type": "node", "id": 6342991354, "lat": 23.1272622, "lon": 113.2382124, "tags": {"amenity": "cafe", "brand": "星巴克", "brand:en": "Starbucks", "brand:wikidata": "Q37158", "brand:wikipedia": "zh:星巴克", "brand:zh": "星巴克", "cuisine": "coffee_shop", "name": "星巴克", "name:en": "Starbucks", "name:zh": "星巴克", "outdoor_seating": "yes", "takeaway": "yes"}}, {"type": "node", "id": 6342991358, "lat": 23.1250211, "lon": 113.2421254, "tags": {"brand": "7-Eleven", "brand:wikidata": "Q259340", "brand:wikipedia": "en:7-Eleven", "name": "7-Eleven", "name:en": "7-Eleven", "shop": "convenience"}}, {"type": "node", "id": 6342991359, "lat": 23.1247504, "lon": 113.2420893, "tags": {"amenity": "fast_food", "brand": "麦当劳", "brand:en": "McDonald's", "brand:wikidata": "Q38076", "brand:wikipedia": "zh:麦当劳", "brand:zh": "麦当劳", "brand:zh-Hans": "麦当劳", "cuisine": "burger", "level": "2", "name": "麦当劳", "name:en": "McDonald's", "name:zh": "麦当劳", "name:zh-Hans": "麦当劳", "takeaway": "yes"}}, {"type": "node", "id": 6342991370, "lat": 23.1278683, "lon": 113.2579824, "tags": {"brand": "7-Eleven", "brand:wikidata": "Q259340", "brand:wikipedia": "en:7-Eleven", "name": "7-Eleven", "name:en": "7 eleven", "shop": "convenience"}}, {"type": "node", "id": 6342991383, "lat": 23.1273735, "lon": 113.2423633, "tags": {"amenity": "fast_food", "brand": "肯德基", "brand:en": "KFC", "brand:wikidata": "Q524757", "brand:wikipedia": "zh:肯德基", "brand:zh": "肯德基", "cuisine": "chicken", "name": "肯德基", "name:en": "KFC", "name:zh": "肯德基", "takeaway": "yes", "wheelchair": "yes"}}, {"type": "node", "id": 6343004405, "lat": 23.1231568, "lon": 113.2494246, "tags": {"amenity": "restaurant"}}, {"type": "node", "id": 6343004419, "lat": 23.1248183, "lon": 113.2311024, "tags": {"amenity": "restaurant", "wheelchair": "yes"}}, {"type": "node", "id": 6343004475, "lat": 23.1165073, "lon": 113.2565905, "tags": {"amenity": "fast_food", "brand": "麦当劳", "brand:en": "McDonald's", "brand:wikidata": "Q38076", "brand:wikipedia": "zh:麦当劳", "brand:zh": "麦当劳", "brand:zh-Hans": "麦当劳", "cuisine": "burger", "name": "麦当劳", "name:en": "McDonald's", "name:zh": "麦当劳", "name:zh-Hans": "麦当劳", "takeaway": "yes"}}, {"type": "node", "id": 6343005686, "lat": 23.118541, "lon": 113.2707709, "tags": {"brand": "7-Eleven", "brand:wikidata": "Q259340", "brand:wikipedia": "en:7-Eleven", "name": "7-Eleven", "name:en": "7 eleven", "payment:alipay": "yes", "payment:cash": "yes", "payment:wechat": "yes", "shop": "convenience"}}, {"type": "node", "id": 6343005691, "lat": 23.1199165, "lon": 113.2513026, "tags": {"brand": "7-Eleven", "brand:wikidata": "Q259340", "brand:wikipedia": "en:7-Eleven", "name": "7-Eleven", "name:en": "7 eleven", "shop": "convenience"}}, {"type": "node", "id": 6343005722, "lat": 23.1281671, "lon": 113.2430677, "tags": {"brand": "7-Eleven", "brand:wikidata": "Q259340", "brand:wikipedia": "en:7-Eleven", "name": "7-Eleven", "name:en": "7 eleven", "shop": "convenience", "wheelchair": "limited"}}, {"type": "node", "id": 6343005728, "lat": 23.1240342, "lon": 113.2463655, "tags": {"shop": "supermarket"}}, {"type": "node", "id": 6343005746, "lat": 23.1146021, "lon": 113.2496806, "tags": {"amenity": "fast_food", "brand": "肯德基", "brand:en": "KFC", "brand:wikidata": "Q524757", "brand:zh": "肯德基", "cuisine": "chicken", "name": "肯德基", "name:en": "KFC", "name:zh": "肯德基", "takeaway": "yes"}}, {"type": "node", "id": 6343013389, "lat": 23.1235701, "lon": 113.2495058, "tags": {"amenity": "restaurant"}}, {"type": "node", "id": 6343013403, "lat": 23.1493095, "lon": 113.2506042, "tags": {"amenity": "fast_food", "brand": "麦当劳", "brand:en": "McDonald's", "brand:wikidata": "Q38076", "brand:wikipedia": "en:McDonald's", "brand:zh": "麦当劳", "cuisine": "burger", "name": "麦当劳", "name:en": "McDonald's", "name:zh": "麦当劳", "takeaway": "yes"}}, {"type": "node", "id": 6343013404, "lat": 23.1497607, "lon": 113.2504583, "tags": {"amenity": "fast_food", "brand": "肯德基", "brand:en": "KFC", "brand:wikidata": "Q524757", "brand:wikipedia": "en:KFC", "brand:zh": "肯德基", "cuisine": "chicken", "name": "肯德基", "name:en": "KFC", "name:zh": "肯德基", "takeaway": "yes"}}, {"type": "node", "id": 6343013411, "lat": 23.1171589, "lon": 113.2362305, "tags": {"amenity": "restaurant", "name": "彩点茶楼"}}, {"type": "node", "id": 6343019492, "lat": 23.1226545, "lon": 113.2476155, "tags": {"amenity": "fast_food"}}, {"type": "node", "id": 6343019499, "lat": 23.1279616, "lon": 113.2623717, "tags": {"brand": "7-Eleven", "brand:wikidata": "Q259340", "brand:wikipedia": "en:7-Eleven", "name": "7-Eleven", "name:en": "7 eleven", "shop": "convenience"}}, {"type": "node", "id": 6351687105, "lat": 23.1270294, "lon": 113.2520889, "tags": {"amenity": "restaurant", "name": "琪琪小食店", "name:zh": "琪琪小食店", "name:zh-Hans": "琪琪小食店", "name:zh-Hant": "琪琪小食店"}}, {"type": "node", "id": 6351696008, "lat": 23.1254948, "lon": 113.2481371, "tags": {"amenity": "cafe", "brand": "星巴克", "brand:en": "Starbucks", "brand:wikidata": "Q37158", "brand:wikipedia": "zh:星巴克", "brand:zh": "星巴克", "cuisine": "coffee_shop", "name": "星巴克", "name:en": "Starbucks", "name:zh": "星巴克", "takeaway": "yes"}}, {"type": "node", "id": 6351696302, "lat": 23.1330754, "lon": 113.3164165, "tags": {"shop": "supermarket"}}, {"type": "node", "id": 6357999297, "lat": 23.0982859, "lon": 113.3269738, "tags": {"amenity": "fast_food", "cuisine": "chinese", "delivery": "yes", "drive_through": "no", "name": "都城快餐", "payment:alipay": "yes", "payment:cash": "yes", "payment:wechat": "yes", "smoking": "no", "takeaway": "yes", "website": "http://www.dcyz.com/"}}, {"type": "node", "id": 6357999338, "lat": 23.0992384, "lon": 113.3238405, "tags": {"brand": "7-Eleven", "brand:wikidata": "Q259340", "brand:wikipedia": "en:7-Eleven", "name": "7-Eleven", "shop": "convenience"}}, {"type": "node", "id": 6358011137, "lat": 23.1031488, "lon": 113.3220997, "tags": {"amenity": "fast_food", "brand": "肯德基", "brand:en": "KFC", "brand:wikidata": "Q524757", "brand:wikipedia": "zh:肯德基", "brand:zh": "肯德基", "cuisine": "chicken", "name": "肯德基", "name:en": "KFC", "name:zh": "肯德基", "opening_hours": "24/7", "takeaway": "yes"}}, {"type": "node", "id": 6358011138, "lat": 23.1027919, "lon": 113.3221055, "tags": {"amenity": "cafe", "brand": "星巴克", "brand:en": "Starbucks", "brand:wikidata": "Q37158", "brand:wikipedia": "zh:星巴克", "brand:zh": "星巴克", "cuisine": "coffee_shop", "name": "星巴克", "name:en": "Starbucks", "name:zh": "星巴克", "official_name": "Starbucks Coffee", "takeaway": "yes"}}, {"type": "node", "id": 6358132221, "lat": 23.1354043, "lon": 113.3185344, "tags": {"amenity": "cafe", "branch": "天环广场2店", "brand": "星巴克", "brand:en": "Starbucks", "brand:wikidata": "Q37158", "brand:wikipedia": "zh:星巴克", "brand:zh": "星巴克", "cuisine": "coffee_shop", "internet_access": "wlan", "name": "星巴克", "name:en": "Starbucks", "name:zh": "星巴克", "official_name": "Starbucks Coffee", "outdoor_seating": "no", "smoking": "no", "takeaway": "yes"}}, {"type": "node", "id": 6358142904, "lat": 23.1369198, "lon": 113.3156649, "tags": {"amenity": "cafe", "branch": "维多利广场店", "brand": "星巴克", "brand:en": "Starbucks", "brand:wikidata": "Q37158", "brand:wikipedia": "en:Starbucks", "brand:zh": "星巴克", "cuisine": "coffee_shop", "level": "-1", "name": "星巴克", "name:en": "Starbucks", "name:zh": "星巴克", "official_name": "Starbucks Coffee", "outdoor_seating": "yes", "takeaway": "yes"}}, {"type": "node", "id": 6358142906, "lat": 23.1374942, "lon": 113.3152007, "tags": {"amenity": "fast_food", "branch": "维多利广场餐厅", "brand": "麦当劳", "brand:en": "McDonald's", "brand:wikidata": "Q38076", "brand:wikipedia": "en:McDonald's", "brand:zh": "麦当劳", "cuisine": "burger", "level": "1;2", "name": "麦当劳", "name:en": "McDonald's", "name:zh": "麦当劳", "takeaway": "yes"}}, {"type": "node", "id": 6358142907, "lat": 23.1375658, "lon": 113.3154932, "tags": {"brand": "OK便利店", "brand:en": "Circle K", "brand:wikidata": "Q3268010", "brand:wikipedia": "en:Circle K", "brand:zh": "OK便利店", "name": "OK便利店", "name:en": "Circle K", "name:zh": "OK便利店", "shop": "convenience"}}, {"type": "node", "id": 6362134337, "lat": 23.1395482, "lon": 113.2762017, "tags": {"addr:housenumber": "20", "addr:street": "建设大马路", "brand": "盒马鲜生", "brand:en": "Fresh Hema", "brand:wikidata": "Q58617964", "brand:wikipedia": "zh:盒馬鮮生", "brand:zh": "盒马鲜生", "name": "盒马鲜生", "name:en": "Fresh Hema", "name:zh": "盒马鲜生", "opening_hours": "Mo-Su 09:00-22:00", "payment:alipay": "yes", "payment:cash": "yes", "payment:credit_cards": "yes", "shop": "supermarket", "website": "https://www.freshhema.com/"}}, {"type": "node", "id": 6362134338, "lat": 23.1391455, "lon": 113.2764643, "tags": {"amenity": "restaurant", "brand": "PizzaExpress", "brand:wikidata": "Q662845", "brand:wikipedia": "en:PizzaExpress", "cuisine": "pizza", "internet_access": "wlan", "name": "PizzaExpress", "name:en": "PizzaMarzano", "name:zh": "比萨玛尚诺", "opening_hours": "Mo-Su 10:00-22:00", "outdoor_seating": "yes", "takeaway": "yes", "website": "http://www.pizzamarzano.cn/"}}, {"type": "node", "id": 6362134339, "lat": 23.139152, "lon": 113.2766289, "tags": {"amenity": "cafe", "brand": "喜茶", "brand:en": "Heytea", "brand:wikidata": "Q60875376", "brand:wikipedia": "zh:喜茶", "brand:zh": "喜茶", "cuisine": "bubble_tea", "delivery": "yes", "internet_access": "wlan", "name": "喜茶", "name:en": "Heytea", "name:zh": "喜茶", "takeaway": "yes", "website": "https://www.heytea.com/"}}, {"type": "node", "id": 6362783106, "lat": 23.1277889, "lon": 113.2639081, "tags": {"amenity": "restaurant", "brand": "海底捞火锅", "brand:en": "Haidilao Hot Pot", "brand:wikidata": "Q5638920", "brand:wikipedia": "zh:海底捞", "brand:zh": "海底捞火锅", "brand:zh-Hans": "海底捞火锅", "brand:zh-Hant": "海底撈火鍋", "cuisine": "chinese;hotpot", "internet_access": "wlan", "name": "海底捞火锅", "name:en": "Haidilao Hot Pot", "name:zh": "海底捞火锅", "name:zh-Hans": "海底捞火锅", "name:zh-Hant": "海底撈火鍋", "opening_hours": "Mo-Su 09:00-07:00", "phone": "+86 20 8302 7255"}}, {"type": "node", "id": 6380415450, "lat": 23.1194328, "lon": 113.2363733, "tags": {"amenity": "fast_food", "brand": "麦当劳", "brand:en": "McDonald's", "brand:wikidata": "Q38076", "brand:wikipedia": "zh:麦当劳", "brand:zh": "麦当劳", "brand:zh-Hans": "麦当劳", "cuisine": "burger", "name": "麦当劳", "name:en": "McDonald's", "name:zh": "麦当劳", "name:zh-Hans": "麦当劳", "takeaway": "yes"}}, {"type": "node", "id": 6380419703, "lat": 23.1165347, "lon": 113.2405578, "tags": {"amenity": "restaurant", "brand": "广州酒家", "brand:en": "Guangzhou Restaurant", "brand:wikidata": "Q11062214", "brand:wikipedia": "zh:广州酒家", "brand:yue": "廣州酒家", "brand:zh": "广州酒家", "cuisine": "cantonese", "name": "广州酒家", "name:en": "Guangzhou Restaurant", "name:yue": "廣州酒家", "name:zh": "广州酒家"}}, {"type": "node", "id": 6382740885, "lat": 23.1231389, "lon": 113.2600214, "tags": {"addr:city": "广州市", "addr:housenumber": "470", "addr:street": "惠福东路", "amenity": "restaurant", "brand": "点都德", "brand:en": "Diandoude", "brand:wikidata": "Q97780269", "brand:wikipedia": "zh:点都德", "brand:yue": "點都德", "brand:zh": "点都德", "cuisine": "cantonese", "name": "点都德", "name:en": "Diandoude", "name:yue": "點都德", "name:zh": "点都德", "name:zh-Hant": "點都德(聚福楼)"}}, {"type": "node", "id": 6383224285, "lat": 23.1377458, "lon": 113.2896045, "tags": {"addr:city": "广州市", "addr:housenumber": "419", "addr:street": "环市东路", "amenity": "restaurant", "name": "广东道至正餐厅", "name:en": "Canton Road", "wheelchair": "limited"}}, {"type": "node", "id": 6387661408, "lat": 23.1379763, "lon": 113.2674996, "tags": {"name": "喜聚广场", "shop": "mall"}}, {"type": "node", "id": 6447331765, "lat": 23.1705254, "lon": 113.2969795, "tags": {"amenity": "fast_food", "brand": "肯德基", "brand:en": "KFC", "brand:wikidata": "Q524757", "brand:wikipedia": "en:KFC", "brand:zh": "肯德基", "cuisine": "chicken", "name": "肯德基", "name:en": "KFC", "name:zh": "肯德基", "takeaway": "yes"}},