{"type": "FeatureCollection", "features": [{"type": "Feature", "properties": {"osm_id": 600265656, "name": "北京莱佛士医院", "category": "hospital", "poi_type": "sensitive", "tags": {"addr:street": "Xinyuanli", "amenity": "hospital", "name": "北京莱佛士医院", "name:en": "Raffles Hospital"}}, "geometry": {"type": "Point", "coordinates": [116.4439109, 39.9469421]}}, {"type": "Feature", "properties": {"osm_id": 803214210, "name": "", "category": "school", "poi_type": "sensitive", "tags": {"amenity": "school"}}, "geometry": {"type": "Point", "coordinates": [116.325109, 39.9105427]}}, {"type": "Feature", "properties": {"osm_id": 973328216, "name": "Police Station", "category": "police", "poi_type": "sensitive", "tags": {"amenity": "police", "name": "Police Station"}}, "geometry": {"type": "Point", "coordinates": [116.3771513, 39.9502838]}}, {"type": "Feature", "properties": {"osm_id": 995934029, "name": "Chongwenqu Huimin Elementary School", "category": "school", "poi_type": "sensitive", "tags": {"amenity": "school", "name": "Chongwenqu Huimin Elementary School"}}, "geometry": {"type": "Point", "coordinates": [116.421699, 39.896396]}}, {"type": "Feature", "properties": {"osm_id": 1041390413, "name": "Cuiwei Rd Police Station", "category": "police", "poi_type": "sensitive", "tags": {"amenity": "police", "name": "Cuiwei Rd Police Station"}}, "geometry": {"type": "Point", "coordinates": [116.2966625, 39.9087826]}}, {"type": "Feature", "properties": {"osm_id": 1108734444, "name": "瑞鲨口腔", "category": "hospital", "poi_type": "sensitive", "tags": {"amenity": "hospital", "name": "瑞鲨口腔", "name:en": "ReShark Dental", "name:zh": "瑞鲨口腔"}}, "geometry": {"type": "Point", "coordinates": [116.4453402, 39.9690881]}}, {"type": "Feature", "properties": {"osm_id": 1362305691, "name": "北大附中", "category": "school", "poi_type": "sensitive", "tags": {"amenity": "school", "name": "北大附中", "name:zh": "北大附中"}}, "geometry": {"type": "Point", "coordinates": [116.3140451, 39.9764895]}}, {"type": "Feature", "properties": {"osm_id": 1419861966, "name": "北京新世纪儿童医院", "category": "hospital", "poi_type": "sensitive", "tags": {"amenity": "hospital", "name": "北京新世纪儿童医院", "name:zh": "北京新世纪儿童医院"}}, "geometry": {"type": "Point", "coordinates": [116.3489423, 39.9107729]}}, {"type": "Feature", "properties": {"osm_id": 1569359981, "name": "北京建筑大学", "category": "school", "poi_type": "sensitive", "tags": {"amenity": "school", "name": "北京建筑大学", "name:zh": "北京建筑大学"}}, "geometry": {"type": "Point", "coordinates": [116.3361578, 39.933992]}}, {"type": "Feature", "properties": {"osm_id": 1667674185, "name": "汇佳幼儿园", "category": "kindergarten", "poi_type": "sensitive", "tags": {"amenity": "kindergarten", "name": "汇佳幼儿园"}}, "geometry": {"type": "Point", "coordinates": [116.2930403, 39.9695748]}}, {"type": "Feature", "properties": {"osm_id": 1681188356, "name": "北新桥派出所", "category": "police", "poi_type": "sensitive", "tags": {"amenity": "police", "name": "北新桥派出所", "name:en": "Beixinqiao Police Station"}}, "geometry": {"type": "Point", "coordinates": [116.4203518, 39.9407131]}}, {"type": "Feature", "properties": {"osm_id": 1709521423, "name": "中央音乐学院", "category": "school", "poi_type": "sensitive", "tags": {"amenity": "school", "name": "中央音乐学院"}}, "geometry": {"type": "Point", "coordinates": [116.3519574, 39.9008021]}}, {"type": "Feature", "properties": {"osm_id": 1737610058, "name": "北京市西城区城市管理监察大队牛街分队", "category": "police", "poi_type": "sensitive", "tags": {"addr:street": "牛街", "amenity": "police", "name": "北京市西城区城市管理监察大队牛街分队"}}, "geometry": {"type": "Point", "coordinates": [116.3571449, 39.8824811]}}, {"type": "Feature", "properties": {"osm_id": 1743058266, "name": "丰盛医院", "category": "hospital", "poi_type": "sensitive", "tags": {"amenity": "hospital", "name": "丰盛医院"}}, "geometry": {"type": "Point", "coordinates": [116.355497, 39.9220375]}}, {"type": "Feature", "properties": {"osm_id": 1743112504, "name": "首都体育学院", "category": "college", "poi_type": "sensitive", "tags": {"addr:street": "北三环西路", "amenity": "college", "name": "首都体育学院", "name:zh": "首都体育学院"}}, "geometry": {"type": "Point", "coordinates": [116.3430913, 39.9687626]}}, {"type": "Feature", "properties": {"osm_id": 1743112506, "name": "北京国都医院", "category": "hospital", "poi_type": "sensitive", "tags": {"amenity": "hospital", "name": "北京国都医院"}}, "geometry": {"type": "Point", "coordinates": [116.3614418, 39.9672105]}}, {"type": "Feature", "properties": {"osm_id": 1747614207, "name": "北京市一五六中学", "category": "school", "poi_type": "sensitive", "tags": {"amenity": "school", "name": "北京市一五六中学"}}, "geometry": {"type": "Point", "coordinates": [116.3680855, 39.9298921]}}, {"type": "Feature", "properties": {"osm_id": 1795414679, "name": "中国人民大学附属中学分校", "category": "school", "poi_type": "sensitive", "tags": {"amenity": "school", "name": "中国人民大学附属中学分校"}}, "geometry": {"type": "Point", "coordinates": [116.3220975, 39.9646649]}}, {"type": "Feature", "properties": {"osm_id": 1800507080, "name": "颐慧佳园幼儿园", "category": "kindergarten", "poi_type": "sensitive", "tags": {"amenity": "kindergarten", "name": "颐慧佳园幼儿园"}}, "geometry": {"type": "Point", "coordinates": [116.2806249, 39.9344621]}}, {"type": "Feature", "properties": {"osm_id": 1840814545, "name": "京民医院", "category": "hospital", "poi_type": "sensitive", "tags": {"amenity": "hospital", "name": "京民医院"}}, "geometry": {"type": "Point", "coordinates": [116.3101053, 39.938125]}}, {"type": "Feature", "properties": {"osm_id": 1923832798, "name": "北京新干线学校", "category": "school", "poi_type": "sensitive", "tags": {"addr:street": "北三环西路", "amenity": "school", "name": "北京新干线学校"}}, "geometry": {"type": "Point", "coordinates": [116.3058378, 39.9616241]}}, {"type": "Feature", "properties": {"osm_id": 2056613814, "name": "北京市普仁医院", "category": "hospital", "poi_type": "sensitive", "tags": {"amenity": "hospital", "name": "北京市普仁医院"}}, "geometry": {"type": "Point", "coordinates": [116.4131778, 39.8933066]}}, {"type": "Feature", "properties": {"osm_id": 2102424145, "name": "崇文三幼", "category": "kindergarten", "poi_type": "sensitive", "tags": {"amenity": "kindergarten", "name": "崇文三幼"}}, "geometry": {"type": "Point", "coordinates": [116.4277066, 39.8862648]}}, {"type": "Feature", "properties": {"osm_id": 2173856446, "name": "派出所", "category": "police", "poi_type": "sensitive", "tags": {"amenity": "police", "name": "派出所", "name:zh": "派出所"}}, "geometry": {"type": "Point", "coordinates": [116.4256899, 39.941607]}}, {"type": "Feature", "properties": {"osm_id": 2404818382, "name": "康诺脊柱健康中心", "category": "clinic", "poi_type": "sensitive", "tags": {"amenity": "clinic", "name": "康诺脊柱健康中心"}}, "geometry": {"type": "Point", "coordinates": [116.4788657, 39.9353205]}}, {"type": "Feature", "properties": {"osm_id": 2425481363, "name": "", "category": "police", "poi_type": "sensitive", "tags": {"amenity": "police"}}, "geometry": {"type": "Point", "coordinates": [116.4068644, 39.9289987]}}, {"type": "Feature", "properties": {"osm_id": 2425482556, "name": "首都医科大学附属北京中医医院", "category": "hospital", "poi_type": "sensitive", "tags": {"amenity": "hospital", "name": "首都医科大学附属北京中医医院", "name:en": "Beijing Hospital of Traditional Chinese Medicine, Capital Medical University", "name:zh": "首都医科大学附属北京中医医院"}}, "geometry": {"type": "Point", "coordinates": [116.4021008, 39.9307758]}}, {"type": "Feature", "properties": {"osm_id": 2425487191, "name": "", "category": "hospital", "poi_type": "sensitive", "tags": {"amenity": "hospital"}}, "geometry": {"type": "Point", "coordinates": [116.404826, 39.9256419]}}, {"type": "Feature", "properties": {"osm_id": 2487543058, "name": "北京五十五中国际文凭学校", "category": "school", "poi_type": "sensitive", "tags": {"amenity": "school", "name": "北京五十五中国际文凭学校", "name:en": "Beijing 55"}}, "geometry": {"type": "Point", "coordinates": [116.4334488, 39.9356464]}}, {"type": "Feature", "properties": {"osm_id": 2490579770, "name": "东城区职业技术学校", "category": "school", "poi_type": "sensitive", "tags": {"amenity": "school", "name": "东城区职业技术学校"}}, "geometry": {"type": "Point", "coordinates": [116.432777, 39.9354405]}}, {"type": "Feature", "properties": {"osm_id": 2513551881, "name": "东直门派出所", "category": "police", "poi_type": "sensitive", "tags": {"amenity": "police", "name": "东直门派出所"}}, "geometry": {"type": "Point", "coordinates": [116.4327435, 39.9369801]}}, {"type": "Feature", "properties": {"osm_id": 2513729467, "name": "北京京城国丹医院", "category": "hospital", "poi_type": "sensitive", "tags": {"addr:street": "太平桥路", "amenity": "hospital", "name": "北京京城国丹医院"}}, "geometry": {"type": "Point", "coordinates": [116.3111135, 39.876445]}}, {"type": "Feature", "properties": {"osm_id": 2515010936, "name": "曙光小学", "category": "school", "poi_type": "sensitive", "tags": {"amenity": "school", "name": "曙光小学"}}, "geometry": {"type": "Point", "coordinates": [116.4315391, 39.9359919]}}, {"type": "Feature", "properties": {"osm_id": 2738812685, "name": "北京市宣武中医医院", "category": "hospital", "poi_type": "sensitive", "tags": {"addr:street": "万明路", "amenity": "hospital", "name": "北京市宣武中医医院", "name:zh": "北京市宣武中医医院"}}, "geometry": {"type": "Point", "coordinates": [116.383404, 39.8861639]}}, {"type": "Feature", "properties": {"osm_id": 2738958563, "name": "北京市第十三中学分校", "category": "school", "poi_type": "sensitive", "tags": {"amenity": "school", "name": "北京市第十三中学分校"}}, "geometry": {"type": "Point", "coordinates": [116.3803221, 39.9467492]}}, {"type": "Feature", "properties": {"osm_id": 3017611253, "name": "北京精诚文化实验小学", "category": "school", "poi_type": "sensitive", "tags": {"amenity": "school", "name": "北京精诚文化实验小学"}}, "geometry": {"type": "Point", "coordinates": [116.4200922, 39.9631212]}}, {"type": "Feature", "properties": {"osm_id": 3071751729, "name": "", "category": "police", "poi_type": "sensitive", "tags": {"amenity": "police"}}, "geometry": {"type": "Point", "coordinates": [116.449309, 39.9114912]}}, {"type": "Feature", "properties": {"osm_id": 3095368229, "name": "北京公安局天安门分局", "category": "police", "poi_type": "sensitive", "tags": {"amenity": "police", "name": "北京公安局天安门分局"}}, "geometry": {"type": "Point", "coordinates": [116.394302, 39.901335]}}, {"type": "Feature", "properties": {"osm_id": 3438397171, "name": "Culture Yard", "category": "school", "poi_type": "sensitive", "tags": {"amenity": "school", "name": "Culture Yard"}}, "geometry": {"type": "Point", "coordinates": [116.4139864, 39.9386847]}}, {"type": "Feature", "properties": {"osm_id": 3481120444, "name": "北京朝阳中医医院", "category": "hospital", "poi_type": "sensitive", "tags": {"amenity": "hospital", "name": "北京朝阳中医医院", "name:en": "Beijing Chaoyang Hospital of Traditional Chinese Medicine", "name:zh": "北京朝阳中医医院"}}, "geometry": {"type": "Point", "coordinates": [116.4393324, 39.9251523]}}, {"type": "Feature", "properties": {"osm_id": 3481643330, "name": "", "category": "kindergarten", "poi_type": "sensitive", "tags": {"amenity": "kindergarten"}}, "geometry": {"type": "Point", "coordinates": [116.4406269, 39.9462164]}}, {"type": "Feature", "properties": {"osm_id": 3481659020, "name": "北京幸福天使幼儿园", "category": "kindergarten", "poi_type": "sensitive", "tags": {"amenity": "kindergarten", "name": "北京幸福天使幼儿园"}}, "geometry": {"type": "Point", "coordinates": [116.4419573, 39.9388701]}}, {"type": "Feature", "properties": {"osm_id": 3523113793, "name": "", "category": "police", "poi_type": "sensitive", "tags": {"amenity": "police"}}, "geometry": {"type": "Point", "coordinates": [116.4487712, 39.9326367]}}, {"type": "Feature", "properties": {"osm_id": 3536015341, "name": "", "category": "police", "poi_type": "sensitive", "tags": {"amenity": "police"}}, "geometry": {"type": "Point", "coordinates": [116.4482987, 39.9223458]}}, {"type": "Feature", "properties": {"osm_id": 3562733756, "name": "北京美莱医疗美容医院", "category": "clinic", "poi_type": "sensitive", "tags": {"amenity": "clinic", "name": "北京美莱医疗美容医院", "name:en": "Mylike Aesthetic Plastic Hospital Group", "name:zh": "北京美莱医疗美容医院"}}, "geometry": {"type": "Point", "coordinates": [116.4350114, 39.9231935]}}, {"type": "Feature", "properties": {"osm_id": 3580864559, "name": "", "category": "clinic", "poi_type": "sensitive", "tags": {"amenity": "clinic"}}, "geometry": {"type": "Point", "coordinates": [116.4548835, 39.9241854]}}, {"type": "Feature", "properties": {"osm_id": 3806115065, "name": "Maker Education", "category": "school", "poi_type": "sensitive", "tags": {"amenity": "school", "name": "Maker Education"}}, "geometry": {"type": "Point", "coordinates": [116.410796, 39.940439]}}, {"type": "Feature", "properties": {"osm_id": 3809859867, "name": "朝阳职业技术学校", "category": "school", "poi_type": "sensitive", "tags": {"amenity": "school", "name": "朝阳职业技术学校"}}, "geometry": {"type": "Point", "coordinates": [116.4404855, 39.8888055]}}, {"type": "Feature", "properties": {"osm_id": 3926751586, "name": "北京国医中联医院", "category": "hospital", "poi_type": "sensitive", "tags": {"amenity": "hospital", "name": "北京国医中联医院", "name:zh": "北京国医中联医院"}}, "geometry": {"type": "Point", "coordinates": [116.3380717, 39.9597427]}}, {"type": "Feature", "properties": {"osm_id": 4059513828, "name": "展览路派出所", "category": "police", "poi_type": "sensitive", "tags": {"amenity": "police", "name": "展览路派出所", "name:zh": "展览路派出所"}}, "geometry": {"type": "Point", "coordinates": [116.3388306, 39.9269521]}}, {"type": "Feature", "properties": {"osm_id": 4167796592, "name": "北京当代医院", "category": "hospital", "poi_type": "sensitive", "tags": {"amenity": "hospital", "name": "北京当代医院"}}, "geometry": {"type": "Point", "coordinates": [116.4110041, 39.9273613]}}, {"type": "Feature", "properties": {"osm_id": 4186879497, "name": "大钟寺派出所", "category": "police", "poi_type": "sensitive", "tags": {"addr:street": "皂君庙", "amenity": "police", "name": "大钟寺派出所", "name:zh": "大钟寺派出所"}}, "geometry": {"type": "Point", "coordinates": [116.3303355, 39.9593753]}}, {"type": "Feature", "properties": {"osm_id": 4217498062, "name": "校医院", "category": "hospital", "poi_type": "sensitive", "tags": {"amenity": "hospital", "name": "校医院", "name:zh": "校医院"}}, "geometry": {"type": "Point", "coordinates": [116.3407148, 39.9520625]}}, {"type": "Feature", "properties": {"osm_id": 4229660088, "name": "社区卫生服务站", "category": "clinic", "poi_type": "sensitive", "tags": {"amenity": "clinic", "name": "社区卫生服务站"}}, "geometry": {"type": "Point", "coordinates": [116.3178984, 39.9345801]}}, {"type": "Feature", "properties": {"osm_id": 4367139890, "name": "北京市东城区第二幼儿园", "category": "kindergarten", "poi_type": "sensitive", "tags": {"amenity": "kindergarten", "name": "北京市东城区第二幼儿园", "name:zh": "北京市东城区第二幼儿园"}}, "geometry": {"type": "Point", "coordinates": [116.4276728, 39.8927986]}}, {"type": "Feature", "properties": {"osm_id": 4454307290, "name": "师范大学附属中学", "category": "school", "poi_type": "sensitive", "tags": {"addr:street": "南新华街", "amenity": "school", "name": "师范大学附属中学", "name:en": "The affiliated high school of capital normal university"}}, "geometry": {"type": "Point", "coordinates": [116.378338, 39.8966418]}}, {"type": "Feature", "properties": {"osm_id": 4597955490, "name": "", "category": "police", "poi_type": "sensitive", "tags": {"amenity": "police"}}, "geometry": {"type": "Point", "coordinates": [116.4054793, 39.9440038]}}, {"type": "Feature", "properties": {"osm_id": 4782358321, "name": "铁路幼儿园", "category": "kindergarten", "poi_type": "sensitive", "tags": {"amenity": "kindergarten", "name": "铁路幼儿园", "name:zh": "铁路幼儿园"}}, "geometry": {"type": "Point", "coordinates": [116.365914, 39.9306529]}}, {"type": "Feature", "properties": {"osm_id": 4782358322, "name": "铁路幼儿园", "category": "kindergarten", "poi_type": "sensitive", "tags": {"amenity": "kindergarten", "name": "铁路幼儿园", "name:zh": "铁路幼儿园"}}, "geometry": {"type": "Point", "coordinates": [116.3659323, 39.9323462]}}, {"type": "Feature", "properties": {"osm_id": 4801328125, "name": "护国寺中医医院", "category": "hospital", "poi_type": "sensitive", "tags": {"amenity": "hospital", "name": "护国寺中医医院", "name:zh": "护国寺中医医院"}}, "geometry": {"type": "Point", "coordinates": [116.3701463, 39.9349921]}}, {"type": "Feature", "properties": {"osm_id": 4822079921, "name": "大钟寺派出所户籍大厅", "category": "police", "poi_type": "sensitive", "tags": {"addr:street": "联想桥", "amenity": "police", "name": "大钟寺派出所户籍大厅"}}, "geometry": {"type": "Point", "coordinates": [116.3258292, 39.964524]}}, {"type": "Feature", "properties": {"osm_id": 4993235925, "name": "", "category": "police", "poi_type": "sensitive", "tags": {"amenity": "police"}}, "geometry": {"type": "Point", "coordinates": [116.3890498, 39.9623769]}}, {"type": "Feature", "properties": {"osm_id": 5008851024, "name": "中医医院", "category": "hospital", "poi_type": "sensitive", "tags": {"amenity": "hospital", "name": "中医医院", "name:zh": "中医医院"}}, "geometry": {"type": "Point", "coordinates": [116.3857109, 39.9493125]}}, {"type": "Feature", "properties": {"osm_id": 5054967727, "name": "", "category": "school", "poi_type": "sensitive", "tags": {"amenity": "school"}}, "geometry": {"type": "Point", "coordinates": [116.4384512, 39.9333482]}}, {"type": "Feature", "properties": {"osm_id": 5072588521, "name": "朝阳公安分局太阳宫派出所", "category": "police", "poi_type": "sensitive", "tags": {"amenity": "police", "name": "朝阳公安分局太阳宫派出所"}}, "geometry": {"type": "Point", "coordinates": [116.4327029, 39.9704016]}}, {"type": "Feature", "properties": {"osm_id": 5100950208, "name": "校卫队", "category": "police", "poi_type": "sensitive", "tags": {"amenity": "police", "name": "校卫队", "name:zh": "校卫队"}}, "geometry": {"type": "Point", "coordinates": [116.3132872, 39.9684397]}}, {"type": "Feature", "properties": {"osm_id": 5136949081, "name": "天文学系", "category": "college", "poi_type": "sensitive", "tags": {"amenity": "college", "name": "天文学系", "name:zh": "天文学系"}}, "geometry": {"type": "Point", "coordinates": [116.3610494, 39.9578886]}}, {"type": "Feature", "properties": {"osm_id": 5136949082, "name": "物理学系", "category": "college", "poi_type": "sensitive", "tags": {"amenity": "college", "name": "物理学系", "name:zh": "物理学系"}}, "geometry": {"type": "Point", "coordinates": [116.3612714, 39.9578813]}}, {"type": "Feature", "properties": {"osm_id": 5450195821, "name": "安定门派出所", "category": "police", "poi_type": "sensitive", "tags": {"addr:street": "豆腐池胡同", "amenity": "police", "name": "安定门派出所"}}, "geometry": {"type": "Point", "coordinates": [116.3921687, 39.9425966]}}, {"type": "Feature", "properties": {"osm_id": 5886007061, "name": "北京安定门中医医院", "category": "hospital", "poi_type": "sensitive", "tags": {"amenity": "hospital", "name": "北京安定门中医医院"}}, "geometry": {"type": "Point", "coordinates": [116.4016688, 39.9460865]}}, {"type": "Feature", "properties": {"osm_id": 6158907886, "name": "CCTV", "category": "school", "poi_type": "sensitive", "tags": {"amenity": "school", "name": "CCTV", "name:en": "CCTV"}}, "geometry": {"type": "Point", "coordinates": [116.3088952, 39.9192102]}}, {"type": "Feature", "properties": {"osm_id": 6410462419, "name": "灯市口小学礼市校区", "category": "school", "poi_type": "sensitive", "tags": {"amenity": "school", "name": "灯市口小学礼市校区"}}, "geometry": {"type": "Point", "coordinates": [116.416219, 39.9207134]}}, {"type": "Feature", "properties": {"osm_id": 6497067678, "name": "", "category": "police", "poi_type": "sensitive", "tags": {"amenity": "police"}}, "geometry": {"type": "Point", "coordinates": [116.301952, 39.9641726]}}, {"type": "Feature", "properties": {"osm_id": 6677761686, "name": "Beijinger Kitchen", "category": "school", "poi_type": "sensitive", "tags": {"addr:street": "Fangjia Hutong", "amenity": "school", "name": "Beijinger Kitchen"}}, "geometry": {"type": "Point", "coordinates": [116.4092692, 39.9428246]}}, {"type": "Feature", "properties": {"osm_id": 6813468269, "name": "", "category": "police", "poi_type": "sensitive", "tags": {"amenity": "police"}}, "geometry": {"type": "Point", "coordinates": [116.384587, 39.9221001]}}, {"type": "Feature", "properties": {"osm_id": 7159617213, "name": "社区医院", "category": "hospital", "poi_type": "sensitive", "tags": {"addr:street": "车公庄西路", "amenity": "hospital", "name": "社区医院", "name:en": "Community Hospital", "name:zh": "社区医院"}}, "geometry": {"type": "Point", "coordinates": [116.305232, 39.9316362]}}, {"type": "Feature", "properties": {"osm_id": 7986950659, "name": "会展中心", "category": "university", "poi_type": "sensitive", "tags": {"amenity": "university", "name": "会展中心", "name:en": "Auditorium"}}, "geometry": {"type": "Point", "coordinates": [116.4698868, 39.9135975]}}, {"type": "Feature", "properties": {"osm_id": 7986950660, "name": "商务学院", "category": "college", "poi_type": "sensitive", "tags": {"amenity": "college", "name": "商务学院"}}, "geometry": {"type": "Point", "coordinates": [116.4686242, 39.9125384]}}, {"type": "Feature", "properties": {"osm_id": 7986993163, "name": "培训中心", "category": "school", "poi_type": "sensitive", "tags": {"amenity": "school", "name": "培训中心", "name:en": "Training Center"}}, "geometry": {"type": "Point", "coordinates": [116.4681397, 39.9137651]}}, {"type": "Feature", "properties": {"osm_id": 8009445001, "name": "MBA教育中心", "category": "university", "poi_type": "sensitive", "tags": {"amenity": "university", "name": "MBA教育中心"}}, "geometry": {"type": "Point", "coordinates": [116.4687549, 39.9125656]}}, {"type": "Feature", "properties": {"osm_id": 8009445002, "name": "继续教育学院", "category": "university", "poi_type": "sensitive", "tags": {"amenity": "university", "name": "继续教育学院"}}, "geometry": {"type": "Point", "coordinates": [116.4684787, 39.912594]}}, {"type": "Feature", "properties": {"osm_id": 8018444448, "name": "", "category": "police", "poi_type": "sensitive", "tags": {"amenity": "police"}}, "geometry": {"type": "Point", "coordinates": [116.3660819, 39.9476099]}}, {"type": "Feature", "properties": {"osm_id": 8046266185, "name": "Yao Chengrong Yiquan school", "category": "school", "poi_type": "sensitive", "tags": {"amenity": "school", "name": "Yao Chengrong Yiquan school"}}, "geometry": {"type": "Point", "coordinates": [116.3740013, 39.9403589]}}, {"type": "Feature", "properties": {"osm_id": 8443403876, "name": "北京华文学院;国务院侨务办公室侨务干部学校", "category": "school", "poi_type": "sensitive", "tags": {"amenity": "school", "name": "北京华文学院;国务院侨务办公室侨务干部学校", "name:zh": "北京华文学院;国务院侨务办公室侨务干部学校"}}, "geometry": {"type": "Point", "coordinates": [116.3328071, 39.9228073]}}, {"type": "Feature", "properties": {"osm_id": 8597854515, "name": "枫花园卡丁车俱乐部", "category": "driving_school", "poi_type": "sensitive", "tags": {"amenity": "driving_school", "name": "枫花园卡丁车俱乐部"}}, "geometry": {"type": "Point", "coordinates": [116.4744172, 39.9564004]}}, {"type": "Feature", "properties": {"osm_id": 8830492451, "name": "京朋会名老中医堂", "category": "clinic", "poi_type": "sensitive", "tags": {"amenity": "clinic", "name": "京朋会名老中医堂"}}, "geometry": {"type": "Point", "coordinates": [116.3197396, 39.9423558]}}, {"type": "Feature", "properties": {"osm_id": 8936103222, "name": "魔奇英语", "category": "language_school", "poi_type": "sensitive", "tags": {"amenity": "language_school", "name": "魔奇英语"}}, "geometry": {"type": "Point", "coordinates": [116.3274488, 39.9684665]}}, {"type": "Feature", "properties": {"osm_id": 8946261807, "name": "明天南区幼儿园", "category": "kindergarten", "poi_type": "sensitive", "tags": {"amenity": "kindergarten", "name": "明天南区幼儿园"}}, "geometry": {"type": "Point", "coordinates": [116.3231878, 39.9648088]}}, {"type": "Feature", "properties": {"osm_id": 9297702118, "name": "三里屯社区卫生服务中心", "category": "clinic", "poi_type": "sensitive", "tags": {"amenity": "clinic", "name": "三里屯社区卫生服务中心", "name:en": "Chaoyang Area Health Clinic"}}, "geometry": {"type": "Point", "coordinates": [116.4471871, 39.9351035]}}, {"type": "Feature", "properties": {"osm_id": 9534953513, "name": "北京市东城区东棉花幼儿园", "category": "kindergarten", "poi_type": "sensitive", "tags": {"amenity": "kindergarten", "name": "北京市东城区东棉花幼儿园"}}, "geometry": {"type": "Point", "coordinates": [116.4006628, 39.9341842]}}, {"type": "Feature", "properties": {"osm_id": 9694992499, "name": "北京市公安局行政复议办公室", "category": "police", "poi_type": "sensitive", "tags": {"amenity": "police", "name": "北京市公安局行政复议办公室"}}, "geometry": {"type": "Point", "coordinates": [116.4015769, 39.9209943]}}, {"type": "Feature", "properties": {"osm_id": 9710916185, "name": "", "category": "police", "poi_type": "sensitive", "tags": {"amenity": "police"}}, "geometry": {"type": "Point", "coordinates": [116.290025, 39.9727343]}}, {"type": "Feature", "properties": {"osm_id": 9810487694, "name": "北京市公安局公安交通管理局东城交警支队东单大队", "category": "police", "poi_type": "sensitive", "tags": {"addr:street": "史家胡同", "amenity": "police", "name": "北京市公安局公安交通管理局东城交警支队东单大队"}}, "geometry": {"type": "Point", "coordinates": [116.4185314, 39.9171211]}}, {"type": "Feature", "properties": {"osm_id": 9829835422, "name": "赛德阳光口腔", "category": "hospital", "poi_type": "sensitive", "tags": {"amenity": "hospital", "name": "赛德阳光口腔"}}, "geometry": {"type": "Point", "coordinates": [116.3034569, 39.9622196]}}, {"type": "Feature", "properties": {"osm_id": 9829835423, "name": "美天", "category": "hospital", "poi_type": "sensitive", "tags": {"amenity": "hospital", "name": "美天", "name:en": "Metime"}}, "geometry": {"type": "Point", "coordinates": [116.3032575, 39.9622133]}}, {"type": "Feature", "properties": {"osm_id": 9867002137, "name": "稻香园社区卫生服务站", "category": "clinic", "poi_type": "sensitive", "tags": {"amenity": "clinic", "name": "稻香园社区卫生服务站", "name:zh": "稻香园社区卫生服务站"}}, "geometry": {"type": "Point", "coordinates": [116.2957036, 39.9750914]}}, {"type": "Feature", "properties": {"osm_id": 9920966181, "name": "北京市公安局公安交通管理局丰台交通支队西站大队", "category": "police", "poi_type": "sensitive", "tags": {"amenity": "police", "name": "北京市公安局公安交通管理局丰台交通支队西站大队"}}, "geometry": {"type": "Point", "coordinates": [116.3224455, 39.8931778]}}, {"type": "Feature", "properties": {"osm_id": 9920966186, "name": "北京市公安局铁路工程公安局", "category": "police", "poi_type": "sensitive", "tags": {"amenity": "police", "name": "北京市公安局铁路工程公安局"}}, "geometry": {"type": "Point", "coordinates": [116.3145163, 39.8894645]}}, {"type": "Feature", "properties": {"osm_id": 9920966189, "name": "北京市公安局丰台分局六里桥派出所", "category": "police", "poi_type": "sensitive", "tags": {"amenity": "police", "name": "北京市公安局丰台分局六里桥派出所"}}, "geometry": {"type": "Point", "coordinates": [116.3077799, 39.8715275]}}, {"type": "Feature", "properties": {"osm_id": 9920966190, "name": "北京市公安局丰台分局太平桥派出所", "category": "police", "poi_type": "sensitive", "tags": {"amenity": "police", "name": "北京市公安局丰台分局太平桥派出所"}}, "geometry": {"type": "Point", "coordinates": [116.3141706, 39.8826972]}}, {"type": "Feature", "properties": {"osm_id": 10127208276, "name": "首都医科大学附属复兴医院", "category": "hospital", "poi_type": "sensitive", "tags": {"amenity": "hospital", "name": "首都医科大学附属复兴医院", "name:en": "Fu Xing Hospital, Capital Medical University", "name:zh": "首都医科大学附属复兴医院"}}, "geometry": {"type": "Point", "coordinates": [116.333966, 39.9038297]}}, {"type": "Feature", "properties": {"osm_id": 10224727202, "name": "美年大健康", "category": "hospital", "poi_type": "sensitive", "tags": {"amenity": "hospital", "name": "美年大健康"}}, "geometry": {"type": "Point", "coordinates": [116.369327, 39.893657]}}, {"type": "Feature", "properties": {"osm_id": 10862402779, "name": "蓟门里社区卫生服务中心", "category": "hospital", "poi_type": "sensitive", "tags": {"amenity": "hospital", "name": "蓟门里社区卫生服务中心"}}, "geometry": {"type": "Point", "coordinates": [116.3444477, 39.9688822]}}, {"type": "Feature", "properties": {"osm_id": 10877255253, "name": "北京市公安局海淀分局双榆树派出所巡逻警务站", "category": "police", "poi_type": "sensitive", "tags": {"amenity": "police", "name": "北京市公安局海淀分局双榆树派出所巡逻警务站"}}, "geometry": {"type": "Point", "coordinates": [116.3157749, 39.9661074]}}, {"type": "Feature", "properties": {"osm_id": 11253010713, "name": "北京市公安局朝阳分局 和平街派出所 巡逻警务站", "category": "police", "poi_type": "sensitive", "tags": {"amenity": "police", "name": "北京市公安局朝阳分局 和平街派出所 巡逻警务站"}}, "geometry": {"type": "Point", "coordinates": [116.41833, 39.96761]}}, {"type": "Feature", "properties": {"osm_id": 11297747572, "name": "中日友好医院国际部", "category": "hospital", "poi_type": "sensitive", "tags": {"amenity": "hospital", "name": "中日友好医院国际部"}}, "geometry": {"type": "Point", "coordinates": [116.4221006, 39.9715395]}}, {"type": "Feature", "properties": {"osm_id": 11696509169, "name": "", "category": "police", "poi_type": "sensitive", "tags": {"addr:street": "北京站东街", "amenity": "police", "name:en": "Patrol Police Station"}}, "geometry": {"type": "Point", "coordinates": [116.4217887, 39.9038478]}}, {"type": "Feature", "properties": {"osm_id": 11699336069, "name": "交通警察", "category": "police", "poi_type": "sensitive", "tags": {"addr:street": "东四六条", "amenity": "police", "name": "交通警察", "name:en": "Traffic Police"}}, "geometry": {"type": "Point", "coordinates": [116.4176313, 39.9288803]}}, {"type": "Feature", "properties": {"osm_id": 11886110334, "name": "北京第一实验小学", "category": "school", "poi_type": "sensitive", "tags": {"amenity": "school", "name": "北京第一实验小学"}}, "geometry": {"type": "Point", "coordinates": [116.3780061, 39.8953401]}}, {"type": "Feature", "properties": {"osm_id": 12201907272, "name": "北京劲松职业高中（劲松校区）", "category": "school", "poi_type": "sensitive", "tags": {"amenity": "school", "name": "北京劲松职业高中（劲松校区）"}}, "geometry": {"type": "Point", "coordinates": [116.4440687, 39.8821379]}}, {"type": "Feature", "properties": {"osm_id": 12219124651, "name": "自新路警务工作站", "category": "police", "poi_type": "sensitive", "tags": {"amenity": "police", "name": "自新路警务工作站"}}, "geometry": {"type": "Point", "coordinates": [116.3643929, 39.8746605]}}, {"type": "Feature", "properties": {"osm_id": 12219189181, "name": "白纸坊口腔", "category": "clinic", "poi_type": "sensitive", "tags": {"amenity": "clinic", "name": "白纸坊口腔"}}, "geometry": {"type": "Point", "coordinates": [116.3583658, 39.8716421]}}, {"type": "Feature", "properties": {"osm_id": 12264344140, "name": "牛街派出所白广路社区警务工作室", "category": "police", "poi_type": "sensitive", "tags": {"amenity": "police", "name": "牛街派出所白广路社区警务工作室"}}, "geometry": {"type": "Point", "coordinates": [116.3499961, 39.8839492]}}, {"type": "Feature", "properties": {"osm_id": 12350722757, "name": "双榆树派出所", "category": "police", "poi_type": "sensitive", "tags": {"amenity": "police", "name": "双榆树派出所"}}, "geometry": {"type": "Point", "coordinates": [116.3265655, 39.9705591]}}, {"type": "Feature", "properties": {"osm_id": 12565368676, "name": "天易中医", "category": "clinic", "poi_type": "sensitive", "tags": {"amenity": "clinic", "name": "天易中医"}}, "geometry": {"type": "Point", "coordinates": [116.4048078, 39.8871384]}}, {"type": "Feature", "properties": {"osm_id": 12588108061, "name": "八一电影制片厂幼儿园", "category": "kindergarten", "poi_type": "sensitive", "tags": {"amenity": "kindergarten", "name": "八一电影制片厂幼儿园"}}, "geometry": {"type": "Point", "coordinates": [116.2980222, 39.8871294]}}, {"type": "Feature", "properties": {"osm_id": 12740905601, "name": "", "category": "clinic", "poi_type": "sensitive", "tags": {"amenity": "clinic"}}, "geometry": {"type": "Point", "coordinates": [116.3752918, 39.8941024]}}, {"type": "Feature", "properties": {"osm_id": 12747381156, "name": "国际汉语培训中心", "category": "prep_school", "poi_type": "sensitive", "tags": {"amenity": "prep_school", "name": "国际汉语培训中心"}}, "geometry": {"type": "Point", "coordinates": [116.3526384, 39.961689]}}, {"type": "Feature", "properties": {"osm_id": 12754376689, "name": "计算机学院实验中心", "category": "prep_school", "poi_type": "sensitive", "tags": {"amenity": "prep_school", "name": "计算机学院实验中心"}}, "geometry": {"type": "Point", "coordinates": [116.3498381, 39.9627017]}}, {"type": "Feature", "properties": {"osm_id": 12775572156, "name": "", "category": "hospital", "poi_type": "sensitive", "tags": {"amenity": "hospital"}}, "geometry": {"type": "Point", "coordinates": [116.3755061, 39.92173]}}, {"type": "Feature", "properties": {"osm_id": 12777302351, "name": "中国人民解放军第三〇五医院", "category": "hospital", "poi_type": "sensitive", "tags": {"amenity": "hospital", "name": "中国人民解放军第三〇五医院"}}, "geometry": {"type": "Point", "coordinates": [116.3785212, 39.924074]}}, {"type": "Feature", "properties": {"osm_id": 12837264136, "name": "大方家社区卫生服务站", "category": "clinic", "poi_type": "sensitive", "tags": {"amenity": "clinic", "name": "大方家社区卫生服务站"}}, "geometry": {"type": "Point", "coordinates": [116.4267921, 39.9176672]}}, {"type": "Feature", "properties": {"osm_id": 12865883372, "name": "人工智能学院", "category": "college", "poi_type": "sensitive", "tags": {"amenity": "college", "name": "人工智能学院"}}, "geometry": {"type": "Point", "coordinates": [116.3614957, 39.9600594]}}, {"type": "Feature", "properties": {"osm_id": 12871059062, "name": "椿树派出所", "category": "police", "poi_type": "sensitive", "tags": {"amenity": "police", "name": "椿树派出所"}}, "geometry": {"type": "Point", "coordinates": [116.3708017, 39.8910127]}}, {"type": "Feature", "properties": {"osm_id": 13086220801, "name": "西城区志成小学(北址)", "category": "school", "poi_type": "sensitive", "tags": {"amenity": "school", "name": "西城区志成小学(北址)"}}, "geometry": {"type": "Point", "coordinates": [116.363767, 39.941194]}}, {"type": "Feature", "properties": {"osm_id": 13091759901, "name": "北京市西城区曙光幼儿园", "category": "kindergarten", "poi_type": "sensitive", "tags": {"amenity": "kindergarten", "name": "北京市西城区曙光幼儿园"}}, "geometry": {"type": "Point", "coordinates": [116.3574133, 39.9356142]}}, {"type": "Feature", "properties": {"osm_id": 13091760001, "name": "北京市西城经济科学大学", "category": "school", "poi_type": "sensitive", "tags": {"amenity": "school", "name": "北京市西城经济科学大学"}}, "geometry": {"type": "Point", "coordinates": [116.3577055, 39.9361609]}}, {"type": "Feature", "properties": {"osm_id": 13091760101, "name": "北京市西城区经济科学大学", "category": "school", "poi_type": "sensitive", "tags": {"amenity": "school", "name": "北京市西城区经济科学大学"}}, "geometry": {"type": "Point", "coordinates": [116.3582765, 39.9374981]}}, {"type": "Feature", "properties": {"osm_id": 13091760201, "name": "新街口派出所", "category": "police", "poi_type": "sensitive", "tags": {"amenity": "police", "name": "新街口派出所"}}, "geometry": {"type": "Point", "coordinates": [116.3584811, 39.9370741]}}, {"type": "Feature", "properties": {"osm_id": 13091772501, "name": "北京西城区平安医院", "category": "hospital", "poi_type": "sensitive", "tags": {"addr:street": "赵登禹路", "amenity": "hospital", "name": "北京西城区平安医院"}}, "geometry": {"type": "Point", "coordinates": [116.3616603, 39.9332339]}}, {"type": "Feature", "properties": {"osm_id": 13091778501, "name": "前门派出所", "category": "police", "poi_type": "sensitive", "tags": {"amenity": "police", "name": "前门派出所"}}, "geometry": {"type": "Point", "coordinates": [116.4025989, 39.8981657]}}, {"type": "Feature", "properties": {"osm_id": 13091778601, "name": "同仁堂中医医院", "category": "hospital", "poi_type": "sensitive", "tags": {"amenity": "hospital", "name": "同仁堂中医医院"}}, "geometry": {"type": "Point", "coordinates": [116.4033609, 39.8976373]}}, {"type": "Feature", "properties": {"osm_id": 13094881806, "name": "中国政法大学研究生院", "category": "college", "poi_type": "sensitive", "tags": {"amenity": "college", "name": "中国政法大学研究生院"}}, "geometry": {"type": "Point", "coordinates": [116.3434319, 39.9653813]}}, {"type": "Feature", "properties": {"osm_id": 13094881807, "name": "中国政法大学博士后流动站", "category": "college", "poi_type": "sensitive", "tags": {"amenity": "college", "name": "中国政法大学博士后流动站"}}, "geometry": {"type": "Point", "coordinates": [116.3435376, 39.9653824]}}, {"type": "Feature", "properties": {"osm_id": 13094881808, "name": "司法考试学院", "category": "college", "poi_type": "sensitive", "tags": {"amenity": "college", "name": "司法考试学院"}}, "geometry": {"type": "Point", "coordinates": [116.3435638, 39.9650595]}}, {"type": "Feature", "properties": {"osm_id": 13094881833, "name": "网络教育学院", "category": "college", "poi_type": "sensitive", "tags": {"amenity": "college", "name": "网络教育学院"}}, "geometry": {"type": "Point", "coordinates": [116.3436182, 39.9650727]}}, {"type": "Feature", "properties": {"osm_id": 13094881858, "name": "社会学院", "category": "college", "poi_type": "sensitive", "tags": {"amenity": "college", "name": "社会学院"}}, "geometry": {"type": "Point", "coordinates": [116.3447745, 39.9644787]}}, {"type": "Feature", "properties": {"osm_id": 13296153106, "name": "海淀驾校（人大报名中心）", "category": "driving_school", "poi_type": "sensitive", "tags": {"amenity": "driving_school", "name": "海淀驾校（人大报名中心）"}}, "geometry": {"type": "Point", "coordinates": [116.3066082, 39.9711018]}}, {"type": "Feature", "properties": {"osm_id": 13386714927, "name": "", "category": "dancing_school", "poi_type": "sensitive", "tags": {"amenity": "dancing_school"}}, "geometry": {"type": "Point", "coordinates": [116.3288905, 39.9270046]}}, {"type": "Feature", "properties": {"osm_id": 13386714928, "name": "", "category": "dancing_school", "poi_type": "sensitive", "tags": {"amenity": "dancing_school"}}, "geometry": {"type": "Point", "coordinates": [116.3289565, 39.9270064]}}, {"type": "Feature", "properties": {"osm_id": 13442628901, "name": "Beijing United Family Hospital of Integrative Medicine", "category": "hospital", "poi_type": "sensitive", "tags": {"amenity": "hospital", "name": "Beijing United Family Hospital of Integrative Medicine"}}, "geometry": {"type": "Point", "coordinates": [116.4170976, 39.9103087]}}, {"type": "Feature", "properties": {"osm_id": 26812097, "name": "海淀医院", "category": "hospital", "poi_type": "sensitive", "tags": {"amenity": "hospital", "name": "海淀医院", "name:en": "Beijing Haidian Hospital"}}, "geometry": {"type": "Point", "coordinates": [116.3091749, 39.9757005]}}, {"type": "Feature", "properties": {"osm_id": 30725330, "name": "中国人民大学", "category": "university", "poi_type": "sensitive", "tags": {"addr:street": "中关村大街", "amenity": "university", "name": "中国人民大学", "name:en": "Renmin University of China", "name:zh": "中国人民大学"}}, "geometry": {"type": "Point", "coordinates": [116.3073883, 39.9692704]}}, {"type": "Feature", "properties": {"osm_id": 30748230, "name": "北京理工大学", "category": "university", "poi_type": "sensitive", "tags": {"addr:street": "中关村南大街", "amenity": "university", "name": "北京理工大学", "name:en": "Beijing Institute of Technology (BIT)"}}, "geometry": {"type": "Point", "coordinates": [116.3097403, 39.957859]}}, {"type": "Feature", "properties": {"osm_id": 30784020, "name": "北京师范大学", "category": "university", "poi_type": "sensitive", "tags": {"addr:street": "新街口外大街", "amenity": "university", "name": "北京师范大学", "name:en": "Beijing Normal University (BNU)", "name:zh": "北京师范大学"}}, "geometry": {"type": "Point", "coordinates": [116.3597548, 39.9603271]}}, {"type": "Feature", "properties": {"osm_id": 33617299, "name": "北京工业大学", "category": "university", "poi_type": "sensitive", "tags": {"amenity": "university", "name": "北京工业大学", "name:en": "Beijing University of Technology", "name:zh": "北京工业大学"}}, "geometry": {"type": "Point", "coordinates": [116.4772154, 39.8741692]}}, {"type": "Feature", "properties": {"osm_id": 41705633, "name": "北京交通大学附属中学（北校区）", "category": "school", "poi_type": "sensitive", "tags": {"amenity": "school", "name": "北京交通大学附属中学（北校区）", "name:en": "The High School Affiliated to Beijing Jiaotong University", "name:zh": "北京交通大学附属中学（北校区）"}}, "geometry": {"type": "Point", "coordinates": [116.3298322, 39.9614548]}}, {"type": "Feature", "properties": {"osm_id": 115842846, "name": "海淀区万泉小学（曙光分校）", "category": "school", "poi_type": "sensitive", "tags": {"amenity": "school", "name": "海淀区万泉小学（曙光分校）"}}, "geometry": {"type": "Point", "coordinates": [116.2849338, 39.9447753]}}, {"type": "Feature", "properties": {"osm_id": 128009709, "name": "北京市公安局公共交通管理局", "category": "police", "poi_type": "sensitive", "tags": {"addr:street": "阜成门北大街", "amenity": "police", "building": "yes", "name": "北京市公安局公共交通管理局"}}, "geometry": {"type": "Point", "coordinates": [116.3487513, 39.9298731]}}, {"type": "Feature", "properties": {"osm_id": 129194066, "name": "东直门医院", "category": "hospital", "poi_type": "sensitive", "tags": {"amenity": "hospital", "name": "东直门医院", "name:en": "Dongzhimen Hospital"}}, "geometry": {"type": "Point", "coordinates": [116.4208954, 39.9359942]}}, {"type": "Feature", "properties": {"osm_id": 134699931, "name": "北京市第六十五中学", "category": "school", "poi_type": "sensitive", "tags": {"amenity": "school", "name": "北京市第六十五中学", "name:zh": "北京市第六十五中学"}}, "geometry": {"type": "Point", "coordinates": [116.3993933, 39.9196765]}}, {"type": "Feature", "properties": {"osm_id": 161802227, "name": "北京市公安局公安交通管理局西城交通支队樱桃园大队", "category": "police", "poi_type": "sensitive", "tags": {"amenity": "police", "building": "yes", "name": "北京市公安局公安交通管理局西城交通支队樱桃园大队"}}, "geometry": {"type": "Point", "coordinates": [116.3571371, 39.8789503]}}, {"type": "Feature", "properties": {"osm_id": 161802229, "name": "北京市回民医院", "category": "hospital", "poi_type": "sensitive", "tags": {"amenity": "hospital", "name": "北京市回民医院", "name:zh": "北京市回民医院"}}, "geometry": {"type": "Point", "coordinates": [116.3564185, 39.8806625]}}, {"type": "Feature", "properties": {"osm_id": 161811131, "name": "北京急救中心", "category": "hospital", "poi_type": "sensitive", "tags": {"amenity": "hospital", "building": "yes", "name": "北京急救中心", "name:en": "Beijing Emergency Medical Center"}}, "geometry": {"type": "Point", "coordinates": [116.3755019, 39.8992913]}}, {"type": "Feature", "properties": {"osm_id": 161948988, "name": "美中宜和门诊部", "category": "hospital", "poi_type": "sensitive", "tags": {"amenity": "hospital", "name": "美中宜和门诊部"}}, "geometry": {"type": "Point", "coordinates": [116.4720149, 39.9702852]}}, {"type": "Feature", "properties": {"osm_id": 161949124, "name": "北京美中宜和妇儿医院丽都院区", "category": "hospital", "poi_type": "sensitive", "tags": {"amenity": "hospital", "name": "北京美中宜和妇儿医院丽都院区"}}, "geometry": {"type": "Point", "coordinates": [116.4746783, 39.9713381]}}, {"type": "Feature", "properties": {"osm_id": 162380529, "name": "北京师范大学继续教育与教师培训学院", "category": "college", "poi_type": "sensitive", "tags": {"addr:street": "定阜街", "amenity": "college", "name": "北京师范大学继续教育与教师培训学院"}}, "geometry": {"type": "Point", "coordinates": [116.3778197, 39.9350433]}}, {"type": "Feature", "properties": {"osm_id": 162973927, "name": "厂桥医院", "category": "hospital", "poi_type": "sensitive", "tags": {"addr:street": "太平仓胡同", "amenity": "hospital", "building": "yes", "name": "厂桥医院"}}, "geometry": {"type": "Point", "coordinates": [116.3689273, 39.9299765]}}, {"type": "Feature", "properties": {"osm_id": 164612771, "name": "北京市公安局海淀分局", "category": "police", "poi_type": "sensitive", "tags": {"addr:street": "长春桥路", "amenity": "police", "name": "北京市公安局海淀分局"}}, "geometry": {"type": "Point", "coordinates": [116.2942434, 39.9589551]}}, {"type": "Feature", "properties": {"osm_id": 175226651, "name": "北海医院", "category": "hospital", "poi_type": "sensitive", "tags": {"amenity": "hospital", "building": "yes", "name": "北海医院"}}, "geometry": {"type": "Point", "coordinates": [116.3906681, 39.9335006]}}, {"type": "Feature", "properties": {"osm_id": 187287773, "name": "北京市东城区北池子小学", "category": "school", "poi_type": "sensitive", "tags": {"amenity": "school", "name": "北京市东城区北池子小学", "name:zh": "北京市东城区北池子小学"}}, "geometry": {"type": "Point", "coordinates": [116.3970691, 39.9179227]}}, {"type": "Feature", "properties": {"osm_id": 189633244, "name": "北京市八一学校", "category": "school", "poi_type": "sensitive", "tags": {"addr:street": "苏州街", "amenity": "school", "name": "北京市八一学校"}}, "geometry": {"type": "Point", "coordinates": [116.2978922, 39.9767387]}}, {"type": "Feature", "properties": {"osm_id": 190427034, "name": "北航校医院", "category": "hospital", "poi_type": "sensitive", "tags": {"amenity": "hospital", "building": "yes", "name": "北航校医院", "name:en": "Beihang Hospital"}}, "geometry": {"type": "Point", "coordinates": [116.3375317, 39.97924]}}, {"type": "Feature", "properties": {"osm_id": 199996611, "name": "北京汇文中学", "category": "school", "poi_type": "sensitive", "tags": {"amenity": "school", "name": "北京汇文中学"}}, "geometry": {"type": "Point", "coordinates": [116.4271879, 39.8903811]}}, {"type": "Feature", "properties": {"osm_id": 200571720, "name": "北京市广渠门中学", "category": "school", "poi_type": "sensitive", "tags": {"amenity": "school", "name": "北京市广渠门中学"}}, "geometry": {"type": "Point", "coordinates": [116.4322282, 39.8950114]}}, {"type": "Feature", "properties": {"osm_id": 200900236, "name": "东城区培新小学", "category": "school", "poi_type": "sensitive", "tags": {"amenity": "school", "name": "东城区培新小学"}}, "geometry": {"type": "Point", "coordinates": [116.4261625, 39.8876112]}}, {"type": "Feature", "properties": {"osm_id": 200900237, "name": "北京市崇文小学", "category": "school", "poi_type": "sensitive", "tags": {"amenity": "school", "name": "北京市崇文小学"}}, "geometry": {"type": "Point", "coordinates": [116.4227056, 39.8940228]}}, {"type": "Feature", "properties": {"osm_id": 200900238, "name": "北京市崇文小学（新景校区）", "category": "school", "poi_type": "sensitive", "tags": {"amenity": "school", "name": "北京市崇文小学（新景校区）", "name:zh": "新景小学"}}, "geometry": {"type": "Point", "coordinates": [116.4168636, 39.893152]}}, {"type": "Feature", "properties": {"osm_id": 226054618, "name": "北京工业大学继续教育学院", "category": "university", "poi_type": "sensitive", "tags": {"amenity": "university", "name": "北京工业大学继续教育学院", "name:en": "CIBT School of Business China, Beijing University of Technology"}}, "geometry": {"type": "Point", "coordinates": [116.3075372, 39.9329787]}}, {"type": "Feature", "properties": {"osm_id": 228044926, "name": "北京朝阳芳草地国际学校双花园校区", "category": "school", "poi_type": "sensitive", "tags": {"amenity": "school", "name": "北京朝阳芳草地国际学校双花园校区"}}, "geometry": {"type": "Point", "coordinates": [116.4464837, 39.896889]}}, {"type": "Feature", "properties": {"osm_id": 232729787, "name": "西黃寺（中国藏语系高级佛学院）", "category": "college", "poi_type": "sensitive", "tags": {"amenity": "college", "name": "西黃寺（中国藏语系高级佛学院）", "name:zh": "西黃寺（中国藏语系高级佛学院）"}}, "geometry": {"type": "Point", "coordinates": [116.3841683, 39.9633675]}}, {"type": "Feature", "properties": {"osm_id": 233513047, "name": "Etonkids", "category": "kindergarten", "poi_type": "sensitive", "tags": {"amenity": "kindergarten", "building": "yes", "name": "Etonkids"}}, "geometry": {"type": "Point", "coordinates": [116.4480315, 39.9155653]}}, {"type": "Feature", "properties": {"osm_id": 234196279, "name": "北京市第八十中学枣营分校（小学部）", "category": "school", "poi_type": "sensitive", "tags": {"amenity": "school", "name": "北京市第八十中学枣营分校（小学部）", "name:zh": "枣营小学"}}, "geometry": {"type": "Point", "coordinates": [116.4656518, 39.94546]}}, {"type": "Feature", "properties": {"osm_id": 234196281, "name": "北京市第八十中学枣营分校（初中部）", "category": "school", "poi_type": "sensitive", "tags": {"amenity": "school", "name": "北京市第八十中学枣营分校（初中部）", "name:zh": "枣营中学"}}, "geometry": {"type": "Point", "coordinates": [116.4673561, 39.9434811]}}, {"type": "Feature", "properties": {"osm_id": 234197366, "name": "麦子店派出所", "category": "police", "poi_type": "sensitive", "tags": {"amenity": "police", "name": "麦子店派出所"}}, "geometry": {"type": "Point", "coordinates": [116.4670599, 39.9460289]}}, {"type": "Feature", "properties": {"osm_id": 234199655, "name": "团结湖小学丽水嘉园校区", "category": "school", "poi_type": "sensitive", "tags": {"amenity": "school", "name": "团结湖小学丽水嘉园校区"}}, "geometry": {"type": "Point", "coordinates": [116.4765626, 39.9306219]}}, {"type": "Feature", "properties": {"osm_id": 234199659, "name": "北京市东方德才学校初中部", "category": "school", "poi_type": "sensitive", "tags": {"amenity": "school", "name": "北京市东方德才学校初中部"}}, "geometry": {"type": "Point", "coordinates": [116.4708019, 39.9282964]}}, {"type": "Feature", "properties": {"osm_id": 234221914, "name": "北京加拿大国际学校", "category": "school", "poi_type": "sensitive", "tags": {"amenity": "school", "name": "北京加拿大国际学校", "name:en": "Canadian International School of Beijing", "name:zh": "北京加拿大国际学校"}}, "geometry": {"type": "Point", "coordinates": [116.4689581, 39.951426]}}, {"type": "Feature", "properties": {"osm_id": 234239793, "name": "北京德国使馆学校", "category": "school", "poi_type": "sensitive", "tags": {"amenity": "school", "building": "school", "name": "北京德国使馆学校", "name:en": "German Embassy School of Beijing", "name:zh": "北京德国使馆学校"}}, "geometry": {"type": "Point", "coordinates": [116.4610478, 39.950162]}}, {"type": "Feature", "properties": {"osm_id": 235270897, "name": "北京前海股骨头医院", "category": "hospital", "poi_type": "sensitive", "tags": {"amenity": "hospital", "building": "yes", "name": "北京前海股骨头医院"}}, "geometry": {"type": "Point", "coordinates": [116.3789304, 39.9314341]}}, {"type": "Feature", "properties": {"osm_id": 236077929, "name": "北京三里屯英国学校", "category": "school", "poi_type": "sensitive", "tags": {"addr:street": "Sanlitun Road", "amenity": "school", "name": "北京三里屯英国学校", "name:en": "The British School of Beijing, Sanlitun", "name:zh": "北京三里屯英国学校"}}, "geometry": {"type": "Point", "coordinates": [116.4481034, 39.9433315]}}, {"type": "Feature", "properties": {"osm_id": 239150507, "name": "北京教育学院附属中学", "category": "school", "poi_type": "sensitive", "tags": {"amenity": "school", "name": "北京教育学院附属中学", "name:en": "BIE High School"}}, "geometry": {"type": "Point", "coordinates": [116.3620748, 39.9421826]}}, {"type": "Feature", "properties": {"osm_id": 239150547, "name": "北京启喑实验学校", "category": "school", "poi_type": "sensitive", "tags": {"amenity": "school", "name": "北京启喑实验学校"}}, "geometry": {"type": "Point", "coordinates": [116.3627829, 39.9435012]}}, {"type": "Feature", "properties": {"osm_id": 239880929, "name": "中国人民大学附属中学朝阳学校（和平西桥教学区）", "category": "school", "poi_type": "sensitive", "tags": {"addr:street": "北三环东路", "amenity": "school", "name": "中国人民大学附属中学朝阳学校（和平西桥教学区）", "name:zh": "中国人民大学附属中学朝阳学校（和平西桥教学区）"}}, "geometry": {"type": "Point", "coordinates": [116.4089633, 39.968462]}}, {"type": "Feature", "properties": {"osm_id": 239882788, "name": "DayStar Academy", "category": "school", "poi_type": "sensitive", "tags": {"amenity": "school", "name": "DayStar Academy"}}, "geometry": {"type": "Point", "coordinates": [116.4499691, 39.9382428]}}, {"type": "Feature", "properties": {"osm_id": 248393687, "name": "中央财经大学", "category": "university", "poi_type": "sensitive", "tags": {"addr:street": "学院南路", "amenity": "university", "name": "中央财经大学", "name:en": "Central University of Finance and Economics", "name:zh": "中央财经大学"}}, "geometry": {"type": "Point", "coordinates": [116.3362178, 39.9581712]}}, {"type": "Feature", "properties": {"osm_id": 251324795, "name": "北京中学", "category": "school", "poi_type": "sensitive", "tags": {"amenity": "school", "name": "北京中学"}}, "geometry": {"type": "Point", "coordinates": [116.4419381, 39.9670238]}}, {"type": "Feature", "properties": {"osm_id": 256453433, "name": "北京四惠西区医院", "category": "hospital", "poi_type": "sensitive", "tags": {"amenity": "hospital", "building": "hospital", "name": "北京四惠西区医院", "name:en": "Beijing Sihui West District Hospital"}}, "geometry": {"type": "Point", "coordinates": [116.3432985, 39.9561255]}}, {"type": "Feature", "properties": {"osm_id": 260795156, "name": "北京化工大学", "category": "university", "poi_type": "sensitive", "tags": {"addr:street": "北三环东路", "amenity": "university", "name": "北京化工大学", "name:en": "Beijing University Of Chemical Technology", "name:zh": "北京化工大学"}}, "geometry": {"type": "Point", "coordinates": [116.4150125, 39.9702338]}}, {"type": "Feature", "properties": {"osm_id": 260795157, "name": "北京服装学院", "category": "university", "poi_type": "sensitive", "tags": {"addr:street": "樱花东街", "amenity": "university", "name": "北京服装学院", "name:en": "Beijing Institute Of Fashion Technology"}}, "geometry": {"type": "Point", "coordinates": [116.4248334, 39.9727613]}}, {"type": "Feature", "properties": {"osm_id": 260795158, "name": "北京中医药大学（西校区）", "category": "university", "poi_type": "sensitive", "tags": {"addr:street": "北三环东路", "amenity": "university", "name": "北京中医药大学（西校区）", "name:en": "Beijing University of Chinese Medicine West Campus", "name:zh": "北京中医药大学（西校区）"}}, "geometry": {"type": "Point", "coordinates": [116.4222921, 39.9698622]}}, {"type": "Feature", "properties": {"osm_id": 261491948, "name": "北京市东直门中学", "category": "school", "poi_type": "sensitive", "tags": {"addr:street": "东直门内北顺城街", "amenity": "school", "name": "北京市东直门中学", "name:zh": "东直门中学"}}, "geometry": {"type": "Point", "coordinates": [116.4252238, 39.9439058]}}, {"type": "Feature", "properties": {"osm_id": 262543194, "name": "东城区府学胡同小学（香饵校区）", "category": "school", "poi_type": "sensitive", "tags": {"amenity": "school", "name": "东城区府学胡同小学（香饵校区）"}}, "geometry": {"type": "Point", "coordinates": [116.4048693, 39.9381707]}}, {"type": "Feature", "properties": {"osm_id": 263622195, "name": "", "category": "school", "poi_type": "sensitive", "tags": {"amenity": "school"}}, "geometry": {"type": "Point", "coordinates": [116.4498607, 39.9421609]}}, {"type": "Feature", "properties": {"osm_id": 263623051, "name": "日本驻中华人民共和国大使馆附属北京日本人学校", "category": "school", "poi_type": "sensitive", "tags": {"amenity": "school", "name": "日本驻中华人民共和国大使馆附属北京日本人学校", "name:en": "Japanese School of Beijing", "name:zh": "日本驻中华人民共和国大使馆附属北京日本人学校"}}, "geometry": {"type": "Point", "coordinates": [116.4700305, 39.973554]}}, {"type": "Feature", "properties": {"osm_id": 264412327, "name": "朝阳区花家地实验小学（方舟校区）", "category": "school", "poi_type": "sensitive", "tags": {"amenity": "school", "name": "朝阳区花家地实验小学（方舟校区）"}}, "geometry": {"type": "Point", "coordinates": [116.456268, 39.9793107]}}, {"type": "Feature", "properties": {"osm_id": 264413429, "name": "中国中医科学院望京医院", "category": "hospital", "poi_type": "sensitive", "tags": {"amenity": "hospital", "name": "中国中医科学院望京医院", "name:en": "Wangjing Hospital", "name:zh": "中国中医科学院望京医院"}}, "geometry": {"type": "Point", "coordinates": [116.4667169, 39.9810468]}}, {"type": "Feature", "properties": {"osm_id": 264413430, "name": "北京中医药大学（东校区）", "category": "college", "poi_type": "sensitive", "tags": {"amenity": "college", "name": "北京中医药大学（东校区）", "name:zh": "北京中医药大学（东校区）"}}, "geometry": {"type": "Point", "coordinates": [116.4655484, 39.9794635]}}, {"type": "Feature", "properties": {"osm_id": 264413431, "name": "中国社会科学院大学（望京校区）", "category": "university", "poi_type": "sensitive", "tags": {"addr:street": "望京中环南路", "amenity": "university", "name": "中国社会科学院大学（望京校区）", "name:zh": "中国社会科学院大学（望京校区）"}}, "geometry": {"type": "Point", "coordinates": [116.4719106, 39.9801603]}}, {"type": "Feature", "properties": {"osm_id": 264413432, "name": "北京青年政治学院", "category": "college", "poi_type": "sensitive", "tags": {"amenity": "college", "name": "北京青年政治学院"}}, "geometry": {"type": "Point", "coordinates": [116.4683378, 39.9797973]}}, {"type": "Feature", "properties": {"osm_id": 265008345, "name": "北航实验学校小学部", "category": "school", "poi_type": "sensitive", "tags": {"amenity": "school", "name": "北航实验学校小学部", "name:zh": "北航实验学校小学部"}}, "geometry": {"type": "Point", "coordinates": [116.3430819, 39.9764078]}}, {"type": "Feature", "properties": {"osm_id": 266293711, "name": "海淀区羊坊店第四小学", "category": "school", "poi_type": "sensitive", "tags": {"amenity": "school", "name": "海淀区羊坊店第四小学"}}, "geometry": {"type": "Point", "coordinates": [116.3136207, 39.9020823]}}, {"type": "Feature", "properties": {"osm_id": 266293714, "name": "首都医科大学附属北京世纪坛医院", "category": "hospital", "poi_type": "sensitive", "tags": {"amenity": "hospital", "name": "首都医科大学附属北京世纪坛医院", "name:en": "Beijing Shijitan Hospital, Capital Medical University", "name:zh": "首都医科大学附属北京世纪坛医院"}}, "geometry": {"type": "Point", "coordinates": [116.3128657, 39.8976157]}}, {"type": "Feature", "properties": {"osm_id": 266293717, "name": "北京市育英中学", "category": "school", "poi_type": "sensitive", "tags": {"amenity": "school", "name": "北京市育英中学"}}, "geometry": {"type": "Point", "coordinates": [116.2807412, 39.9080357]}}, {"type": "Feature", "properties": {"osm_id": 266297360, "name": "北京交通大学东校区", "category": "university", "poi_type": "sensitive", "tags": {"amenity": "university", "name": "北京交通大学东校区", "name:en": "Beijing Jiaotong University east campus"}}, "geometry": {"type": "Point", "coordinates": [116.3408706, 39.9456404]}}, {"type": "Feature", "properties": {"osm_id": 266298563, "name": "北京大学人民医院", "category": "hospital", "poi_type": "sensitive", "tags": {"amenity": "hospital", "name": "北京大学人民医院"}}, "geometry": {"type": "Point", "coordinates": [116.3479978, 39.9354225]}}, {"type": "Feature", "properties": {"osm_id": 266512538, "name": "北京交通大学主校区", "category": "university", "poi_type": "sensitive", "tags": {"amenity": "university", "name": "北京交通大学主校区", "name:en": "Beijing Jiaotong University main campus"}}, "geometry": {"type": "Point", "coordinates": [116.3368969, 39.9505076]}}, {"type": "Feature", "properties": {"osm_id": 267373903, "name": "北京市第二十七中学", "category": "school", "poi_type": "sensitive", "tags": {"amenity": "school", "name": "北京市第二十七中学", "name:en": "Beijing 27th Middle School", "name:zh": "北京市第二十七中学"}}, "geometry": {"type": "Point", "coordinates": [116.3987638, 39.9149158]}}, {"type": "Feature", "properties": {"osm_id": 278337146, "name": "后勤学院门诊部", "category": "hospital", "poi_type": "sensitive", "tags": {"addr:street": "万寿路", "amenity": "hospital", "name": "后勤学院门诊部"}}, "geometry": {"type": "Point", "coordinates": [116.2898074, 39.8975588]}}, {"type": "Feature", "properties": {"osm_id": 279303636, "name": "北京邮电大学", "category": "university", "poi_type": "sensitive", "tags": {"amenity": "university", "name": "北京邮电大学", "name:en": "Beijing University of Posts and Telecommunications", "name:zh": "北京邮电大学"}}, "geometry": {"type": "Point", "coordinates": [116.351917, 39.9602522]}}, {"type": "Feature", "properties": {"osm_id": 297313053, "name": "北京市公安局德胜门外派出所", "category": "police", "poi_type": "sensitive", "tags": {"amenity": "police", "building": "yes", "name": "北京市公安局德胜门外派出所"}}, "geometry": {"type": "Point", "coordinates": [116.3757147, 39.9486655]}}, {"type": "Feature", "properties": {"osm_id": 302985254, "name": "中国科学院大学中关村校区", "category": "college", "poi_type": "sensitive", "tags": {"amenity": "college", "name": "中国科学院大学中关村校区", "name:en": "University of Chinese Academy of Sciences (UCAS) Zhongguancun Campus", "name:zh": "中国科学院大学中关村校区"}}, "geometry": {"type": "Point", "coordinates": [116.323852, 39.9804794]}}, {"type": "Feature", "properties": {"osm_id": 305570852, "name": "中国农业科学院附属小学（农科院校区）", "category": "school", "poi_type": "sensitive", "tags": {"amenity": "school", "name": "中国农业科学院附属小学（农科院校区）", "name:zh": "中国农业科学院附属小学（农科院校区）"}}, "geometry": {"type": "Point", "coordinates": [116.3223999, 39.956436]}}, {"type": "Feature", "properties": {"osm_id": 305570854, "name": "中国农业科学院附属幼儿园", "category": "kindergarten", "poi_type": "sensitive", "tags": {"amenity": "kindergarten", "name": "中国农业科学院附属幼儿园", "name:zh": "中国农业科学院附属幼儿园"}}, "geometry": {"type": "Point", "coordinates": [116.322222, 39.9577238]}}, {"type": "Feature", "properties": {"osm_id": 305570858, "name": "", "category": "police", "poi_type": "sensitive", "tags": {"amenity": "police", "building": "yes"}}, "geometry": {"type": "Point", "coordinates": [116.3218883, 39.9569811]}}, {"type": "Feature", "properties": {"osm_id": 306984143, "name": "雍和宫小学", "category": "school", "poi_type": "sensitive", "tags": {"addr:street": "藏经馆胡同", "amenity": "school", "name": "雍和宫小学", "name:zh": "雍和宫小学"}}, "geometry": {"type": "Point", "coordinates": [116.4119673, 39.9458503]}}, {"type": "Feature", "properties": {"osm_id": 313367526, "name": "海淀交通支队中关村大队", "category": "police", "poi_type": "sensitive", "tags": {"amenity": "police", "building": "yes", "name": "海淀交通支队中关村大队", "name:zh": "海淀交通支队中关村大队"}}, "geometry": {"type": "Point", "coordinates": [116.3283088, 39.9772587]}}, {"type": "Feature", "properties": {"osm_id": 315128248, "name": "北京三里屯英国学校", "category": "school", "poi_type": "sensitive", "tags": {"amenity": "school", "name": "北京三里屯英国学校", "name:en": "The British School of Beijing, Sanlitun", "name:zh": "北京三里屯英国学校"}}, "geometry": {"type": "Point", "coordinates": [116.4474363, 39.9434565]}}, {"type": "Feature", "properties": {"osm_id": 331215449, "name": "首都师范大学第二附属中学（曙光校区）", "category": "school", "poi_type": "sensitive", "tags": {"amenity": "school", "name": "首都师范大学第二附属中学（曙光校区）"}}, "geometry": {"type": "Point", "coordinates": [116.2852112, 39.9402656]}}, {"type": "Feature", "properties": {"osm_id": 331217740, "name": "", "category": "school", "poi_type": "sensitive", "tags": {"amenity": "school"}}, "geometry": {"type": "Point", "coordinates": [116.2851516, 39.9405576]}}, {"type": "Feature", "properties": {"osm_id": 344373140, "name": "校医院（北京邮电大学社区卫生服务中心）", "category": "hospital", "poi_type": "sensitive", "tags": {"amenity": "hospital", "name": "校医院（北京邮电大学社区卫生服务中心）", "name:en": "BUPT Hospital", "name:zh": "校医院（北京邮电大学社区卫生服务中心）"}}, "geometry": {"type": "Point", "coordinates": [116.3506622, 39.9586036]}}, {"type": "Feature", "properties": {"osm_id": 345162637, "name": "", "category": "school", "poi_type": "sensitive", "tags": {"amenity": "school", "name:zh": "北京市三里屯一中幸福村校区"}}, "geometry": {"type": "Point", "coordinates": [116.4472325, 39.9359809]}}, {"type": "Feature", "properties": {"osm_id": 345667572, "name": "Beijing Jindian Diabetes Center", "category": "clinic", "poi_type": "sensitive", "tags": {"amenity": "clinic", "building": "yes", "name": "Beijing Jindian Diabetes Center"}}, "geometry": {"type": "Point", "coordinates": [116.4185081, 39.9491414]}}, {"type": "Feature", "properties": {"osm_id": 345716058, "name": "Sanlitun Police Station", "category": "police", "poi_type": "sensitive", "tags": {"addr:street": "三里屯街", "amenity": "police", "building": "yes", "name": "Sanlitun Police Station"}}, "geometry": {"type": "Point", "coordinates": [116.447266, 39.9346155]}}, {"type": "Feature", "properties": {"osm_id": 347258513, "name": "", "category": "police", "poi_type": "sensitive", "tags": {"amenity": "police", "building": "yes"}}, "geometry": {"type": "Point", "coordinates": [116.4448735, 39.9325693]}}, {"type": "Feature", "properties": {"osm_id": 347816923, "name": "", "category": "police", "poi_type": "sensitive", "tags": {"amenity": "police", "building": "yes"}}, "geometry": {"type": "Point", "coordinates": [116.4490473, 39.9329878]}}, {"type": "Feature", "properties": {"osm_id": 350793602, "name": "Beijing Yimeini Plastic Surgery Center", "category": "clinic", "poi_type": "sensitive", "tags": {"amenity": "clinic", "building": "yes", "name": "Beijing Yimeini Plastic Surgery Center"}}, "geometry": {"type": "Point", "coordinates": [116.4674974, 39.9287138]}}, {"type": "Feature", "properties": {"osm_id": 351785471, "name": "", "category": "hospital", "poi_type": "sensitive", "tags": {"amenity": "hospital", "building": "yes"}}, "geometry": {"type": "Point", "coordinates": [116.4115356, 39.9009784]}}, {"type": "Feature", "properties": {"osm_id": 351854062, "name": "北京市第八十中学（白家庄校区）", "category": "school", "poi_type": "sensitive", "tags": {"amenity": "school", "name": "北京市第八十中学（白家庄校区）", "name:zh": "北京市第八十中学（白家庄校区）"}}, "geometry": {"type": "Point", "coordinates": [116.4522442, 39.9263667]}}, {"type": "Feature", "properties": {"osm_id": 352521262, "name": "北京市第一六六中学", "category": "school", "poi_type": "sensitive", "tags": {"amenity": "school", "name": "北京市第一六六中学"}}, "geometry": {"type": "Point", "coordinates": [116.409104, 39.919033]}}, {"type": "Feature", "properties": {"osm_id": 353135368, "name": "中央美术学院", "category": "university", "poi_type": "sensitive", "tags": {"addr:street": "花家地南街", "amenity": "university", "name": "中央美术学院", "name:en": "Central Academy of Fine Art", "name:zh": "中央美术学院"}}, "geometry": {"type": "Point", "coordinates": [116.4573445, 39.982361]}}, {"type": "Feature", "properties": {"osm_id": 365025448, "name": "中央民族大学", "category": "university", "poi_type": "sensitive", "tags": {"amenity": "university", "name": "中央民族大学", "name:en": "Minzu University of China", "name:zh": "中央民族大学"}}, "geometry": {"type": "Point", "coordinates": [116.3145046, 39.9496422]}}, {"type": "Feature", "properties": {"osm_id": 376828619, "name": "清华附小商务中心区实验小学（通惠校区）", "category": "school", "poi_type": "sensitive", "tags": {"amenity": "school", "name": "清华附小商务中心区实验小学（通惠校区）", "name:zh": "CBD实验小学"}}, "geometry": {"type": "Point", "coordinates": [116.435849, 39.9027243]}}, {"type": "Feature", "properties": {"osm_id": 377430559, "name": "北京市第二十二中学", "category": "school", "poi_type": "sensitive", "tags": {"addr:street": "交道口东大街", "amenity": "school", "name": "北京市第二十二中学"}}, "geometry": {"type": "Point", "coordinates": [116.4078377, 39.9401155]}}, {"type": "Feature", "properties": {"osm_id": 378416189, "name": "东城区府学胡同小学（府学校区）", "category": "school", "poi_type": "sensitive", "tags": {"addr:street": "府学胡同", "amenity": "school", "name": "东城区府学胡同小学（府学校区）"}}, "geometry": {"type": "Point", "coordinates": [116.4037624, 39.9349504]}}, {"type": "Feature", "properties": {"osm_id": 378420724, "name": "中国政法大学（学院路校区）", "category": "university", "poi_type": "sensitive", "tags": {"amenity": "university", "name": "中国政法大学（学院路校区）", "name:en": "China University of Political Science and Law", "name:zh": "中国政法大学（学院路校区）"}}, "geometry": {"type": "Point", "coordinates": [116.3449877, 39.9640009]}}, {"type": "Feature", "properties": {"osm_id": 380109089, "name": "中关村中学（双榆树校区）", "category": "school", "poi_type": "sensitive", "tags": {"amenity": "school", "name": "中关村中学（双榆树校区）", "name:zh": "中关村中学（双榆树校区）"}}, "geometry": {"type": "Point", "coordinates": [116.3149605, 39.9706937]}}, {"type": "Feature", "properties": {"osm_id": 388355720, "name": "北京电影学院", "category": "college", "poi_type": "sensitive", "tags": {"amenity": "college", "name": "北京电影学院", "name:en": "Beijing Film Academy", "name:zh": "北京电影学院"}}, "geometry": {"type": "Point", "coordinates": [116.3495305, 39.9702007]}}, {"type": "Feature", "properties": {"osm_id": 389345159, "name": "中国社会科学院", "category": "university", "poi_type": "sensitive", "tags": {"amenity": "university", "name": "中国社会科学院", "name:en": "Social Science Academy", "name:zh": "中国社会科学院"}}, "geometry": {"type": "Point", "coordinates": [116.4101511, 39.9335133]}}, {"type": "Feature", "properties": {"osm_id": 394900112, "name": "首都师范大学校医院", "category": "hospital", "poi_type": "sensitive", "tags": {"amenity": "hospital", "name": "首都师范大学校医院", "name:zh": "首都师范大学校医院"}}, "geometry": {"type": "Point", "coordinates": [116.2979218, 39.9297378]}}, {"type": "Feature", "properties": {"osm_id": 394902919, "name": "北京市第一六五中学", "category": "school", "poi_type": "sensitive", "tags": {"amenity": "school", "name": "北京市第一六五中学"}}, "geometry": {"type": "Point", "coordinates": [116.4053101, 39.9279279]}}, {"type": "Feature", "properties": {"osm_id": 396992328, "name": "北京小学", "category": "school", "poi_type": "sensitive", "tags": {"addr:street": "槐柏树街", "amenity": "school", "name": "北京小学", "name:en": "Beijing Primary School", "name:zh": "北京小学"}}, "geometry": {"type": "Point", "coordinates": [116.354408, 39.8955055]}}, {"type": "Feature", "properties": {"osm_id": 396992932, "name": "先农坛运动学校", "category": "college", "poi_type": "sensitive", "tags": {"amenity": "college", "name": "先农坛运动学校", "name:en": "Xiangnongtan Sport School"}}, "geometry": {"type": "Point", "coordinates": [116.3889068, 39.8734501]}}, {"type": "Feature", "properties": {"osm_id": 398694728, "name": "北京市第一六六中学", "category": "school", "poi_type": "sensitive", "tags": {"amenity": "school", "name": "北京市第一六六中学"}}, "geometry": {"type": "Point", "coordinates": [116.4150159, 39.9279293]}}, {"type": "Feature", "properties": {"osm_id": 398697590, "name": "北京市第二中学", "category": "school", "poi_type": "sensitive", "tags": {"amenity": "school", "name": "北京市第二中学"}}, "geometry": {"type": "Point", "coordinates": [116.4171703, 39.9185443]}}, {"type": "Feature", "properties": {"osm_id": 403594616, "name": "西城区进步小学", "category": "school", "poi_type": "sensitive", "tags": {"amenity": "school", "name": "西城区进步小学"}}, "geometry": {"type": "Point", "coordinates": [116.3415372, 39.9352043]}}, {"type": "Feature", "properties": {"osm_id": 403595578, "name": "展览路医院", "category": "hospital", "poi_type": "sensitive", "tags": {"amenity": "hospital", "name": "展览路医院"}}, "geometry": {"type": "Point", "coordinates": [116.3428185, 39.9360127]}}, {"type": "Feature", "properties": {"osm_id": 407185513, "name": "俄罗斯大使馆中学", "category": "school", "poi_type": "sensitive", "tags": {"amenity": "school", "building": "school", "name": "俄罗斯大使馆中学"}}, "geometry": {"type": "Point", "coordinates": [116.4262666, 39.9442567]}}, {"type": "Feature", "properties": {"osm_id": 412290253, "name": "中国劳动关系学院", "category": "university", "poi_type": "sensitive", "tags": {"addr:street": "增光路", "amenity": "university", "name": "中国劳动关系学院", "name:en": "China Institute of Industrial Relations", "name:zh": "中国劳动关系学院"}}, "geometry": {"type": "Point", "coordinates": [116.3104118, 39.9285445]}}, {"type": "Feature", "properties": {"osm_id": 412290840, "name": "北京工商大学（阜成路校区）西区", "category": "university", "poi_type": "sensitive", "tags": {"amenity": "university", "name": "北京工商大学（阜成路校区）西区", "name:en": "Beijing Technology and Business University Fuchenlu Campus West Area", "name:zh": "北京工商大学（阜成路校区）西区"}}, "geometry": {"type": "Point", "coordinates": [116.3082486, 39.924667]}}, {"type": "Feature", "properties": {"osm_id": 412291127, "name": "首都师范大学（东校区）", "category": "university", "poi_type": "sensitive", "tags": {"amenity": "university", "name": "首都师范大学（东校区）", "name:en": "Capital Normal University East Campus", "name:zh": "首都師範大學（東校區）"}}, "geometry": {"type": "Point", "coordinates": [116.3180912, 39.9244897]}}, {"type": "Feature", "properties": {"osm_id": 412293078, "name": "北京市西城外国语学校（高中部）", "category": "school", "poi_type": "sensitive", "tags": {"amenity": "school", "name": "北京市西城外国语学校（高中部）", "name:zh": "北京市西城区拓扑培训学校"}}, "geometry": {"type": "Point", "coordinates": [116.3358742, 39.9278774]}}, {"type": "Feature", "properties": {"osm_id": 412294459, "name": "中国地质科学院", "category": "university", "poi_type": "sensitive", "tags": {"amenity": "university", "name": "中国地质科学院", "name:en": "China Institute of Geology", "name:zh": "中国地质科学院"}}, "geometry": {"type": "Point", "coordinates": [116.33021, 39.9261277]}}, {"type": "Feature", "properties": {"osm_id": 412295206, "name": "外交学院", "category": "university", "poi_type": "sensitive", "tags": {"amenity": "university", "name": "外交学院", "name:en": "China Foreign Affairs University", "name:zh": "外交学院"}}, "geometry": {"type": "Point", "coordinates": [116.3395071, 39.9252215]}}, {"type": "Feature", "properties": {"osm_id": 412295595, "name": "北京建筑大学（西城校区）", "category": "university", "poi_type": "sensitive", "tags": {"amenity": "university", "name": "北京建筑大学（西城校区）", "name:en": "Beijing University of Civil Engineering and Architecture - Xicheng Campus", "name:zh": "北京建筑大学（西城校区）"}}, "geometry": {"type": "Point", "coordinates": [116.3354846, 39.9340644]}}, {"type": "Feature", "properties": {"osm_id": 412296282, "name": "首都师范大学", "category": "university", "poi_type": "sensitive", "tags": {"addr:street": "西三环北路", "amenity": "university", "name": "首都师范大学", "name:en": "Capital Normal University"}}, "geometry": {"type": "Point", "coordinates": [116.2995308, 39.9288787]}}, {"type": "Feature", "properties": {"osm_id": 412296444, "name": "首都师范大学（北一区）", "category": "university", "poi_type": "sensitive", "tags": {"amenity": "university", "name": "首都师范大学（北一区）", "name:en": "Capital Normal University - North Campus 1"}}, "geometry": {"type": "Point", "coordinates": [116.301799, 39.9363377]}}, {"type": "Feature", "properties": {"osm_id": 412296512, "name": "首都师范大学（北二区）", "category": "university", "poi_type": "sensitive", "tags": {"addr:street": "西三环北路", "amenity": "university", "name": "首都师范大学（北二区）", "name:en": "Capital Normal University - North Campus 2"}}, "geometry": {"type": "Point", "coordinates": [116.3056616, 39.9358275]}}, {"type": "Feature", "properties": {"osm_id": 412296579, "name": "北京化工大学(西校区)", "category": "university", "poi_type": "sensitive", "tags": {"addr:street": "紫竹院路", "amenity": "university", "name": "北京化工大学(西校区)", "name:en": "Beijing University of Chemical Technology(West Campus)", "name:zh": "北京化工大学(西校区)"}}, "geometry": {"type": "Point", "coordinates": [116.2979961, 39.9407892]}}, {"type": "Feature", "properties": {"osm_id": 412296635, "name": "中国青年政治学院", "category": "university", "poi_type": "sensitive", "tags": {"amenity": "university", "name": "中国青年政治学院", "name:en": "China Youth University of Political Studies", "name:zh": "中国青年政治学院"}}, "geometry": {"type": "Point", "coordinates": [116.3013429, 39.9496347]}}, {"type": "Feature", "properties": {"osm_id": 412296872, "name": "北京理工大学附属中学", "category": "school", "poi_type": "sensitive", "tags": {"amenity": "school", "name": "北京理工大学附属中学", "name:en": "High School Affiliated to Beijing Institute of Technology"}}, "geometry": {"type": "Point", "coordinates": [116.2964586, 39.9481486]}}, {"type": "Feature", "properties": {"osm_id": 412296879, "name": "中国人民大学附属中学", "category": "school", "poi_type": "sensitive", "tags": {"addr:street": "中关村大街", "amenity": "school", "name": "中国人民大学附属中学", "name:en": "High School Affiliated to Renmin University", "name:zh": "中国人民大学附属中学"}}, "geometry": {"type": "Point", "coordinates": [116.3087873, 39.9732082]}}, {"type": "Feature", "properties": {"osm_id": 412297452, "name": "北京大学附属中学", "category": "school", "poi_type": "sensitive", "tags": {"amenity": "school", "name": "北京大学附属中学", "name:en": "The Affiliated High School of Peking University", "name:zh": "北京大学附属中学"}}, "geometry": {"type": "Point", "coordinates": [116.3144775, 39.976835]}}, {"type": "Feature", "properties": {"osm_id": 412298305, "name": "北京市第四中学", "category": "school", "poi_type": "sensitive", "tags": {"addr:street": "西黄城根北街", "amenity": "school", "name": "北京市第四中学", "name:en": "Beijing No.4 High School"}}, "geometry": {"type": "Point", "coordinates": [116.3720951, 39.9301617]}}, {"type": "Feature", "properties": {"osm_id": 412303877, "name": "北京四中东校区", "category": "school", "poi_type": "sensitive", "tags": {"amenity": "school", "name": "北京四中东校区", "name:en": "Beijing No.4 High School - East Campus"}}, "geometry": {"type": "Point", "coordinates": [116.3795205, 39.9308341]}}, {"type": "Feature", "properties": {"osm_id": 412304490, "name": "北京市第一五六中学", "category": "school", "poi_type": "sensitive", "tags": {"amenity": "school", "name": "北京市第一五六中学", "name:en": "Beijing No.156 High School"}}, "geometry": {"type": "Point", "coordinates": [116.3681127, 39.9294894]}}, {"type": "Feature", "properties": {"osm_id": 412304528, "name": "北京市第三中学", "category": "school", "poi_type": "sensitive", "tags": {"amenity": "school", "name": "北京市第三中学", "name:en": "Beijing No.3 High School"}}, "geometry": {"type": "Point", "coordinates": [116.3606317, 39.9303489]}}, {"type": "Feature", "properties": {"osm_id": 412304646, "name": "北京市第三十五中学", "category": "school", "poi_type": "sensitive", "tags": {"amenity": "school", "name": "北京市第三十五中学", "name:en": "Beijing No.35 High School"}}, "geometry": {"type": "Point", "coordinates": [116.3635608, 39.9380022]}}, {"type": "Feature", "properties": {"osm_id": 412305129, "name": "北京市第一五九中学", "category": "school", "poi_type": "sensitive", "tags": {"amenity": "school", "name": "北京市第一五九中学", "name:en": "Beijing No.159 High School"}}, "geometry": {"type": "Point", "coordinates": [116.3551154, 39.920686]}}, {"type": "Feature", "properties": {"osm_id": 412305177, "name": "北京市第八中学（高中部）", "category": "school", "poi_type": "sensitive", "tags": {"amenity": "school", "name": "北京市第八中学（高中部）", "name:en": "Beijing No.8 High School"}}, "geometry": {"type": "Point", "coordinates": [116.3557945, 39.9097416]}}, {"type": "Feature", "properties": {"osm_id": 412323507, "name": "北京联合大学学院路校区", "category": "university", "poi_type": "sensitive", "tags": {"amenity": "university", "name": "北京联合大学学院路校区"}}, "geometry": {"type": "Point", "coordinates": [116.3491834, 39.9761185]}}, {"type": "Feature", "properties": {"osm_id": 412468627, "name": "对外经济贸易大学", "category": "university", "poi_type": "sensitive", "tags": {"amenity": "university", "name": "对外经济贸易大学", "name:en": "University of International Business and Economics", "name:zh": "对外经济贸易大学"}}, "geometry": {"type": "Point", "coordinates": [116.4214499, 39.9789349]}}, {"type": "Feature", "properties": {"osm_id": 412472211, "name": "北京中学科技分校", "category": "school", "poi_type": "sensitive", "tags": {"amenity": "school", "name": "北京中学科技分校", "name:en": "The Science and Technology Branch of Beijing Academy", "name:zh": "北京中学科技分校"}}, "geometry": {"type": "Point", "coordinates": [116.4151639, 39.9787464]}}, {"type": "Feature", "properties": {"osm_id": 412472217, "name": "对外经济贸易大学附属小学（贸大附小）", "category": "school", "poi_type": "sensitive", "tags": {"addr:street": "惠新里", "amenity": "school", "name": "对外经济贸易大学附属小学（贸大附小）", "name:zh": "对外经济贸易大学附属小学（贸大附小）"}}, "geometry": {"type": "Point", "coordinates": [116.4148218, 39.9775885]}}, {"type": "Feature", "properties": {"osm_id": 412472218, "name": "全国市长研修学院", "category": "university", "poi_type": "sensitive", "tags": {"amenity": "university", "name": "全国市长研修学院", "name:en": "National College of City Mayors", "name:zh": "全国市长研修学院"}}, "geometry": {"type": "Point", "coordinates": [116.4159061, 39.9775966]}}, {"type": "Feature", "properties": {"osm_id": 412472220, "name": "北京和美妇儿医院", "category": "hospital", "poi_type": "sensitive", "tags": {"amenity": "hospital", "name": "北京和美妇儿医院", "name:en": "HarMoni Care Hospital"}}, "geometry": {"type": "Point", "coordinates": [116.4029505, 39.9779882]}}, {"type": "Feature", "properties": {"osm_id": 412472221, "name": "北京中医药大学第三临床医学院", "category": "university", "poi_type": "sensitive", "tags": {"amenity": "university", "name": "北京中医药大学第三临床医学院"}}, "geometry": {"type": "Point", "coordinates": [116.4027113, 39.9770963]}}, {"type": "Feature", "properties": {"osm_id": 412476328, "name": "北京藏医院", "category": "hospital", "poi_type": "sensitive", "tags": {"amenity": "hospital", "name": "北京藏医院", "name:en": "Beijing National Hospital"}}, "geometry": {"type": "Point", "coordinates": [116.4071802, 39.9786653]}}, {"type": "Feature", "properties": {"osm_id": 424508487, "name": "空军指挥学院", "category": "college", "poi_type": "sensitive", "tags": {"addr:street": "北四环西路", "amenity": "college", "name": "空军指挥学院", "name:en": "Air Force Command College"}}, "geometry": {"type": "Point", "coordinates": [116.2755825, 39.9684798]}}, {"type": "Feature", "properties": {"osm_id": 429791474, "name": "东直门中学（南校）", "category": "school", "poi_type": "sensitive", "tags": {"amenity": "school", "name": "东直门中学（南校）"}}, "geometry": {"type": "Point", "coordinates": [116.4181091, 39.9379285]}}, {"type": "Feature", "properties": {"osm_id": 438504958, "name": "中国人民解放军火箭军特色医学中心", "category": "hospital", "poi_type": "sensitive", "tags": {"amenity": "hospital", "name": "中国人民解放军火箭军特色医学中心"}}, "geometry": {"type": "Point", "coordinates": [116.3664888, 39.9552836]}}, {"type": "Feature", "properties": {"osm_id": 439497832, "name": "北京信息职业技术学院", "category": "university", "poi_type": "sensitive", "tags": {"amenity": "university", "name": "北京信息职业技术学院", "name:en": "Beijing Information Vocational and Technical College", "name:zh": "北京信息职业技术学院"}}, "geometry": {"type": "Point", "coordinates": [116.4767938, 39.9715845]}}, {"type": "Feature", "properties": {"osm_id": 441729548, "name": "中国人民大学附属中学朝阳学校太阳宫校区", "category": "school", "poi_type": "sensitive", "tags": {"amenity": "school", "name": "中国人民大学附属中学朝阳学校太阳宫校区", "name:zh": "中国人民大学附属中学朝阳学校太阳宫校区"}}, "geometry": {"type": "Point", "coordinates": [116.4353549, 39.975885]}}, {"type": "Feature", "properties": {"osm_id": 442185080, "name": "北京市三里屯一中百子园校区", "category": "school", "poi_type": "sensitive", "tags": {"amenity": "school", "name": "北京市三里屯一中百子园校区"}}, "geometry": {"type": "Point", "coordinates": [116.4776871, 39.8968628]}}, {"type": "Feature", "properties": {"osm_id": 442186085, "name": "北京第二实验小学朝阳学校", "category": "school", "poi_type": "sensitive", "tags": {"amenity": "school", "name": "北京第二实验小学朝阳学校"}}, "geometry": {"type": "Point", "coordinates": [116.4795305, 39.8943151]}}, {"type": "Feature", "properties": {"osm_id": 442361084, "name": "北京工业大学附属中学（小学部）", "category": "school", "poi_type": "sensitive", "tags": {"amenity": "school", "name": "北京工业大学附属中学（小学部）", "name:zh": "北京工业大学附属中学首城国际校区"}}, "geometry": {"type": "Point", "coordinates": [116.4673365, 39.8862917]}}, {"type": "Feature", "properties": {"osm_id": 442399463, "name": "北京市第二一四中学", "category": "school", "poi_type": "sensitive", "tags": {"amenity": "school", "name": "北京市第二一四中学"}}, "geometry": {"type": "Point", "coordinates": [116.3308375, 39.916332]}}, {"type": "Feature", "properties": {"osm_id": 457879937, "name": "北京汇文中学朝阳垂杨柳分校", "category": "school", "poi_type": "sensitive", "tags": {"amenity": "school", "name": "北京汇文中学朝阳垂杨柳分校", "name:zh": "北京市垂杨柳中学"}}, "geometry": {"type": "Point", "coordinates": [116.4637223, 39.8713042]}}, {"type": "Feature", "properties": {"osm_id": 463318843, "name": "中国伊斯兰教经学院", "category": "college", "poi_type": "sensitive", "tags": {"amenity": "college", "name": "中国伊斯兰教经学院"}}, "geometry": {"type": "Point", "coordinates": [116.3618849, 39.8824587]}}, {"type": "Feature", "properties": {"osm_id": 467711164, "name": "北京医学院附属中学", "category": "school", "poi_type": "sensitive", "tags": {"amenity": "school", "name": "北京医学院附属中学", "name:zh": "北京医学院附属中学"}}, "geometry": {"type": "Point", "coordinates": [116.3566106, 39.9794797]}}, {"type": "Feature", "properties": {"osm_id": 467845000, "name": "北京市中关村中学", "category": "school", "poi_type": "sensitive", "tags": {"amenity": "school", "name": "北京市中关村中学"}}, "geometry": {"type": "Point", "coordinates": [116.3204125, 39.9772497]}}, {"type": "Feature", "properties": {"osm_id": 467852131, "name": "海淀区双榆树中心小学", "category": "school", "poi_type": "sensitive", "tags": {"amenity": "school", "name": "海淀区双榆树中心小学"}}, "geometry": {"type": "Point", "coordinates": [116.3174375, 39.9676134]}}, {"type": "Feature", "properties": {"osm_id": 473654610, "name": "北京交通大学附属中学（南校区）", "category": "school", "poi_type": "sensitive", "tags": {"amenity": "school", "name": "北京交通大学附属中学（南校区）", "name:zh": "北京交通大学附属中学（南校区）"}}, "geometry": {"type": "Point", "coordinates": [116.3380994, 39.9534252]}}, {"type": "Feature", "properties": {"osm_id": 476901082, "name": "北京市中关村医院", "category": "hospital", "poi_type": "sensitive", "tags": {"amenity": "hospital", "name": "北京市中关村医院", "name:zh": "北京市中关村医院"}}, "geometry": {"type": "Point", "coordinates": [116.3144518, 39.9787846]}}, {"type": "Feature", "properties": {"osm_id": 477551720, "name": "中华人民共和国国家移民管理局", "category": "police", "poi_type": "sensitive", "tags": {"amenity": "police", "building": "yes", "name": "中华人民共和国国家移民管理局"}}, "geometry": {"type": "Point", "coordinates": [116.4042411, 39.9060868]}}, {"type": "Feature", "properties": {"osm_id": 478339721, "name": "天坛派出所", "category": "police", "poi_type": "sensitive", "tags": {"addr:street": "清华街", "amenity": "police", "building": "yes", "name": "天坛派出所"}}, "geometry": {"type": "Point", "coordinates": [116.4086499, 39.8905232]}}, {"type": "Feature", "properties": {"osm_id": 478341947, "name": "东城区体育馆路小学", "category": "school", "poi_type": "sensitive", "tags": {"amenity": "school", "name": "东城区体育馆路小学"}}, "geometry": {"type": "Point", "coordinates": [116.4197987, 39.8842568]}}, {"type": "Feature", "properties": {"osm_id": 478555219, "name": "北京市前门外国语学校", "category": "school", "poi_type": "sensitive", "tags": {"amenity": "school", "name": "北京市前门外国语学校"}}, "geometry": {"type": "Point", "coordinates": [116.3970064, 39.8983403]}}, {"type": "Feature", "properties": {"osm_id": 478581757, "name": "中国人民武装警察部队海警总队", "category": "police", "poi_type": "sensitive", "tags": {"amenity": "police", "building": "yes", "name": "中国人民武装警察部队海警总队"}}, "geometry": {"type": "Point", "coordinates": [116.3484908, 39.9065724]}}, {"type": "Feature", "properties": {"osm_id": 482163966, "name": "北京市海淀区万泉小学（北校区）", "category": "school", "poi_type": "sensitive", "tags": {"amenity": "school", "name": "北京市海淀区万泉小学（北校区）"}}, "geometry": {"type": "Point", "coordinates": [116.2960078, 39.9692097]}}, {"type": "Feature", "properties": {"osm_id": 484591442, "name": "北京小学（天宁寺分校）", "category": "school", "poi_type": "sensitive", "tags": {"amenity": "school", "name": "北京小学（天宁寺分校）"}}, "geometry": {"type": "Point", "coordinates": [116.3393148, 39.8921884]}}, {"type": "Feature", "properties": {"osm_id": 491885124, "name": "首都师范大学附属中学", "category": "school", "poi_type": "sensitive", "tags": {"amenity": "school", "name": "首都师范大学附属中学"}}, "geometry": {"type": "Point", "coordinates": [116.2942414, 39.9288365]}}, {"type": "Feature", "properties": {"osm_id": 499007315, "name": "中关村中学蓟门里", "category": "school", "poi_type": "sensitive", "tags": {"amenity": "school", "name": "中关村中学蓟门里"}}, "geometry": {"type": "Point", "coordinates": [116.3454413, 39.9713423]}}, {"type": "Feature", "properties": {"osm_id": 499428275, "name": "北师大实验小学", "category": "school", "poi_type": "sensitive", "tags": {"amenity": "school", "name": "北师大实验小学", "name:zh": "北师大实验小学"}}, "geometry": {"type": "Point", "coordinates": [116.3623464, 39.9618498]}}, {"type": "Feature", "properties": {"osm_id": 499474090, "name": "海淀区学院路小学", "category": "school", "poi_type": "sensitive", "tags": {"amenity": "school", "name": "海淀区学院路小学", "name:zh": "海淀区学院路小学"}}, "geometry": {"type": "Point", "coordinates": [116.34509, 39.9695594]}}, {"type": "Feature", "properties": {"osm_id": 515209524, "name": "中国人民大学北校区", "category": "university", "poi_type": "sensitive", "tags": {"amenity": "university", "name": "中国人民大学北校区", "name:zh": "中国人民大学北校区"}}, "geometry": {"type": "Point", "coordinates": [116.3047648, 39.972999]}}, {"type": "Feature", "properties": {"osm_id": 520259387, "name": "大栅栏西街警务工作室", "category": "police", "poi_type": "sensitive", "tags": {"amenity": "police", "building": "yes", "name": "大栅栏西街警务工作室"}}, "geometry": {"type": "Point", "coordinates": [116.3859413, 39.8942927]}}, {"type": "Feature", "properties": {"osm_id": 520801022, "name": "牛街派出所", "category": "police", "poi_type": "sensitive", "tags": {"amenity": "police", "building": "yes", "name": "牛街派出所"}}, "geometry": {"type": "Point", "coordinates": [116.3554323, 39.885316]}}, {"type": "Feature", "properties": {"osm_id": 523763746, "name": "劳动人民文化宫派出所", "category": "police", "poi_type": "sensitive", "tags": {"amenity": "police", "building": "yes", "name": "劳动人民文化宫派出所"}}, "geometry": {"type": "Point", "coordinates": [116.393398, 39.9074396]}}, {"type": "Feature", "properties": {"osm_id": 534411826, "name": "海淀区中关村第三小学（万柳北校区）", "category": "school", "poi_type": "sensitive", "tags": {"amenity": "school", "name": "海淀区中关村第三小学（万柳北校区）"}}, "geometry": {"type": "Point", "coordinates": [116.2895968, 39.9675955]}}, {"type": "Feature", "properties": {"osm_id": 534432977, "name": "北京市第十九中学", "category": "school", "poi_type": "sensitive", "tags": {"amenity": "school", "name": "北京市第十九中学"}}, "geometry": {"type": "Point", "coordinates": [116.2986308, 39.96831]}}, {"type": "Feature", "properties": {"osm_id": 539793951, "name": "北京朝阳芳草地国际学校丽泽分校", "category": "school", "poi_type": "sensitive", "tags": {"amenity": "school", "name": "北京朝阳芳草地国际学校丽泽分校"}}, "geometry": {"type": "Point", "coordinates": [116.3365299, 39.870181]}}, {"type": "Feature", "properties": {"osm_id": 543825909, "name": "人大附小银燕分校", "category": "school", "poi_type": "sensitive", "tags": {"amenity": "school", "name": "人大附小银燕分校"}}, "geometry": {"type": "Point", "coordinates": [116.2811876, 39.9663625]}}, {"type": "Feature", "properties": {"osm_id": 543852365, "name": "首都医科大学附属北京儿童医院", "category": "hospital", "poi_type": "sensitive", "tags": {"amenity": "hospital", "name": "首都医科大学附属北京儿童医院", "name:en": "Beijing Children's Hospital, Capital Medical University", "name:zh": "首都医科大学附属北京儿童医院"}}, "geometry": {"type": "Point", "coordinates": [116.3483686, 39.9110944]}}, {"type": "Feature", "properties": {"osm_id": 543944750, "name": "人大附中翠微学校", "category": "school", "poi_type": "sensitive", "tags": {"amenity": "school", "name": "人大附中翠微学校"}}, "geometry": {"type": "Point", "coordinates": [116.2946918, 39.9123587]}}, {"type": "Feature", "properties": {"osm_id": 543944752, "name": "中国人民大学附属中学翠微学校(小学部)", "category": "school", "poi_type": "sensitive", "tags": {"amenity": "school", "name": "中国人民大学附属中学翠微学校(小学部)"}}, "geometry": {"type": "Point", "coordinates": [116.2938511, 39.9136379]}}, {"type": "Feature", "properties": {"osm_id": 544060757, "name": "海淀区翠微小学", "category": "school", "poi_type": "sensitive", "tags": {"amenity": "school", "name": "海淀区翠微小学"}}, "geometry": {"type": "Point", "coordinates": [116.2976132, 39.9083482]}}, {"type": "Feature", "properties": {"osm_id": 544060764, "name": "海淀区翠微小学（西校区）", "category": "school", "poi_type": "sensitive", "tags": {"amenity": "school", "name": "海淀区翠微小学（西校区）"}}, "geometry": {"type": "Point", "coordinates": [116.2908704, 39.9122367]}}, {"type": "Feature", "properties": {"osm_id": 544950929, "name": "", "category": "kindergarten", "poi_type": "sensitive", "tags": {"amenity": "kindergarten"}}, "geometry": {"type": "Point", "coordinates": [116.4204343, 39.8847239]}}, {"type": "Feature", "properties": {"osm_id": 548039693, "name": "北京财贸职业学校", "category": "school", "poi_type": "sensitive", "tags": {"amenity": "school", "name": "北京财贸职业学校"}}, "geometry": {"type": "Point", "coordinates": [116.4681633, 39.9269735]}}, {"type": "Feature", "properties": {"osm_id": 548810366, "name": "北京舞蹈学院", "category": "college", "poi_type": "sensitive", "tags": {"addr:street": "万寿寺路", "amenity": "college", "name": "北京舞蹈学院", "name:zh": "北京舞蹈学院"}}, "geometry": {"type": "Point", "coordinates": [116.3130337, 39.945866]}}, {"type": "Feature", "properties": {"osm_id": 548815685, "name": "北京大学口腔医院", "category": "hospital", "poi_type": "sensitive", "tags": {"amenity": "hospital", "name": "北京大学口腔医院", "name:en": "Peking University Hospital of Stomatology"}}, "geometry": {"type": "Point", "coordinates": [116.3188609, 39.9509973]}}, {"type": "Feature", "properties": {"osm_id": 556779106, "name": "北京师范大学第二附属中学", "category": "school", "poi_type": "sensitive", "tags": {"amenity": "school", "name": "北京师范大学第二附属中学"}}, "geometry": {"type": "Point", "coordinates": [116.3661358, 39.9587133]}}, {"type": "Feature", "properties": {"osm_id": 566485659, "name": "四季青常青幼儿园(蓝靛厂分园)", "category": "kindergarten", "poi_type": "sensitive", "tags": {"amenity": "kindergarten", "name": "四季青常青幼儿园(蓝靛厂分园)"}}, "geometry": {"type": "Point", "coordinates": [116.287323, 39.9537923]}}, {"type": "Feature", "properties": {"osm_id": 567243696, "name": "海淀区中关村第三小学（万柳南校区）", "category": "school", "poi_type": "sensitive", "tags": {"amenity": "school", "name": "海淀区中关村第三小学（万柳南校区）"}}, "geometry": {"type": "Point", "coordinates": [116.2914597, 39.9612276]}}, {"type": "Feature", "properties": {"osm_id": 567248420, "name": "北京市第十九中学（阳春光华校区）", "category": "school", "poi_type": "sensitive", "tags": {"amenity": "school", "name": "北京市第十九中学（阳春光华校区）"}}, "geometry": {"type": "Point", "coordinates": [116.2942285, 39.9664589]}}, {"type": "Feature", "properties": {"osm_id": 595353308, "name": "北京一零一中学双榆树校区", "category": "school", "poi_type": "sensitive", "tags": {"amenity": "school", "name": "北京一零一中学双榆树校区"}}, "geometry": {"type": "Point", "coordinates": [116.3215983, 39.9675403]}}, {"type": "Feature", "properties": {"osm_id": 595357025, "name": "人大附中实验小学", "category": "school", "poi_type": "sensitive", "tags": {"amenity": "school", "name": "人大附中实验小学", "name:zh": "人大附中实验小学"}}, "geometry": {"type": "Point", "coordinates": [116.3153761, 39.9734086]}}, {"type": "Feature", "properties": {"osm_id": 621690861, "name": "", "category": "kindergarten", "poi_type": "sensitive", "tags": {"amenity": "kindergarten"}}, "geometry": {"type": "Point", "coordinates": [116.3261774, 39.8909248]}}, {"type": "Feature", "properties": {"osm_id": 625073977, "name": "", "category": "clinic", "poi_type": "sensitive", "tags": {"amenity": "clinic", "building": "yes"}}, "geometry": {"type": "Point", "coordinates": [116.4702072, 39.9747774]}}, {"type": "Feature", "properties": {"osm_id": 636309392, "name": "海淀区星火小学", "category": "school", "poi_type": "sensitive", "tags": {"amenity": "school", "name": "海淀区星火小学"}}, "geometry": {"type": "Point", "coordinates": [116.3607451, 39.9519497]}}, {"type": "Feature", "properties": {"osm_id": 649477507, "name": "中央戏剧学院(东城校区)", "category": "college", "poi_type": "sensitive", "tags": {"amenity": "college", "name": "中央戏剧学院(东城校区)", "name:en": "The Central Academy of Drama"}}, "geometry": {"type": "Point", "coordinates": [116.3983898, 39.9345535]}}, {"type": "Feature", "properties": {"osm_id": 652105474, "name": "海淀区七一小学", "category": "school", "poi_type": "sensitive", "tags": {"amenity": "school", "name": "海淀区七一小学"}}, "geometry": {"type": "Point", "coordinates": [116.3008617, 39.8969695]}}, {"type": "Feature", "properties": {"osm_id": 652105475, "name": "海军机关幼儿园", "category": "kindergarten", "poi_type": "sensitive", "tags": {"amenity": "kindergarten", "name": "海军机关幼儿园"}}, "geometry": {"type": "Point", "coordinates": [116.2966977, 39.8978096]}}, {"type": "Feature", "properties": {"osm_id": 652105485, "name": "北京市十一学校（一分校）", "category": "school", "poi_type": "sensitive", "tags": {"amenity": "school", "name": "北京市十一学校（一分校）"}}, "geometry": {"type": "Point", "coordinates": [116.2933116, 39.8990272]}}, {"type": "Feature", "properties": {"osm_id": 652283884, "name": "中南海门诊部", "category": "clinic", "poi_type": "sensitive", "tags": {"amenity": "clinic", "building": "yes", "name": "中南海门诊部"}}, "geometry": {"type": "Point", "coordinates": [116.3804707, 39.9205568]}}, {"type": "Feature", "properties": {"osm_id": 653300383, "name": "北京市第十四中学（高中部）", "category": "school", "poi_type": "sensitive", "tags": {"amenity": "school", "name": "北京市第十四中学（高中部）"}}, "geometry": {"type": "Point", "coordinates": [116.3321976, 39.8901627]}}, {"type": "Feature", "properties": {"osm_id": 653301816, "name": "宣武外国语实验学校", "category": "school", "poi_type": "sensitive", "tags": {"amenity": "school", "name": "宣武外国语实验学校"}}, "geometry": {"type": "Point", "coordinates": [116.3223777, 39.8903689]}}, {"type": "Feature", "properties": {"osm_id": 653301817, "name": "北京市第四幼儿园", "category": "kindergarten", "poi_type": "sensitive", "tags": {"amenity": "kindergarten", "name": "北京市第四幼儿园"}}, "geometry": {"type": "Point", "coordinates": [116.3215659, 39.8901884]}}, {"type": "Feature", "properties": {"osm_id": 655151423, "name": "中国人民解放军总医院第四医学中心", "category": "hospital", "poi_type": "sensitive", "tags": {"amenity": "hospital", "name": "中国人民解放军总医院第四医学中心", "name:zh": "中国人民解放军总医院第四医学中心"}}, "geometry": {"type": "Point", "coordinates": [116.2988449, 39.924193]}}, {"type": "Feature", "properties": {"osm_id": 655151424, "name": "中国人民解放军空军特色医学中心", "category": "hospital", "poi_type": "sensitive", "tags": {"amenity": "hospital", "name": "中国人民解放军空军特色医学中心", "name:en": "Air Force Medical Center of the Chinese People's Liberation Army"}}, "geometry": {"type": "Point", "coordinates": [116.2953481, 39.9204055]}}, {"type": "Feature", "properties": {"osm_id": 655151425, "name": "中国人民解放军总医院第六医学中心", "category": "hospital", "poi_type": "sensitive", "tags": {"amenity": "hospital", "name": "中国人民解放军总医院第六医学中心"}}, "geometry": {"type": "Point", "coordinates": [116.3173934, 39.9205574]}}, {"type": "Feature", "properties": {"osm_id": 655151427, "name": "中国人民解放军总医院第七医学中心", "category": "hospital", "poi_type": "sensitive", "tags": {"amenity": "hospital", "name": "中国人民解放军总医院第七医学中心"}}, "geometry": {"type": "Point", "coordinates": [116.4225294, 39.9297072]}}, {"type": "Feature", "properties": {"osm_id": 655151428, "name": "中国人民解放军总医院第七医学中心（东院）", "category": "hospital", "poi_type": "sensitive", "tags": {"amenity": "hospital", "building": "yes", "name": "中国人民解放军总医院第七医学中心（东院）"}}, "geometry": {"type": "Point", "coordinates": [116.4639181, 39.9400124]}}, {"type": "Feature", "properties": {"osm_id": 655152182, "name": "中国人民大学附属中学翠微学校初中部", "category": "school", "poi_type": "sensitive", "tags": {"amenity": "school", "name": "中国人民大学附属中学翠微学校初中部"}}, "geometry": {"type": "Point", "coordinates": [116.3020918, 39.9102898]}}, {"type": "Feature", "properties": {"osm_id": 655155950, "name": "空军航空医学研究所附属医院", "category": "hospital", "poi_type": "sensitive", "tags": {"amenity": "hospital", "name": "空军航空医学研究所附属医院"}}, "geometry": {"type": "Point", "coordinates": [116.300922, 39.9396296]}}, {"type": "Feature", "properties": {"osm_id": 655285689, "name": "北京市自忠小学（长安校区）", "category": "school", "poi_type": "sensitive", "tags": {"amenity": "school", "name": "北京市自忠小学（长安校区）"}}, "geometry": {"type": "Point", "coordinates": [116.3799131, 39.9032742]}}, {"type": "Feature", "properties": {"osm_id": 655287747, "name": "北京师范大学附属中学", "category": "school", "poi_type": "sensitive", "tags": {"amenity": "school", "name": "北京师范大学附属中学"}}, "geometry": {"type": "Point", "coordinates": [116.3793934, 39.8962916]}}, {"type": "Feature", "properties": {"osm_id": 655287748, "name": "北京师范大学附属中学（西校区）", "category": "school", "poi_type": "sensitive", "tags": {"amenity": "school", "name": "北京师范大学附属中学（西校区）"}}, "geometry": {"type": "Point", "coordinates": [116.3764058, 39.8966107]}}, {"type": "Feature", "properties": {"osm_id": 655287749, "name": "北京第一实验小学", "category": "school", "poi_type": "sensitive", "tags": {"amenity": "school", "name": "北京第一实验小学"}}, "geometry": {"type": "Point", "coordinates": [116.3769099, 39.8956035]}}, {"type": "Feature", "properties": {"osm_id": 655287763, "name": "北京市健宫医院", "category": "hospital", "poi_type": "sensitive", "tags": {"amenity": "hospital", "name": "北京市健宫医院"}}, "geometry": {"type": "Point", "coordinates": [116.3693789, 39.8794412]}}, {"type": "Feature", "properties": {"osm_id": 655287764, "name": "北京市第十五中学高中部", "category": "school", "poi_type": "sensitive", "tags": {"amenity": "school", "name": "北京市第十五中学高中部"}}, "geometry": {"type": "Point", "coordinates": [116.3698072, 39.8754783]}}, {"type": "Feature", "properties": {"osm_id": 656808582, "name": "北京明天幼稚集团第一幼儿园", "category": "kindergarten", "poi_type": "sensitive", "tags": {"amenity": "kindergarten", "name": "北京明天幼稚集团第一幼儿园", "name:zh": "北京明天幼稚集团第一幼儿园"}}, "geometry": {"type": "Point", "coordinates": [116.3542197, 39.9775724]}}, {"type": "Feature", "properties": {"osm_id": 656808583, "name": "海淀区九一小学", "category": "school", "poi_type": "sensitive", "tags": {"amenity": "school", "name": "海淀区九一小学", "name:zh": "海淀区九一小学"}}, "geometry": {"type": "Point", "coordinates": [116.3558655, 39.9779193]}}, {"type": "Feature", "properties": {"osm_id": 656808584, "name": "九一幼儿园", "category": "kindergarten", "poi_type": "sensitive", "tags": {"amenity": "kindergarten", "name": "九一幼儿园", "name:zh": "九一幼儿园"}}, "geometry": {"type": "Point", "coordinates": [116.3572221, 39.9781964]}}, {"type": "Feature", "properties": {"osm_id": 657002507, "name": "北京师范大学附属幼儿园", "category": "kindergarten", "poi_type": "sensitive", "tags": {"amenity": "kindergarten", "name": "北京师范大学附属幼儿园", "name:zh": "北京师范大学附属幼儿园"}}, "geometry": {"type": "Point", "coordinates": [116.3594582, 39.9619315]}}, {"type": "Feature", "properties": {"osm_id": 658253345, "name": "北京市信息管理学校（花园路校区）", "category": "school", "poi_type": "sensitive", "tags": {"amenity": "school", "name": "北京市信息管理学校（花园路校区）", "name:zh": "北京市信息管理学校（花园路校区）"}}, "geometry": {"type": "Point", "coordinates": [116.3568925, 39.9759914]}}, {"type": "Feature", "properties": {"osm_id": 658381638, "name": "太月园幼儿园", "category": "kindergarten", "poi_type": "sensitive", "tags": {"amenity": "kindergarten", "name": "太月园幼儿园"}}, "geometry": {"type": "Point", "coordinates": [116.3419071, 39.9714527]}}, {"type": "Feature", "properties": {"osm_id": 658979755, "name": "北京大学肿瘤医院", "category": "hospital", "poi_type": "sensitive", "tags": {"amenity": "hospital", "name": "北京大学肿瘤医院", "name:en": "Peking University Cancer Hospital"}}, "geometry": {"type": "Point", "coordinates": [116.2836386, 39.9215853]}}, {"type": "Feature", "properties": {"osm_id": 669450401, "name": "中国人民大学附属中学朝阳分校", "category": "school", "poi_type": "sensitive", "tags": {"amenity": "school", "name": "中国人民大学附属中学朝阳分校"}}, "geometry": {"type": "Point", "coordinates": [116.440757, 39.9753065]}},