{"elements": [{"type": "node", "id": 793565812, "lat": 29.564112, "lon": 106.5658287, "tags": {"amenity": "restaurant", "cuisine": "mongolian"}}, {"type": "node", "id": 1633754235, "lat": 29.536844, "lon": 106.5062977, "tags": {"amenity": "restaurant", "fast_food": "cafeteria", "name": "学生二食堂"}}, {"type": "node", "id": 1633754248, "lat": 29.53711, "lon": 106.5038834, "tags": {"amenity": "restaurant", "fast_food": "cafeteria", "name": "学生一食堂"}}, {"type": "node", "id": 1866825426, "lat": 29.5569458, "lon": 106.5672003, "tags": {"name": "Lotus", "opening_hours": "Mo-Su 08:00-22:00", "shop": "supermarket"}}, {"type": "node", "id": 1866825427, "lat": 29.5568539, "lon": 106.5703877, "tags": {"branch": "Yonghui Supermarket", "brand": "永辉超市", "brand:en": "Yonghui Superstores", "brand:wikidata": "Q17028520", "brand:wikipedia": "zh:永辉超市", "brand:zh": "永辉超市", "name": "永辉超市", "name:en": "Yonghui Superstores", "name:zh": "永辉超市", "shop": "supermarket"}}, {"type": "node", "id": 2392272773, "lat": 29.5628926, "lon": 106.5752645, "tags": {"addr:city": "Chongqing", "addr:postcode": "400000", "amenity": "cafe", "brand": "星巴克", "brand:en": "Starbucks", "brand:wikidata": "Q37158", "brand:wikipedia": "zh:星巴克", "brand:zh": "星巴克", "cuisine": "coffee_shop", "name": "星巴克", "name:en": "Starbucks", "name:zh": "星巴克", "takeaway": "yes"}}, {"type": "node", "id": 2392272774, "lat": 29.559743, "lon": 106.5732221, "tags": {"addr:city": "Chongqing", "addr:postcode": "400000", "addr:street": "民族路 Minzu Road", "amenity": "fast_food", "brand": "肯德基", "brand:en": "KFC", "brand:wikidata": "Q524757", "brand:wikipedia": "zh:肯德基", "brand:zh": "肯德基", "cuisine": "chicken", "name": "肯德基", "name:en": "KFC", "name:zh": "肯德基", "takeaway": "yes"}}, {"type": "node", "id": 2392272776, "lat": 29.56179, "lon": 106.5728469, "tags": {"addr:city": "Chongqing", "addr:postcode": "400000", "amenity": "fast_food", "brand": "乡村基", "brand:en": "CSC", "brand:wikidata": "Q16510256", "brand:zh": "乡村基", "cuisine": "chicken", "name": "乡村基", "name:en": "CSC", "name:zh": "乡村基", "takeaway": "yes"}}, {"type": "node", "id": 2392272778, "lat": 29.5595365, "lon": 106.570922, "tags": {"addr:city": "Chongqing", "addr:postcode": "400000", "addr:street": "中华路 Zhonghua Road", "amenity": "cafe", "brand": "星巴克", "brand:en": "Starbucks", "brand:wikidata": "Q37158", "brand:wikipedia": "zh:星巴克", "brand:zh": "星巴克", "cuisine": "coffee_shop", "name": "星巴克", "name:en": "Starbucks", "name:zh": "星巴克", "takeaway": "yes"}}, {"type": "node", "id": 2392272779, "lat": 29.5647644, "lon": 106.5748846, "tags": {"addr:city": "Chongqing", "addr:housename": "Hongyadong", "addr:postcode": "400000", "amenity": "cafe", "brand": "星巴克", "brand:en": "Starbucks", "brand:wikidata": "Q37158", "brand:wikipedia": "zh:星巴克", "brand:zh": "星巴克", "cuisine": "coffee_shop", "name": "星巴克", "name:en": "Starbucks", "name:zh": "星巴克", "official_name": "Starbucks Coffee", "takeaway": "yes"}}, {"type": "node", "id": 2392272780, "lat": 29.5649363, "lon": 106.5749241, "tags": {"addr:city": "Chongqing", "addr:housename": "Hongyadong", "addr:postcode": "400000", "amenity": "fast_food", "brand": "赛百味", "brand:en": "Subway", "brand:wikidata": "Q244457", "brand:wikipedia": "zh:赛百味", "brand:zh": "赛百味", "cuisine": "sandwich", "name": "赛百味", "name:en": "Subway", "name:zh": "赛百味", "takeaway": "yes"}}, {"type": "node", "id": 3998410113, "lat": 29.5564205, "lon": 106.5738218, "tags": {"brand": "罗森", "brand:en": "LAWSON", "brand:wikidata": "Q1557223", "brand:zh": "罗森", "name": "罗森", "name:en": "Lawson", "name:zh": "罗森", "opening_hours": "24 Hours", "operator": "罗森（中国）投资有限公司", "shop": "convenience"}}, {"type": "node", "id": 3998410115, "lat": 29.5586958, "lon": 106.5719312, "tags": {"name": "新世界超市", "name:en": "Xin Shijie Supermarket", "name:zh": "新世界超市", "shop": "supermarket"}}, {"type": "node", "id": 4135242190, "lat": 29.5585357, "lon": 106.5726563, "tags": {"amenity": "cafe", "brand": "太平洋咖啡", "brand:en": "Pacific Coffee", "brand:wikidata": "Q7122398", "brand:wikipedia": "en:Pacific Coffee", "brand:zh": "太平洋咖啡", "cuisine": "coffee_shop", "name": "太平洋咖啡", "name:en": "Pacific Coffee", "name:zh": "太平洋咖啡", "takeaway": "yes"}}, {"type": "node", "id": 4139797189, "lat": 29.5572735, "lon": 106.550121, "tags": {"shop": "supermarket"}}, {"type": "node", "id": 4139951894, "lat": 29.5613194, "lon": 106.5759595, "tags": {"brand": "7-Eleven", "brand:wikidata": "Q259340", "brand:wikipedia": "en:7-Eleven", "name": "7-Eleven", "shop": "convenience"}}, {"type": "node", "id": 4139951895, "lat": 29.561847, "lon": 106.5759284, "tags": {"amenity": "restaurant", "cuisine": "hotpot", "name": "火锅米线飞"}}, {"type": "node", "id": 4139951904, "lat": 29.5616229, "lon": 106.5729567, "tags": {"brand": "7-Eleven", "brand:wikidata": "Q259340", "brand:wikipedia": "en:7-Eleven", "name": "7-Eleven", "opening_hours": "24/7", "shop": "convenience"}}, {"type": "node", "id": 4139951905, "lat": 29.5618125, "lon": 106.5727336, "tags": {"name": "鲜果优", "name:en": "Freshmix", "shop": "convenience"}}, {"type": "node", "id": 4139951953, "lat": 29.5620146, "lon": 106.5745456, "tags": {"name": "王府井百货", "shop": "mall"}}, {"type": "node", "id": 4139951954, "lat": 29.562156, "lon": 106.5753025, "tags": {"amenity": "restaurant", "brand": "必胜客", "brand:en": "Pizza Hut", "brand:wikidata": "Q191615", "brand:wikipedia": "en:Pizza Hut", "brand:zh": "必胜客", "cuisine": "pizza", "name": "必胜客", "name:en": "Pizza Hut", "name:zh": "必胜客"}}, {"type": "node", "id": 4139951983, "lat": 29.5585258, "lon": 106.5740459, "tags": {"amenity": "restaurant", "name": "丘二馆"}}, {"type": "node", "id": 4139952092, "lat": 29.5578894, "lon": 106.5722251, "tags": {"name": "瑞富购物中心", "shop": "mall"}}, {"type": "node", "id": 4143850847, "lat": 29.5606968, "lon": 106.552687, "tags": {"amenity": "restaurant", "name": "段记烤鱼"}}, {"type": "node", "id": 4150419392, "lat": 29.5607251, "lon": 106.5727097, "tags": {"amenity": "cafe", "brand": "星巴克", "brand:en": "Starbucks", "brand:wikidata": "Q37158", "brand:wikipedia": "zh:星巴克", "brand:zh": "星巴克", "cuisine": "coffee_shop", "name": "星巴克", "name:en": "Starbucks", "name:zh": "星巴克", "takeaway": "yes"}}, {"type": "node", "id": 4150438789, "lat": 29.5605566, "lon": 106.572282, "tags": {"amenity": "fast_food", "brand": "汉堡王", "brand:en": "Burger King", "brand:wikidata": "Q177054", "brand:wikipedia": "zh:漢堡王", "brand:zh": "汉堡王", "cuisine": "burger", "description": "Located in basement below Apple Store", "level": "Basement", "name": "汉堡王", "name:en": "Burger King", "name:zh": "汉堡王", "takeaway": "yes"}}, {"type": "node", "id": 4208598732, "lat": 29.5565486, "lon": 106.5721618, "tags": {"amenity": "fast_food", "brand": "肯德基", "brand:en": "KFC", "brand:wikidata": "Q524757", "brand:wikipedia": "zh:肯德基", "brand:zh": "肯德基", "cuisine": "chicken", "name": "肯德基", "name:en": "KFC", "name:zh": "肯德基", "takeaway": "yes"}}, {"type": "node", "id": 4208598806, "lat": 29.5579454, "lon": 106.573319, "tags": {"amenity": "cafe", "brand": "太平洋咖啡", "brand:en": "Pacific Coffee", "brand:wikidata": "Q7122398", "brand:wikipedia": "en:Pacific Coffee", "brand:zh": "太平洋咖啡", "cuisine": "coffee_shop", "name": "太平洋咖啡", "name:en": "Pacific Coffee", "name:zh": "太平洋咖啡", "takeaway": "yes"}}, {"type": "node", "id": 4208598808, "lat": 29.5577504, "lon": 106.5732455, "tags": {"amenity": "fast_food", "brand": "德克士", "brand:en": "Dicos", "brand:wikidata": "Q5273883", "brand:wikipedia": "zh:德克士", "brand:zh": "德克士", "cuisine": "burger;chicken", "name": "德克士", "name:en": "Dicos", "name:zh": "德克士", "takeaway": "yes"}}, {"type": "node", "id": 4460519589, "lat": 29.5586155, "lon": 106.5800949, "tags": {"amenity": "restaurant", "cuisine": "chinese;regional", "name": "赵二火锅总店", "name:en": "Zhao Er Huo Guo Zong Dian"}}, {"type": "node", "id": 4813310823, "lat": 29.557497, "lon": 106.5688207, "tags": {"addr:street": "石灰市", "amenity": "restaurant", "cuisine": "japanese;sushi", "name:en": "Japanese Restaurant"}}, {"type": "node", "id": 5211342422, "lat": 29.5521346, "lon": 106.5671834, "tags": {"amenity": "restaurant"}}, {"type": "node", "id": 5341106732, "lat": 29.5433318, "lon": 106.5122593, "tags": {"amenity": "cafe", "brand": "星巴克", "brand:en": "Starbucks", "brand:wikidata": "Q37158", "brand:wikipedia": "zh:星巴克", "brand:zh": "星巴克", "cuisine": "coffee_shop", "name": "星巴克", "name:en": "Starbucks", "name:zh": "星巴克", "takeaway": "yes"}}, {"type": "node", "id": 5458158321, "lat": 29.5631829, "lon": 106.5682423, "tags": {"amenity": "restaurant", "name": "齊齊鱔魚火鍋", "phone": "+86 23 6372 2578"}}, {"type": "node", "id": 5706998452, "lat": 29.5540028, "lon": 106.5747208, "tags": {"amenity": "fast_food", "name:en": "Burger King"}}, {"type": "node", "id": 5706999243, "lat": 29.5568638, "lon": 106.5492318, "tags": {"name:en": "OurHours", "shop": "convenience"}}, {"type": "node", "id": 5707000124, "lat": 29.562841, "lon": 106.5640575, "tags": {"shop": "convenience"}}, {"type": "node", "id": 5915047285, "lat": 29.5630822, "lon": 106.5742639, "tags": {"amenity": "fast_food", "brand": "赛百味", "brand:en": "Subway", "brand:wikidata": "Q244457", "brand:wikipedia": "zh:赛百味", "brand:zh": "赛百味", "cuisine": "sandwich", "name": "赛百味", "name:de": "Subway", "name:en": "Subway", "name:es": "Subway", "name:fr": "Subway", "name:zh": "赛百味", "takeaway": "yes"}}, {"type": "node", "id": 6874556527, "lat": 29.5646924, "lon": 106.5431571, "tags": {"brand": "罗森", "brand:en": "LAWSON", "brand:wikidata": "Q1557223", "brand:wikipedia": "en:Lawson (store)", "brand:zh": "罗森", "name": "罗森", "name:en": "Lawson", "name:zh": "罗森", "operator": "罗森（中国）投资有限公司", "shop": "convenience"}}, {"type": "node", "id": 6874569386, "lat": 29.5612466, "lon": 106.5756869, "tags": {"brand": "罗森", "brand:en": "LAWSON", "brand:wikidata": "Q1557223", "brand:wikipedia": "en:Lawson (store)", "brand:zh": "罗森", "name": "罗森", "name:en": "LAOSON", "name:zh": "罗森", "operator": "罗森（中国）投资有限公司", "shop": "convenience"}}, {"type": "node", "id": 6874569387, "lat": 29.5610483, "lon": 106.5751398, "tags": {"amenity": "fast_food", "brand": "麦当劳", "brand:en": "McDonald's", "brand:wikidata": "Q38076", "brand:zh": "麦当劳", "cuisine": "burger", "name": "麦当劳", "name:en": "McDonald's", "name:zh": "麦当劳", "takeaway": "yes"}}, {"type": "node", "id": 7544707416, "lat": 29.5681182, "lon": 106.5841688, "tags": {"amenity": "restaurant", "brand": "海底捞火锅", "brand:en": "Haidilao Hot Pot", "brand:wikidata": "Q5638920", "brand:wikipedia": "zh:海底捞", "brand:zh": "海底捞火锅", "brand:zh-Hans": "海底捞火锅", "brand:zh-Hant": "海底撈火鍋", "cuisine": "chinese;hot_pot", "name": "海底捞火锅", "name:en": "Haidilao Hot Pot", "name:zh": "海底捞火锅", "name:zh-Hans": "海底捞火锅", "name:zh-Hant": "海底撈火鍋"}}, {"type": "node", "id": 7570757992, "lat": 29.5651882, "lon": 106.5734875, "tags": {"amenity": "restaurant"}}, {"type": "node", "id": 7578168406, "lat": 29.562419, "lon": 106.5747251, "tags": {"amenity": "restaurant", "brand": "必胜客", "brand:en": "Pizza Hut", "brand:wikidata": "Q191615", "brand:wikipedia": "en:Pizza Hut", "brand:zh": "必胜客", "cuisine": "pizza", "name": "必胜客", "name:en": "Pizza Hut", "name:zh": "必胜客"}}, {"type": "node", "id": 7578200726, "lat": 29.5612845, "lon": 106.5731594, "tags": {"amenity": "cafe", "brand": "星巴克", "brand:en": "Starbucks", "brand:wikidata": "Q37158", "brand:wikipedia": "zh:星巴克", "brand:zh": "星巴克", "cuisine": "coffee_shop", "name": "星巴克", "name:en": "Starbucks", "name:zh": "星巴克", "takeaway": "yes"}}, {"type": "node", "id": 7578235325, "lat": 29.5612961, "lon": 106.5726636, "tags": {"amenity": "cafe", "brand": "喜茶", "brand:en": "Heytea", "brand:wikidata": "Q60875376", "brand:wikipedia": "zh:喜茶", "brand:zh": "喜茶", "cuisine": "bubble_tea", "name": "喜茶", "name:en": "Heytea", "name:zh": "喜茶", "takeaway": "yes"}}, {"type": "node", "id": 8106182183, "lat": 29.5644556, "lon": 106.5810661, "tags": {"amenity": "marketplace", "name": "大正小商品市场", "name:en": "Taisho Market"}}, {"type": "node", "id": 8106182214, "lat": 29.5641069, "lon": 106.5821014, "tags": {"name": "天门商场", "name:en": "Tianmen Mall", "shop": "mall"}}, {"type": "node", "id": 8441264117, "lat": 29.563061, "lon": 106.5677518, "tags": {"amenity": "restaurant", "cuisine": "chinese", "name": "夜福火锅", "name:en": "Fuye Hot Pot"}}, {"type": "node", "id": 8574694267, "lat": 29.5608799, "lon": 106.5429215, "tags": {"level": "-1", "name": "新世纪百货", "shop": "convenience"}}, {"type": "node", "id": 8574694276, "lat": 29.5613507, "lon": 106.543774, "tags": {"amenity": "restaurant", "cuisine": "hotpot", "name": "陈姐老火锅", "opening_hours": "11:00-23:00", "phone": "+86 23 6386 2568"}}, {"type": "node", "id": 8574694277, "lat": 29.5614092, "lon": 106.5438755, "tags": {"amenity": "restaurant", "cuisine": "cake", "name": "莱得快"}}, {"type": "node", "id": 8574694279, "lat": 29.5615359, "lon": 106.5442702, "tags": {"name": "粗布印象", "opening_hours": "10:00-21:00", "shop": "convenience"}}, {"type": "node", "id": 8574694309, "lat": 29.5611229, "lon": 106.5433757, "tags": {"amenity": "restaurant", "cuisine": "noodle", "name": "水城特色羊肉粉"}}, {"type": "node", "id": 8574694315, "lat": 29.5612698, "lon": 106.5434203, "tags": {"addr:housenumber": "48号", "addr:street": "美专校街", "amenity": "fast_food", "name": "吉友豆花饭", "opening_hours": "10:00-23:30"}}, {"type": "node", "id": 8574694316, "lat": 29.5613144, "lon": 106.5435721, "tags": {"amenity": "restaurant", "cuisine": "chinese", "name": "鼎锅羊鼎食居", "phone": "+86 151 2394 9466"}}, {"type": "node", "id": 8574699817, "lat": 29.5613193, "lon": 106.5436356, "tags": {"amenity": "restaurant", "name": "周家大连水饺", "phone": "+86 23 6389 1661"}}, {"type": "node", "id": 8574699851, "lat": 29.5611181, "lon": 106.543059, "tags": {"addr:street": "美专校街", "name": "新世纪百货", "phone": "+86 23 8903 3772", "shop": "convenience"}}, {"type": "node", "id": 8575296570, "lat": 29.5616432, "lon": 106.5438833, "tags": {"amenity": "fast_food", "name": "华莱士汉堡店", "phone": "+86 150 2313 6748"}}, {"type": "node", "id": 8575296573, "lat": 29.5616887, "lon": 106.5440355, "tags": {"amenity": "restaurant", "name": "长寿肥肠饭", "phone": "+86 137 0833 2166"}}, {"type": "node", "id": 8575296574, "lat": 29.5616974, "lon": 106.5440825, "tags": {"amenity": "restaurant", "name": "绝味鸭脖", "phone": "+86 185 8104 8937"}}, {"type": "node", "id": 8575296576, "lat": 29.5616315, "lon": 106.5438049, "tags": {"amenity": "restaurant", "name": "董记山城碗碗香"}}, {"type": "node", "id": 8575594497, "lat": 29.5628599, "lon": 106.5796204, "tags": {"name": "海宁皮草城", "shop": "convenience"}}, {"type": "node", "id": 11392171669, "lat": 29.5623627, "lon": 106.5486765, "tags": {"name": "学田湾大阳沟菜市场", "shop": "supermarket"}}, {"type": "node", "id": 11401036652, "lat": 29.5552898, "lon": 106.5388549, "tags": {"name": "群益便利店", "shop": "convenience"}}, {"type": "node", "id": 11403386223, "lat": 29.5555746, "lon": 106.5711526, "tags": {"amenity": "restaurant", "cuisine": "重庆", "description": "老重庆拌菜。", "name": "饭粑砣"}}, {"type": "node", "id": 11727734283, "lat": 29.5642767, "lon": 106.5701491, "tags": {"shop": "convenience"}}, {"type": "node", "id": 11727734305, "lat": 29.5645323, "lon": 106.5747067, "tags": {"amenity": "cafe", "cuisine": "bubble_tea", "name": "一只酸奶牛"}}, {"type": "node", "id": 11860293363, "lat": 29.5512587, "lon": 106.5285349, "tags": {"name": "8号便利店", "shop": "convenience"}}, {"type": "node", "id": 11994722905, "lat": 29.5519185, "lon": 106.494108, "tags": {"amenity": "restaurant", "name": "虎头岩社区食堂", "opening_hours": "Mo-Su 07:50-09:00,11:15-13:00,17:30-19:30"}}, {"type": "node", "id": 12020336069, "lat": 29.5575816, "lon": 106.5617819, "tags": {"name": "Galerie ROBINSON", "shop": "supermarket"}}, {"type": "node", "id": 12118263960, "lat": 29.5508473, "lon": 106.5266725, "tags": {"amenity": "cafe", "name": "憩茶"}}, {"type": "node", "id": 12249097578, "lat": 29.5398478, "lon": 106.5064028, "tags": {"amenity": "restaurant", "name": "林食天便当(时代天街店)"}}, {"type": "node", "id": 12250851023, "lat": 29.5634874, "lon": 106.5781036, "tags": {"amenity": "restaurant", "level": "3", "name": "唐不甜老火锅"}}, {"type": "node", "id": 12293982274, "lat": 29.5633115, "lon": 106.5841954, "tags": {"name": "陌宁便利店", "shop": "convenience"}}, {"type": "node", "id": 12294008827, "lat": 29.5532033, "lon": 106.5742897, "tags": {"amenity": "restaurant", "name": "沙县小吃"}}, {"type": "node", "id": 12294008828, "lat": 29.553237, "lon": 106.5742836, "tags": {"amenity": "restaurant", "name": "碗碗菜"}}, {"type": "node", "id": 12294008829, "lat": 29.5531721, "lon": 106.5743014, "tags": {"amenity": "restaurant", "cuisine": "noodle", "name": "重庆特色小面"}}, {"type": "node", "id": 12369673111, "lat": 29.5519775, "lon": 106.4900138, "tags": {"amenity": "restaurant", "cuisine": "noodle", "name": "太山小馆"}}, {"type": "node", "id": 12369673112, "lat": 29.551968, "lon": 106.4900144, "tags": {"name": "可购", "shop": "convenience"}}, {"type": "node", "id": 12369673113, "lat": 29.5520052, "lon": 106.4900142, "tags": {"name": "非凡生鲜", "shop": "supermarket"}}, {"type": "node", "id": 12369673125, "lat": 29.5442576, "lon": 106.5217154, "tags": {"amenity": "fast_food", "brand": "乡村基", "brand:en": "CSC", "brand:wikidata": "Q16510256", "brand:zh": "乡村基", "cuisine": "chicken", "name": "乡村基", "name:en": "CSC", "name:zh": "乡村基", "takeaway": "yes"}}, {"type": "node", "id": 12390055750, "lat": 29.5402172, "lon": 106.5069527, "tags": {"amenity": "cafe", "brand": "瑞幸咖啡", "brand:en": "Luckin Coffee", "brand:wikidata": "Q56811344", "brand:zh": "瑞幸咖啡", "cuisine": "coffee_shop", "name": "瑞幸咖啡", "name:en": "Luckin Coffee", "name:zh": "瑞幸咖啡", "takeaway": "yes"}}, {"type": "node", "id": 12466822116, "lat": 29.5587455, "lon": 106.5424973, "tags": {"shop": "convenience"}}, {"type": "node", "id": 12605650409, "lat": 29.5623548, "lon": 106.5755179, "tags": {"amenity": "cafe", "name": "ARTEASG"}}, {"type": "node", "id": 12614292953, "lat": 29.5434268, "lon": 106.512743, "tags": {"brand": "罗森", "brand:en": "LAWSON", "brand:wikidata": "Q1557223", "brand:zh": "罗森", "name": "罗森", "name:en": "Lawson", "name:zh": "罗森", "operator": "罗森（中国）投资有限公司", "shop": "convenience"}}, {"type": "node", "id": 12730545125, "lat": 29.5596529, "lon": 106.5690407, "tags": {"amenity": "cafe", "branch": "解放碑鲁祖庙店", "brand": "星巴克", "brand:en": "Starbucks", "brand:wikidata": "Q37158", "brand:zh": "星巴克", "cuisine": "coffee_shop", "name": "星巴克", "name:en": "Starbucks", "name:zh": "星巴克", "outdoor_seating": "yes", "takeaway": "yes"}}, {"type": "node", "id": 12757577473, "lat": 29.5413008, "lon": 106.5064364, "tags": {"amenity": "cafe", "branch": "时代天街店", "brand": "星巴克", "brand:en": "Starbucks", "brand:wikidata": "Q37158", "brand:zh": "星巴克", "cuisine": "coffee_shop", "name": "星巴克", "name:en": "Starbucks", "name:zh": "星巴克", "outdoor_seating": "yes", "takeaway": "yes"}}, {"type": "node", "id": 13043924056, "lat": 29.5529273, "lon": 106.5339648, "tags": {"amenity": "restaurant"}}, {"type": "node", "id": 13044115129, "lat": 29.5528836, "lon": 106.5335303, "tags": {"amenity": "cafe"}}, {"type": "node", "id": 13147469058, "lat": 29.5643159, "lon": 106.5432139, "tags": {"shop": "convenience"}}, {"type": "node", "id": 13147493223, "lat": 29.5641521, "lon": 106.547859, "tags": {"amenity": "fast_food", "brand": "汉堡王", "brand:en": "Burger King", "brand:wikidata": "Q177054", "brand:zh": "汉堡王", "cuisine": "burger", "name": "汉堡王", "name:en": "Burger King", "name:zh": "汉堡王", "takeaway": "yes"}}, {"type": "node", "id": 13147494405, "lat": 29.5588877, "lon": 106.5668678, "tags": {"amenity": "fast_food", "cuisine": "porridge"}}, {"type": "node", "id": 13147598156, "lat": 29.5649164, "lon": 106.5432079, "tags": {"amenity": "cafe", "brand": "星巴克", "brand:en": "Starbucks", "brand:wikidata": "Q37158", "brand:zh": "星巴克", "cuisine": "coffee_shop", "name": "星巴克", "name:en": "Starbucks", "name:zh": "星巴克", "takeaway": "yes"}}, {"type": "node", "id": 13147604538, "lat": 29.5654536, "lon": 106.5433202, "tags": {"amenity": "fast_food", "cuisine": "chinese", "name": "Jiuyan"}}, {"type": "node", "id": 13147686441, "lat": 29.5599908, "lon": 106.5784607, "tags": {"shop": "convenience"}}, {"type": "node", "id": 13232880677, "lat": 29.5552188, "lon": 106.5445702, "tags": {"addr:housenumber": "5-6号", "addr:street": "长江一路", "amenity": "restaurant", "branch": "长江路总店", "name": "金香译江湖菜", "opening_hours": "10:00-23:00"}}, {"type": "node", "id": 13232880678, "lat": 29.5551505, "lon": 106.5452492, "tags": {"amenity": "restaurant", "name": "万州杂酱面"}}, {"type": "node", "id": 13232880679, "lat": 29.5551341, "lon": 106.5450958, "tags": {"amenity": "restaurant", "name": "渝乐居手工馄饨"}}, {"type": "node", "id": 13232883806, "lat": 29.5551687, "lon": 106.5426321, "tags": {"amenity": "cafe", "name": "第四人民医院咖啡吧"}}, {"type": "node", "id": 13273833642, "lat": 29.5631432, "lon": 106.5716854, "tags": {"amenity": "restaurant"}}, {"type": "node", "id": 13273874328, "lat": 29.5616429, "lon": 106.5769291, "tags": {"amenity": "cafe", "brand": "霸王茶姬", "brand:en": "Chagee", "brand:wikidata": "Q125052867", "brand:zh": "霸王茶姬", "cuisine": "bubble_tea", "name": "霸王茶姬", "name:en": "Chagee", "name:zh": "霸王茶姬", "takeaway": "yes"}}, {"type": "node", "id": 13286348301, "lat": 29.5596969, "lon": 106.570811, "tags": {"brand": "罗森", "brand:en": "LAWSON", "brand:wikidata": "Q1557223", "brand:zh": "罗森", "name": "罗森", "name:en": "Lawson", "name:zh": "罗森", "opening_hours": "24/7", "operator": "罗森（中国）投资有限公司", "shop": "convenience"}}, {"type": "node", "id": 13286382802, "lat": 29.5565776, "lon": 106.5676134, "tags": {"name": "Busy For You (Snacks)", "shop": "convenience"}}, {"type": "node", "id": 13286392201, "lat": 29.5600341, "lon": 106.5738632, "tags": {"amenity": "fast_food", "brand": "麦当劳", "brand:en": "McDonald's", "brand:wikidata": "Q38076", "brand:zh": "麦当劳", "cuisine": "burger", "name": "麦当劳", "name:en": "McDonald's", "name:zh": "麦当劳", "opening_hours": "Mo-Su 07:00-00:00", "takeaway": "yes"}}, {"type": "node", "id": 13286433801, "lat": 29.5583132, "lon": 106.5714928, "tags": {"brand": "罗森", "brand:en": "LAWSON", "brand:wikidata": "Q1557223", "brand:zh": "罗森", "name": "罗森", "name:en": "Lawson", "name:zh": "罗森", "operator": "罗森（中国）投资有限公司", "shop": "convenience"}}, {"type": "node", "id": 13288458501, "lat": 29.5625113, "lon": 106.5749801, "tags": {"amenity": "fast_food", "brand": "麦当劳", "brand:en": "McDonald's", "brand:wikidata": "Q38076", "brand:zh": "麦当劳", "cuisine": "burger", "name": "麦当劳", "name:en": "McDonald's", "name:zh": "麦当劳", "opening_hours": "Mo-Su 08:00-23:00", "takeaway": "yes"}}, {"type": "node", "id": 13446342349, "lat": 29.558903, "lon": 106.5753162, "tags": {"amenity": "cafe", "cuisine": "local", "name": "Few cafes with noodles and dumplings"}}, {"type": "node", "id": 13447856001, "lat": 29.5577173, "lon": 106.5502329, "tags": {"amenity": "cafe", "name": "noodles"}}, {"type": "node", "id": 13448014935, "lat": 29.5529913, "lon": 106.5297988, "tags": {"amenity": "cafe"}}, {"type": "node", "id": 13448014943, "lat": 29.5532126, "lon": 106.5296999, "tags": {"amenity": "cafe"}}, {"type": "node", "id": 13449332601, "lat": 29.5637214, "lon": 106.5759912, "tags": {"amenity": "cafe"}}, {"type": "node", "id": 13449374301, "lat": 29.5567879, "lon": 106.5753194, "tags": {"amenity": "cafe"}}, {"type": "node", "id": 13450464801, "lat": 29.5610615, "lon": 106.5703533, "tags": {"amenity": "cafe", "name": "Noodles"}}, {"type": "node", "id": 13452805401, "lat": 29.5652308, "lon": 106.578907, "tags": {"amenity": "cafe"}}, {"type": "node", "id": 13513877201, "lat": 29.5676053, "lon": 106.5469661, "tags": {"amenity": "restaurant", "name:en": "Double noodles"}}, {"type": "node", "id": 13514054201, "lat": 29.5523257, "lon": 106.5685319, "tags": {"amenity": "cafe", "name": "Yun Tai Tea"}}, {"type": "node", "id": 13518833901, "lat": 29.5677301, "lon": 106.5457628, "tags": {"amenity": "cafe", "name": "No 85 Creative Mansion Café"}}, {"type": "node", "id": 13518920301, "lat": 29.5532933, "lon": 106.5299423, "tags": {"amenity": "restaurant", "name:en": "Flying Tiger Hotpot"}}, {"type": "node", "id": 13519120601, "lat": 29.5530527, "lon": 106.5298048, "tags": {"amenity": "cafe", "name": "MPJ TEA"}}, {"type": "node", "id": 13519145102, "lat": 29.5554921, "lon": 106.5334679, "tags": {"amenity": "cafe", "name": "B Bakery & Café"}}, {"type": "node", "id": 13520930101, "lat": 29.5677775, "lon": 106.5449522, "tags": {"amenity": "restaurant", "name:en": "Zengjiayan Community Canteen"}}, {"type": "node", "id": 13594241026, "lat": 29.5525082, "lon": 106.567671, "tags": {"brand": "罗森", "brand:en": "Lawson", "brand:wikidata": "Q1557223", "brand:zh": "罗森", "brand:zh-Hans": "罗森", "brand:zh-Hant": "羅森", "check_date": "2026-02-22", "name": "罗森", "name:en": "Lawson", "name:zh": "罗森", "name:zh-Hans": "罗森", "name:zh-Hant": "羅森", "shop": "convenience"}}, {"type": "node", "id": 13594241027, "lat": 29.5535845, "lon": 106.5686881, "tags": {"amenity": "fast_food", "check_date": "2026-02-22", "cuisine": "sushi", "name": "自选寿司"}}, {"type": "node", "id": 13594241028, "lat": 29.5541329, "lon": 106.569064, "tags": {"amenity": "cafe", "brand": "瑞幸咖啡", "brand:en": "Luckin Coffee", "brand:wikidata": "Q56811344", "brand:zh": "瑞幸咖啡", "check_date": "2026-02-22", "cuisine": "coffee_shop", "name": "瑞幸咖啡", "name:en": "Luckin Coffee", "name:zh": "瑞幸咖啡", "takeaway": "yes"}}, {"type": "node", "id": 13594241033, "lat": 29.5537636, "lon": 106.5691566, "tags": {"amenity": "fast_food", "check_date": "2026-02-22", "cuisine": "chinese", "name": "十八梯豆花馆"}}, {"type": "way", "id": 296824570, "center": {"lat": 29.5609418, "lon": 106.5675993}, "nodes": [3006437451, 3006437452, 3006437453, 3006437454, 3006437455, 3006437456, 3006437451], "tags": {"building": "residential"}}, {"type": "way", "id": 296824571, "center": {"lat": 29.5601573, "lon": 106.5634405}, "nodes": [3006437457, 3006437458, 3006437459, 3006437460, 3006437457], "tags": {"building": "residential"}}, {"type": "way", "id": 296824573, "center": {"lat": 29.5596021, "lon": 106.5628377}, "nodes": [3006437461, 3006437462, 3006437463, 3006437464, 3006437461], "tags": {"building": "residential"}}, {"type": "way", "id": 296824574, "center": {"lat": 29.5599897, "lon": 106.5629253}, "nodes": [3006437465, 3006437466, 3006437467, 3006437468, 3006437465], "tags": {"building": "residential"}}, {"type": "way", "id": 296824576, "center": {"lat": 29.5603536, "lon": 106.562996}, "nodes": [3006437469, 3006437470, 3006437471, 3006437472, 3006437469], "tags": {"building": "residential"}}, {"type": "way", "id": 412612145, "center": {"lat": 29.5601997, "lon": 106.5740316}, "nodes": [4139951333, 4139951334, 4376248640, 4139951335, 4139951336, 4139951337, 4139951338, 4139951339, 8141458784, 11175896851, 4139951333], "tags": {"building": "commercial"}}, {"type": "way", "id": 412612148, "center": {"lat": 29.5590975, "lon": 106.5760344}, "nodes": [4139951357, 4139951358, 4139951359, 4139951360, 4139951361, 4139951362, 4139951363, 4139951364, 4139951365, 4139951366, 4139951357], "tags": {"building": "commercial", "name": "半岛国际大厦", "name:en": "Peninsula International Mansion"}}, {"type": "way", "id": 412612149, "center": {"lat": 29.5604938, "lon": 106.5766362}, "nodes": [4139951367, 11175896937, 4139951368, 4139951369, 4139951370, 4139951371, 4139951372, 4139951373, 4139951374, 4139951375, 4139951376, 4139951367], "tags": {"building": "commercial"}}, {"type": "way", "id": 412612150, "center": {"lat": 29.5601088, "lon": 106.577186}, "nodes": [4139951377, 4139951378, 4139951379, 4139951380, 4139951377], "tags": {"building": "commercial"}}, {"type": "way", "id": 412612151, "center": {"lat": 29.5598467, "lon": 106.5763791}, "nodes": [4139951381, 11175896935, 4139951382, 4139951383, 4139951384, 4139951385, 4139951381], "tags": {"addr:city": "Chongqing", "addr:district": "Yuzhong", "addr:housenumber": "222", "addr:postcode": "400010", "addr:province": "Chongqing", "addr:street": "Xinhua Road", "building": "commercial", "height": "245", "internet_access": "wlan", "internet_access:fee": "no", "name": "解放碑威斯汀酒店", "name:en": "The Westin Chongqing Liberation Square", "rooms": "333", "tourism": "hotel"}}, {"type": "way", "id": 412612152, "center": {"lat": 29.5613642, "lon": 106.5771858}, "nodes": [4139951386, 4139951387, 12992452414, 11175896940, 4139951889, 4139951891, 12992452415, 12992452416, 12992452417, 4139951892, 4139951893, 12992452413, 12992452412, 12992452418, 12992452419, 12992452420, 4139951386], "tags": {"building": "commercial"}}, {"type": "way", "id": 412612154, "center": {"lat": 29.5623043, "lon": 106.5718595}, "nodes": [4139951906, 4139951907, 4894520580, 4894520579, 4139951908, 4894520578, 4139951909, 4894520577, 4894520576, 4894520575, 4139951910, 4139951911, 4894520574, 4894520573, 4139951912, 4139951913, 4139951914, 4139951915, 4894520591, 4139951916, 4894520590, 4139951917, 4894520589, 4139951918, 4894520588, 4139951919, 4894520587, 4139951920, 4894520586, 4894520585, 4894520584, 4894520583, 4139951921, 4139951922, 4894520582, 4894520581, 4139951923, 4139951906], "tags": {"building": "commercial"}}, {"type": "way", "id": 412612155, "center": {"lat": 29.5615275, "lon": 106.5713415}, "nodes": [4139951924, 4139951925, 4139951927, 4139951928, 4139951929, 4139951930, 4139951931, 4894520562, 4894520563, 4894520564, 4139951932, 4139951935, 4584198492, 4894520565, 4894520566, 4139951936, 4139951937, 4894520567, 4894520568, 4139951938, 4139951939, 4894520572, 4894520571, 4894520570, 4894520569, 4139951940, 4139951941, 4139951942, 4139951943, 4139951924], "tags": {"building": "commercial"}}, {"type": "way", "id": 464928512, "center": {"lat": 29.5601409, "lon": 106.5785484}, "nodes": [4599777984, 4599777985, 4599777986, 4599777987, 4599777984], "tags": {"building": "commercial"}}, {"type": "way", "id": 481835399, "center": {"lat": 29.5556547, "lon": 106.5339113}, "nodes": [4747330154, 13027157583, 13027157582, 7233183868, 4756886622, 4747330155, 13027157573, 4747330156, 13027157588, 13027157586, 13027157597, 13027157587, 13027157589, 13027157585, 13027157584, 4747330158, 4756877150, 7233183869, 4747330159, 13027157592, 4747330154], "tags": {"building": "apartments"}}, {"type": "way", "id": 486221587, "center": {"lat": 29.5639804, "lon": 106.5613696}, "nodes": [4788983082, 4788983079, 4788983080, 4788983081, 4788983082], "tags": {"building": "office", "building:levels": "24", "name": "科协大厦"}}, {"type": "way", "id": 583427159, "center": {"lat": 29.5608893, "lon": 106.5379624}, "nodes": [5577830914, 5577830915, 5577830916, 5577830917, 5577830914], "tags": {"building": "apartments", "name": "天江苑"}}, {"type": "way", "id": 583427163, "center": {"lat": 29.5499826, "lon": 106.5317892}, "nodes": [5577832629, 5577832630, 5577832631, 5577832632, 5577832633, 5577832634, 5577832635, 5577832636, 5577832637, 5577832638, 5577832639, 5577832640, 5577832629], "tags": {"building": "apartments"}}, {"type": "way", "id": 583427203, "center": {"lat": 29.5500971, "lon": 106.5324576}, "nodes": [5577832842, 5577832843, 5577832844, 5577832845, 5577832842], "tags": {"building": "apartments"}}, {"type": "way", "id": 583427208, "center": {"lat": 29.5507064, "lon": 106.5322895}, "nodes": [5577832852, 5577832853, 5577832854, 5577832855, 5577832856, 5577832857, 5577832858, 5577832859, 5577832852], "tags": {"building": "apartments"}}, {"type": "way", "id": 583427210, "center": {"lat": 29.5504948, "lon": 106.5324403}, "nodes": [5577832860, 5577832861, 5577832862, 5577832863, 5577832864, 5577832865, 5577832866, 5577832867, 5577832868, 5577832869, 5577832870, 5577832871, 5577832872, 5577832873, 5577832874, 5577832875, 5577832876, 5577832860], "tags": {"building": "apartments"}}, {"type": "way", "id": 583427214, "center": {"lat": 29.5508564, "lon": 106.5329679}, "nodes": [5577832877, 5577832878, 5577832879, 5577832880, 5577832881, 5577832882, 5577832883, 5577832884, 5577832885, 5577832886, 5577832877], "tags": {"building": "apartments"}}, {"type": "way", "id": 583427220, "center": {"lat": 29.5512562, "lon": 106.5332161}, "nodes": [5577832900, 5577832901, 5577832902, 5577832903, 5577832900], "tags": {"building": "apartments"}}, {"type": "way", "id": 583427222, "center": {"lat": 29.5513269, "lon": 106.5337356}, "nodes": [5577832904, 5577832905, 5577832906, 5577832907, 5577832904], "tags": {"building": "apartments"}}, {"type": "way", "id": 583427225, "center": {"lat": 29.5514567, "lon": 106.5342941}, "nodes": [5577832908, 5577832909, 5577832910, 5577832911, 5577832912, 5577832913, 5577832914, 5577832915, 5577832916, 5577832917, 5577832918, 5577832919, 5577832908], "tags": {"building": "apartments"}}, {"type": "way", "id": 583628665, "center": {"lat": 29.5509712, "lon": 106.5337122}, "nodes": [5579734765, 5579734766, 12730436941, 12730436940, 12730436939, 12730436938, 12730436937, 12730436936, 12730436935, 12730436934, 5579734767, 5579734768, 5579734765], "tags": {"building": "apartments", "name": "1栋"}}, {"type": "way", "id": 583628670, "center": {"lat": 29.5520606, "lon": 106.5351069}, "nodes": [5579734788, 5579734789, 5579734790, 5579734791, 5579734788], "tags": {"building": "apartments"}}, {"type": "way", "id": 583628671, "center": {"lat": 29.5519543, "lon": 106.5348255}, "nodes": [5579734792, 5579734793, 5579734794, 5579734795, 5579734792], "tags": {"building": "apartments"}}, {"type": "way", "id": 583628675, "center": {"lat": 29.5484367, "lon": 106.5303572}, "nodes": [5579734802, 5579734803, 5579734804, 5579734805, 5579734806, 5579734807, 5579734808, 5579734809, 5579734810, 5579734811, 5579734812, 5579734813, 5579734802], "tags": {"building": "apartments"}}, {"type": "way", "id": 583628676, "center": {"lat": 29.548417, "lon": 106.5308749}, "nodes": [5579734814, 5579734815, 5579734816, 5579734817, 5579734818, 5579734819, 5579734820, 5579738921, 5579738922, 5579738923, 5579738924, 5579738925, 5579734814], "tags": {"building": "apartments"}}, {"type": "way", "id": 583628677, "center": {"lat": 29.5484174, "lon": 106.531429}, "nodes": [5579738926, 5579738927, 5579738928, 5579738929, 5579738930, 5579738931, 5579738932, 5579738933, 5579738934, 5579738935, 5579738936, 5579738937, 5579738926], "tags": {"building": "apartments"}}, {"type": "way", "id": 583628678, "center": {"lat": 29.5492282, "lon": 106.5310391}, "nodes": [5579738938, 5579738939, 5579738940, 5579738941, 5579738942, 5579738943, 5579738944, 5579738945, 5579738946, 5579738947, 5579738938], "tags": {"building": "commercial", "name": "地产大厦"}}, {"type": "way", "id": 583628679, "center": {"lat": 29.5492918, "lon": 106.5316404}, "nodes": [5579738948, 5579738949, 5579738950, 5579738951, 5579738948], "tags": {"building": "commercial"}}, {"type": "way", "id": 583628680, "center": {"lat": 29.54817, "lon": 106.5307864}, "nodes": [5579738952, 5579738953, 5579738954, 5579738955, 5579738952], "tags": {"building": "apartments"}}, {"type": "way", "id": 583628682, "center": {"lat": 29.547919, "lon": 106.5316125}, "nodes": [5579738964, 5579738965, 5579738966, 5579738967, 5579738964], "tags": {"building": "apartments"}}, {"type": "way", "id": 583628683, "center": {"lat": 29.5513646, "lon": 106.5297431}, "nodes": [5579738968, 5579738969, 5579738970, 5579738971, 5579738968], "tags": {"building": "apartments"}}, {"type": "way", "id": 583628684, "center": {"lat": 29.5517059, "lon": 106.5298605}, "nodes": [5579738972, 5579738973, 5579738974, 5579738975, 5579738976, 5579738977, 5579738978, 5579738979, 5579738972], "tags": {"building": "apartments"}}, {"type": "way", "id": 583628685, "center": {"lat": 29.5515915, "lon": 106.5294402}, "nodes": [5579738980, 5579738981, 5579738982, 5579738983, 5579738980], "tags": {"building": "apartments"}}, {"type": "way", "id": 583628686, "center": {"lat": 29.5513025, "lon": 106.5287055}, "nodes": [5579738984, 5579738985, 5579738986, 5579738987, 5579738984], "tags": {"building": "apartments"}}, {"type": "way", "id": 583628687, "center": {"lat": 29.5513258, "lon": 106.529112}, "nodes": [5579738988, 5579738989, 5579738990, 5579738991, 5579738992, 5579738993, 5579738994, 5579738995, 5579738988], "tags": {"building": "apartments"}}, {"type": "way", "id": 585541370, "center": {"lat": 29.555262, "lon": 106.5680323}, "nodes": [5595526277, 5595526278, 5595526279, 5595526280, 5595526277], "tags": {"building": "apartments", "name": "渝亚大厦"}}, {"type": "way", "id": 704006934, "center": {"lat": 29.5592649, "lon": 106.5679995}, "nodes": [6610614274, 6610614271, 6610614272, 6610614273, 6610614274], "tags": {"building": "residential", "building:levels": "1"}}, {"type": "way", "id": 704009350, "center": {"lat": 29.5572919, "lon": 106.5451996}, "nodes": [6610631805, 6610631804, 6610631803, 6610631802, 6610631801, 6610631800, 6610631799, 6610631798, 6610631797, 6610631796, 6610631805], "tags": {"building": "office", "building:levels": "25", "name": "重庆村1号"}}, {"type": "way", "id": 748940001, "center": {"lat": 29.5643452, "lon": 106.5846516}, "nodes": [7003815287, 7003815288, 13449147288, 13449147251, 7003815289, 7003815290, 13449147292, 7003815291, 13563569745, 7003815292, 7003815287], "tags": {"addr:city": "Chongqing", "addr:district": "Yuzhong District", "addr:housenumber": "17", "addr:street": "Changjiang Binjiang Road", "building": "residential", "building:levels": "3", "name": "Haikeyingzhou", "name:zh": "庆隆海客瀛洲", "residential": "apartments"}}, {"type": "way", "id": 809248549, "center": {"lat": 29.5546321, "lon": 106.5738013}, "nodes": [7566766173, 7566766172, 7566766171, 7566766170, 7566766169, 7566766168, 7566766167, 7566766166, 7566766165, 7566766164, 7566766163, 7566766162, 7566766161, 7566766160, 7566766159, 7566766158, 7566766157, 7566766156, 7566766155, 7566766154, 7566766153, 7566766152, 7566766151, 7566766150, 7566766173], "tags": {"building": "apartments", "building:levels": "50"}}, {"type": "way", "id": 809248550, "center": {"lat": 29.5549284, "lon": 106.5744504}, "nodes": [7566784197, 7566784196, 7566784195, 7566784194, 7566784193, 7566784192, 7566784191, 7566784190, 7566784189, 7566784188, 7566784187, 7566784186, 7566784185, 7566766184, 7566766183, 7566766182, 7566766181, 7566766180, 7566766179, 7566766178, 7566766177, 7566766176, 7566766175, 7566766174, 7566784197], "tags": {"building": "apartments", "building:levels": "50"}}, {"type": "way", "id": 809248551, "center": {"lat": 29.5553009, "lon": 106.5750926}, "nodes": [7566784201, 7566784213, 7566784199, 7566784214, 7566784217, 7566784216, 7566784215, 7566784198, 7566784200, 7566784207, 7566784211, 7566784208, 7566784209, 7566784210, 7566784206, 7566784202, 7566784205, 7566784219, 7566784220, 7566784221, 7566784218, 7566784204, 7566784212, 7566784203, 7566784201], "tags": {"building": "apartments", "building:levels": "50"}}, {"type": "way", "id": 809248555, "center": {"lat": 29.5566928, "lon": 106.5759594}, "nodes": [7566784252, 7566784250, 7566784249, 7566784253, 7566784252], "tags": {"building": "residential"}}, {"type": "way", "id": 809248556, "center": {"lat": 29.5567882, "lon": 106.576069}, "nodes": [7566784254, 7566784251, 7566784252, 7566784253, 7566784254], "tags": {"building": "residential"}}, {"type": "way", "id": 809248562, "center": {"lat": 29.556183, "lon": 106.5746019}, "nodes": [7566784300, 7566784296, 7566784297, 7566784298, 7566784300], "tags": {"building": "residential"}}, {"type": "way", "id": 809248563, "center": {"lat": 29.5560967, "lon": 106.5744463}, "nodes": [7566784302, 7566784299, 7566784296, 7566784300, 7566784301, 7566784302], "tags": {"building": "residential"}}, {"type": "way", "id": 809248566, "center": {"lat": 29.5558227, "lon": 106.5737763}, "nodes": [7566784319, 7566784318, 7566784317, 7566784316, 7566784319], "tags": {"building": "residential"}}, {"type": "way", "id": 809248567, "center": {"lat": 29.5557215, "lon": 106.5738603}, "nodes": [7566784337, 7566784335, 7566784320, 7566784322, 7566784321, 7566784326, 7566784325, 7566784323, 7566784324, 7566784338, 7566784337], "tags": {"building": "residential"}}, {"type": "way", "id": 809248568, "center": {"lat": 29.5556201, "lon": 106.5735481}, "nodes": [7566784333, 7566784334, 7566784330, 7566784328, 7566784335, 7566784337, 7566784338, 7566784343, 7566784336, 7566784342, 7566784327, 7566784329, 7566784347, 7566784332, 7566784348, 7566784331, 7566784333], "tags": {"building": "residential"}}, {"type": "way", "id": 809248569, "center": {"lat": 29.5555584, "lon": 106.5734187}, "nodes": [7566784339, 7566784344, 7566784346, 7566784351, 7566784348, 7566784332, 7566784347, 7566784345, 7566784340, 7566784342, 7566784336, 7566784343, 7566784350, 7566784341, 7566784339], "tags": {"building": "residential"}}, {"type": "way", "id": 809248570, "center": {"lat": 29.555434, "lon": 106.5731766}, "nodes": [7566784352, 7566784351, 7566784346, 7566784341, 7566784350, 7566784349, 7566784352], "tags": {"building": "residential"}}, {"type": "way", "id": 809248571, "center": {"lat": 29.55408, "lon": 106.5300681}, "nodes": [7566784356, 7566784355, 7566784354, 7566784353, 7566784356], "tags": {"building": "residential", "historic": "building", "name": "刘湘公馆旧址"}}, {"type": "way", "id": 809248572, "center": {"lat": 29.5531737, "lon": 106.5287175}, "nodes": [7566784362, 7566784358, 7566784359, 7566784360, 7566784361, 7566784363, 7566784357, 7566784373, 7566784372, 7566784371, 7566784367, 7566784368, 7566784366, 7566784365, 7566784364, 7566784369, 7566784362], "tags": {"building": "residential"}}, {"type": "way", "id": 809248577, "center": {"lat": 29.553356, "lon": 106.5270948}, "nodes": [7566784395, 7566784392, 7566784393, 7566784394, 7566784395], "tags": {"building": "residential"}}, {"type": "way", "id": 809248578, "center": {"lat": 29.5526557, "lon": 106.5254466}, "nodes": [7566784399, 7566784404, 7566784403, 7566784402, 7566784405, 7566784398, 7566784401, 7566784400, 7566784399], "tags": {"building": "residential"}}, {"type": "way", "id": 809248583, "center": {"lat": 29.5514005, "lon": 106.5195575}, "nodes": [7566784452, 7566784451, 7566784450, 7566784449, 7566784452], "tags": {"building": "residential"}}, {"type": "way", "id": 809248584, "center": {"lat": 29.5512841, "lon": 106.5203109}, "nodes": [7566784456, 7566784455, 7566784454, 7566784453, 7566784456], "tags": {"building": "residential"}}, {"type": "way", "id": 809248585, "center": {"lat": 29.551307, "lon": 106.5199185}, "nodes": [7566784460, 7566784457, 7566784458, 7566784459, 7566784460], "tags": {"building": "residential"}}, {"type": "way", "id": 809248589, "center": {"lat": 29.5525578, "lon": 106.5197003}, "nodes": [7566784497, 7566784496, 7566784495, 7566784494, 7566784497], "tags": {"building": "residential"}}, {"type": "way", "id": 809248590, "center": {"lat": 29.5520538, "lon": 106.5195126}, "nodes": [7566784509, 7566784506, 7566784501, 7566784499, 7566784504, 7566784503, 7566784502, 7566784505, 7566784498, 7566784500, 7566784507, 7566784508, 7566784509], "tags": {"building": "residential"}}, {"type": "way", "id": 809248591, "center": {"lat": 29.5519036, "lon": 106.5200983}, "nodes": [7566784521, 7566784518, 7566784513, 7566784511, 7566784517, 7566784514, 7566784515, 7566784516, 7566784510, 7566784512, 7566784519, 7566784520, 7566784521], "tags": {"building": "residential"}}, {"type": "way", "id": 809248592, "center": {"lat": 29.5523661, "lon": 106.5205969}, "nodes": [7566784522, 7566784524, 7566784530, 7566784533, 7566784532, 7566784531, 7566784525, 7566784523, 7566784528, 7566784529, 7566784526, 7566784527, 7566784522], "tags": {"building": "residential"}}, {"type": "way", "id": 809248593, "center": {"lat": 29.5518886, "lon": 106.5206805}, "nodes": [7566784545, 7566784542, 7566784541, 7566784535, 7566784536, 7566784537, 7566784538, 7566784539, 7566784534, 7566784540, 7566784543, 7566784544, 7566784545], "tags": {"building": "residential"}}, {"type": "way", "id": 809248594, "center": {"lat": 29.5519209, "lon": 106.5211784}, "nodes": [7566784558, 7566784555, 7566784549, 7566784547, 7566784551, 7566784552, 7566784553, 7566784554, 7566784546, 7566784548, 7566784556, 7566784557, 7566784558], "tags": {"building": "residential"}}, {"type": "way", "id": 809248595, "center": {"lat": 29.5523353, "lon": 106.5214334}, "nodes": [7566784563, 7566784559, 7566784550, 7566784560, 7566784561, 7566784562, 7566784565, 7566784564, 7566784563], "tags": {"building": "residential"}}, {"type": "way", "id": 809248596, "center": {"lat": 29.5521629, "lon": 106.522027}, "nodes": [7566784570, 7566784566, 7566784567, 7566784568, 7566784569, 7566784572, 7566784571, 7566784570], "tags": {"building": "residential"}}, {"type": "way", "id": 809248601, "center": {"lat": 29.552539, "lon": 106.5236075}, "nodes": [7566784602, 7566784601, 7566784595, 7566784596, 7566784597, 7566784598, 7566784599, 7566784600, 7566784602], "tags": {"building": "residential"}}, {"type": "way", "id": 809248602, "center": {"lat": 29.5524974, "lon": 106.523061}, "nodes": [7566784610, 7566784609, 7566784608, 7566784603, 7566784605, 7566784604, 7566784607, 7566784606, 7566784610], "tags": {"building": "residential"}}, {"type": "way", "id": 809271233, "center": {"lat": 29.5587041, "lon": 106.5790973}, "nodes": [7566943266, 7566943265, 7566943264, 7566943262, 7566943250, 7566943258, 7566943257, 7566943256, 7566943252, 7566943253, 7566943254, 7566943255, 7566943259, 7566943260, 7566943251, 7566943261, 7566943263, 7566943266], "tags": {"building": "residential"}}, {"type": "way", "id": 809271241, "center": {"lat": 29.5579337, "lon": 106.5784379}, "nodes": [7566958497, 7566958504, 7566958501, 7566958512, 7566958513, 7566958510, 7566958511, 7566958502, 7566958505, 7566958507, 7566958506, 7566958508, 7566958509, 7566958503, 7566958496, 7566958499, 7566958528, 7566958527, 7566958530, 7566958529, 7566958500, 7566958498, 7566958531, 7566958532, 7566958535, 7566958534, 7566958521, 7566958492, 7566958520, 7566958519, 7566958518, 7566958514, 7566958515, 7566958516, 7566958517, 7566958491, 7566958533, 7566958493, 7566958524, 7566958526, 7566958494, 7566958523, 7566958522, 7566958495, 7566958525, 7566958497], "tags": {"building": "residential"}}, {"type": "way", "id": 809271243, "center": {"lat": 29.5579717, "lon": 106.5794033}, "nodes": [7566958602, 7566958582, 7566958569, 7566958603, 7566958570, 7566958605, 7566958608, 7566958607, 7566958606, 7566958604, 7566958584, 7566958585, 7566958601, 7566958600, 7566958599, 7566958598, 7566958597, 7566958572, 7566958595, 7566958596, 7566958594, 7566958573, 7566958571, 7566958593, 7566958578, 7566958579, 7566958591, 7566958574, 7566958587, 7566958588, 7566958575, 7566958576, 7566958589, 7566958590, 7566958577, 7566958592, 7566958580, 7566958586, 7566958581, 7566958583, 7566958602], "tags": {"building": "residential"}}, {"type": "way", "id": 809271248, "center": {"lat": 29.5591672, "lon": 106.5746995}, "nodes": [7566958644, 7566958646, 7566958641, 7566958642, 7566958643, 7566958644], "tags": {"building": "residential"}}, {"type": "way", "id": 809271249, "center": {"lat": 29.558884, "lon": 106.5747643}, "nodes": [7566958649, 7566958645, 7566958646, 7566958644, 7566958647, 7566958649], "tags": {"building": "residential"}}, {"type": "way", "id": 809271250, "center": {"lat": 29.55846, "lon": 106.5744988}, "nodes": [7566958651, 7566958650, 7566958645, 7566958649, 7566958648, 7566958651], "tags": {"building": "residential"}}, {"type": "way", "id": 809271251, "center": {"lat": 29.5548702, "lon": 106.572913}, "nodes": [7566958659, 7566958658, 7566958652, 7566958653, 7566958654, 7566958655, 7566958656, 7566958657, 7566958663, 7566958665, 7566958666, 7566958662, 7566958661, 7566958660, 7566958659], "tags": {"building": "residential"}}, {"type": "way", "id": 809271252, "center": {"lat": 29.5546172, "lon": 106.5726925}, "nodes": [7566958667, 7566958666, 7566958665, 7566958664, 7566958667], "tags": {"building": "residential"}}, {"type": "way", "id": 809271253, "center": {"lat": 29.5545207, "lon": 106.5722296}, "nodes": [7566958668, 7566958671, 7566958672, 7566958670, 7566958669, 7566958675, 7566958674, 7566958673, 7566958668], "tags": {"building": "residential"}}, {"type": "way", "id": 809271254, "center": {"lat": 29.5543284, "lon": 106.5718097}, "nodes": [7566958680, 7566958676, 7566958677, 7566958678, 7566958679, 7566958680], "tags": {"building": "residential"}}, {"type": "way", "id": 809271255, "center": {"lat": 29.5544994, "lon": 106.5718719}, "nodes": [7566958681, 7566958680, 7566958679, 7566958682, 7566958685, 7566958684, 7566958683, 7566958681], "tags": {"building": "residential"}}, {"type": "way", "id": 809271256, "center": {"lat": 29.5546526, "lon": 106.5715273}, "nodes": [7566958689, 7566958688, 7566958687, 7566958686, 7566958689], "tags": {"building": "residential"}}, {"type": "way", "id": 809271257, "center": {"lat": 29.5551112, "lon": 106.5715974}, "nodes": [7566958690, 7566958695, 7566958697, 7566958696, 7566958691, 7566958692, 7566958693, 7566958694, 7566958690], "tags": {"building": "residential"}}, {"type": "way", "id": 809271258, "center": {"lat": 29.5548951, "lon": 106.5713794}, "nodes": [7566958698, 7566958699, 7566958700, 7566958702, 7566958703, 7566958704, 7566958701, 7566958698], "tags": {"building": "residential"}}, {"type": "way", "id": 809271259, "center": {"lat": 29.5548756, "lon": 106.5718512}, "nodes": [7566958705, 7566958713, 7566958712, 7566958708, 7566958709, 7566958711, 7566958710, 7566958707, 7566958706, 7566958705], "tags": {"building": "residential"}}, {"type": "way", "id": 809271262, "center": {"lat": 29.5551051, "lon": 106.5733437}, "nodes": [7566958725, 7566958722, 7566958721, 7566958720, 7566958724, 7566958725], "tags": {"building": "residential"}}, {"type": "way", "id": 809271263, "center": {"lat": 29.5552139, "lon": 106.5735465}, "nodes": [7566958728, 7566958725, 7566958724, 7566958723, 7566958727, 7566958728], "tags": {"building": "residential"}}, {"type": "way", "id": 809271264, "center": {"lat": 29.555355, "lon": 106.5738247}, "nodes": [7566958731, 7566958728, 7566958727, 7566958726, 7566958730, 7566958731], "tags": {"building": "residential"}}, {"type": "way", "id": 809271265, "center": {"lat": 29.5555242, "lon": 106.5741336}, "nodes": [7566958733, 7566958731, 7566958730, 7566958729, 7566958734, 7566958733], "tags": {"building": "residential"}}, {"type": "way", "id": 809271266, "center": {"lat": 29.555733, "lon": 106.5745037}, "nodes": [7566958735, 7566958732, 7566958733, 7566958734, 7566958735], "tags": {"building": "residential"}}, {"type": "way", "id": 809271268, "center": {"lat": 29.5540491, "lon": 106.5773753}, "nodes": [7566958749, 7566958748, 7566958745, 7566958744, 7566958743, 7566958747, 7566958746, 7566958749], "tags": {"building": "residential"}}, {"type": "way", "id": 809271269, "center": {"lat": 29.5538965, "lon": 106.5772061}, "nodes": [7566958751, 7566958756, 7566958755, 7566958754, 7566958757, 7566958750, 7566958752, 7566958753, 7566958751], "tags": {"building": "residential"}}, {"type": "way", "id": 809271270, "center": {"lat": 29.5538156, "lon": 106.5769583}, "nodes": [7566958761, 7566958760, 7566958759, 7566958758, 7566958761], "tags": {"building": "residential"}}, {"type": "way", "id": 809271271, "center": {"lat": 29.5539681, "lon": 106.5767644}, "nodes": [7566958765, 7566958762, 7566958763, 7566958764, 7566958765], "tags": {"building": "residential"}}, {"type": "way", "id": 809271272, "center": {"lat": 29.5541189, "lon": 106.5766842}, "nodes": [7566958770, 7566958766, 7566958767, 7566958768, 7566958769, 7566958772, 7566958771, 7566958770], "tags": {"building": "residential"}}, {"type": "way", "id": 809271273, "center": {"lat": 29.5543361, "lon": 106.5767108}, "nodes": [7566958776, 7566958775, 7566958774, 7566958773, 7566958776], "tags": {"building": "residential"}}, {"type": "way", "id": 809271275, "center": {"lat": 29.555032, "lon": 106.5773478}, "nodes": [7566958807, 7566958806, 7566958805, 7566958804, 7566958803, 7566958802, 7566958801, 7566958800, 7566958799, 7566958798, 7566958797, 7566958796, 7566958795, 7566958794, 7566958793, 7566958792, 7566958807], "tags": {"building": "residential"}}, {"type": "way", "id": 809271276, "center": {"lat": 29.5548086, "lon": 106.5766248}, "nodes": [7566958813, 7566958822, 7566958821, 7566958811, 7566958809, 7566958819, 7566958816, 7566958817, 7566958818, 7566958808, 7566958810, 7566958820, 7566958823, 7566958812, 7566958815, 7566958814, 7566958813], "tags": {"building": "residential"}}, {"type": "way", "id": 809271277, "center": {"lat": 29.5554376, "lon": 106.575815}, "nodes": [7566958827, 7566958826, 7566958825, 7566958824, 7566958827], "tags": {"building": "residential"}}, {"type": "way", "id": 809271278, "center": {"lat": 29.5551297, "lon": 106.5758662}, "nodes": [7566958831, 7566958830, 7566958829, 7566958828, 7566958831], "tags": {"building": "residential"}}, {"type": "way", "id": 809271280, "center": {"lat": 29.5556454, "lon": 106.5769538}, "nodes": [7566958871, 7566958868, 7566958859, 7566958860, 7566958861, 7566958857, 7566958851, 7566958866, 7566958867, 7566958853, 7566958869, 7566958870, 7566958852, 7566958849, 7566958872, 7566958875, 7566958850, 7566958864, 7566958865, 7566958848, 7566958854, 7566958862, 7566958863, 7566958856, 7566958874, 7566958873, 7566958855, 7566958858, 7566958871], "tags": {"building": "apartments"}}, {"type": "way", "id": 809271281, "center": {"lat": 29.5558248, "lon": 106.5774569}, "nodes": [7566958886, 7566958885, 7566958880, 7566958879, 7566958878, 7566958882, 7566958883, 7566958881, 7566958876, 7566958877, 7566958884, 7566958886], "tags": {"building": "residential"}}, {"type": "way", "id": 809271282, "center": {"lat": 29.5561472, "lon": 106.5770167}, "nodes": [7566958912, 7566958911, 7566958910, 7566958909, 7566958892, 7566958890, 7566958900, 7566958899, 7566958898, 7566958897, 7566958896, 7566958895, 7566958889, 7566958893, 7566958916, 7566958918, 7566958915, 7566958914, 7566958913, 7566958917, 7566958894, 7566958888, 7566958904, 7566958905, 7566958901, 7566958902, 7566958903, 7566958906, 7566958887, 7566958891, 7566958908, 7566958907, 7566958912], "tags": {"building": "apartments"}}, {"type": "way", "id": 809271283, "center": {"lat": 29.5567817, "lon": 106.5768798}, "nodes": [7566958924, 7566958945, 7566958944, 7566958923, 7566958928, 7566958942, 7566958939, 7566958930, 7566958953, 7566958952, 7566958929, 7566958933, 7566958937, 7566958938, 7566958934, 7566958926, 7566958949, 7566958950, 7566958927, 7566958940, 7566958941, 7566958925, 7566958920, 7566958943, 7566958946, 7566958921, 7566958947, 7566958948, 7566958919, 7566958932, 7566958935, 7566958936, 7566958931, 7566958922, 7566958951, 7566958954, 7566958924], "tags": {"building": "apartments"}}, {"type": "way", "id": 809271284, "center": {"lat": 29.5571362, "lon": 106.576564}, "nodes": [7566958958, 7566958955, 7566958956, 7566958957, 7566958958], "tags": {"building": "residential"}}, {"type": "way", "id": 809271285, "center": {"lat": 29.5571701, "lon": 106.5762017}, "nodes": [7566958959, 7566958967, 7566958968, 7566958969, 7566958966, 7566958960, 7566958964, 7566958963, 7566958962, 7566958961, 7566958965, 7566958959], "tags": {"building": "residential"}}, {"type": "way", "id": 809271286, "center": {"lat": 29.5573905, "lon": 106.5766909}, "nodes": [7566958973, 7566958970, 7566958971, 7566958972, 7566958973], "tags": {"building": "residential"}}, {"type": "way", "id": 809271287, "center": {"lat": 29.5578029, "lon": 106.576593}, "nodes": [7566958977, 7566958974, 7566958975, 7566958976, 7566958978, 7566958979, 7566958981, 7566958982, 7566958983, 7566958980, 7566958977], "tags": {"building": "residential"}}, {"type": "way", "id": 809273568, "center": {"lat": 29.5532707, "lon": 106.5713008}, "nodes": [7566917866, 7566917865, 7566917864, 7566917863, 7566917866], "tags": {"building": "residential"}}, {"type": "way", "id": 809273569, "center": {"lat": 29.5534965, "lon": 106.5713893}, "nodes": [7566917867, 7566917870, 7566917869, 7566917871, 7566917868, 7566917873, 7566917874, 7566917877, 7566917876, 7566917875, 7566917872, 7566917867], "tags": {"building": "residential"}}, {"type": "way", "id": 809273570, "center": {"lat": 29.5537565, "lon": 106.5712779}, "nodes": [7566917878, 7566976985, 7566917884, 7566917883, 7566917879, 7566917881, 7566917880, 7566917882, 7566917878], "tags": {"building": "residential"}}, {"type": "way", "id": 809273571, "center": {"lat": 29.5529478, "lon": 106.5714986}, "nodes": [7566977001, 7566976988, 7566976986, 7566977009, 7566977012, 7566977007, 7566977013, 7566977015, 7566977018, 7566977017, 7566977016, 7566977014, 7566977008, 7566977011, 7566977010, 7566976987, 7566976989, 7566977000, 7566976999, 7566976991, 7566976990, 7566976995, 7566976997, 7566976996, 7566976992, 7566976993, 7566976994, 7566976998, 7566977001], "tags": {"building": "residential"}}, {"type": "way", "id": 809273572, "center": {"lat": 29.5534251, "lon": 106.5724207}, "nodes": [7566977038, 7566977037, 7566977021, 7566977019, 7566977054, 7566977043, 7566977041, 7566977050, 7566977049, 7566977045, 7566977040, 7566977051, 7566977052, 7566977042, 7566977044, 7566977048, 7566977047, 7566977039, 7566977046, 7566977053, 7566977020, 7566977022, 7566977036, 7566977035, 7566977034, 7566977033, 7566977032, 7566977031, 7566977030, 7566977029, 7566977028, 7566977027, 7566977026, 7566977025, 7566977024, 7566977023, 7566977038], "tags": {"building": "residential"}}, {"type": "way", "id": 809273573, "center": {"lat": 29.5528872, "lon": 106.5735146}, "nodes": [7566977075, 7566977065, 7566977076, 7566977058, 7566977063, 7566977055, 7566977066, 7566977069, 7566977057, 7566977061, 7566977071, 7566977072, 7566977059, 7566977077, 7566977074, 7566977060, 7566977073, 7566977070, 7566977062, 7566977056, 7566977068, 7566977067, 7566977064, 7566977075], "tags": {"building": "residential"}}, {"type": "way", "id": 809273574, "center": {"lat": 29.5526111, "lon": 106.5731287}, "nodes": [7566977085, 7566977080, 7566977078, 7566977087, 7566977088, 7566977089, 7566977086, 7566977079, 7566977081, 7566977084, 7566977083, 7566977082, 7566977085], "tags": {"building": "residential"}}, {"type": "way", "id": 809273576, "center": {"lat": 29.5523556, "lon": 106.5728301}, "nodes": [7566977113, 7566977101, 7566977097, 7566977103, 7566977104, 7566977095, 7566977107, 7566977106, 7566977094, 7566977105, 7566977102, 7566977096, 7566977100, 7566977112, 7566977111, 7566977098, 7566977109, 7566977108, 7566977099, 7566977110, 7566977113], "tags": {"building": "residential"}}, {"type": "way", "id": 809273582, "center": {"lat": 29.5561457, "lon": 106.5781098}, "nodes": [7566977136, 7566977142, 7566977141, 7566977143, 7566977137, 7566977139, 7566977140, 7566977138, 7566977136], "tags": {"building": "residential"}}, {"type": "way", "id": 809273583, "center": {"lat": 29.556281, "lon": 106.5775982}, "nodes": [7566977147, 7566977144, 7566977145, 7566977146, 7566977147], "tags": {"building": "residential"}}, {"type": "way", "id": 809273584, "center": {"lat": 29.5565102, "lon": 106.5773176}, "nodes": [7566977151, 7566977148, 7566977149, 7566977150, 7566977151], "tags": {"building": "residential"}}, {"type": "way", "id": 809273588, "center": {"lat": 29.5591368, "lon": 106.5779141}, "nodes": [7566977182, 7566977188, 7566977185, 7566977186, 7566977187, 7566977181, 7566977184, 7566977183, 7566977182], "tags": {"building": "residential"}}, {"type": "way", "id": 809273589, "center": {"lat": 29.5587857, "lon": 106.5773128}, "nodes": [7566977198, 7566977195, 7566977196, 7566977192, 7566977193, 7566977194, 7566977197, 7566977198], "tags": {"building": "residential"}}, {"type": "way", "id": 809273590, "center": {"lat": 29.5587422, "lon": 106.5771647}, "nodes": [7566977197, 7566977194, 7566977191, 7566977190, 7566977189, 7566977197], "tags": {"building": "residential"}}, {"type": "way", "id": 809273591, "center": {"lat": 29.5590337, "lon": 106.5772556}, "nodes": [7566977202, 7566977199, 7566977200, 7566977201, 7566977202], "tags": {"building": "residential"}}, {"type": "way", "id": 809273592, "center": {"lat": 29.5591906, "lon": 106.577012}, "nodes": [7566977203, 7566977209, 7566977208, 7566977210, 7566977204, 7566977206, 7566977205, 7566977207, 7566977203], "tags": {"building": "residential"}}, {"type": "way", "id": 809273593, "center": {"lat": 29.558957, "lon": 106.5769088}, "nodes": [7566977214, 7566977211, 7566977212, 7566977213, 7566977214], "tags": {"building": "residential"}}, {"type": "way", "id": 809273595, "center": {"lat": 29.5588961, "lon": 106.5771079}, "nodes": [7566977228, 7566977225, 7566977226, 7566977227, 7566977223, 7566977218, 7566977219, 7566977220, 7566977221, 7566977222, 7566977217, 7566977224, 7566977228], "tags": {"building": "residential"}}, {"type": "way", "id": 809273596, "center": {"lat": 29.5587997, "lon": 106.5775177}, "nodes": [7566977236, 7566977232, 7566977229, 7566977230, 7566977231, 7566977233, 7566977236], "tags": {"building": "residential"}}, {"type": "way", "id": 809273597, "center": {"lat": 29.5585472, "lon": 106.5773533}, "nodes": [7566977237, 7566977234, 7566977235, 7566977236, 7566977237], "tags": {"building": "residential"}}, {"type": "way", "id": 809273600, "center": {"lat": 29.5577507, "lon": 106.5771329}, "nodes": [7566977254, 7566977253, 7566977252, 7566977251, 7566977254], "tags": {"building": "residential"}}, {"type": "way", "id": 809273601, "center": {"lat": 29.5576532, "lon": 106.5779772}, "nodes": [7566977258, 7566977257, 7566977256, 7566977255, 7566977258], "tags": {"building": "residential"}}, {"type": "way", "id": 809273602, "center": {"lat": 29.557493, "lon": 106.5777877}, "nodes": [7566977262, 7566977261, 7566977260, 7566977259, 7566977262], "tags": {"building": "residential"}}, {"type": "way", "id": 809273603, "center": {"lat": 29.5573353, "lon": 106.5775877}, "nodes": [7566977275, 7566977269, 7566977265, 7566977277, 7566977278, 7566977264, 7566977283, 7566977280, 7566977266, 7566977279, 7566977276, 7566977267, 7566977271, 7566977274, 7566977273, 7566977270, 7566977281, 7566977282, 7566977268, 7566977272, 7566977275], "tags": {"building": "residential"}}, {"type": "way", "id": 809713441, "center": {"lat": 29.5633526, "lon": 106.5713447}, "nodes": [7570757295, 7570757293, 7570757288, 7570757289, 7570757290, 7570757292, 7570757291, 7570757296, 7570757297, 7570757294, 7570757295], "tags": {"building": "residential"}}, {"type": "way", "id": 809713449, "center": {"lat": 29.5628352, "lon": 106.5713681}, "nodes": [7570757386, 7570757387, 7570757382, 7570757383, 7570757381, 7570757399, 7570757385, 7570757384, 7570757386], "tags": {"building": "residential"}}, {"type": "way", "id": 809713450, "center": {"lat": 29.562842, "lon": 106.5710342}, "nodes": [7570757400, 7570757397, 7570757395, 7570757388, 7570757393, 7570757394, 7570757389, 7570757391, 7570757392, 7570757390, 7570757396, 7570757398, 7570757385, 7570757399, 7570757400], "tags": {"building": "residential"}}, {"type": "way", "id": 809713451, "center": {"lat": 29.5626613, "lon": 106.5706572}, "nodes": [7570757416, 7570757415, 7570757414, 7570757401, 7570757402, 7570757403, 7570757404, 7570757405, 7570757406, 7570757407, 7570757408, 7570757409, 7570757410, 7570757411, 7570757412, 7570757413, 7570757416], "tags": {"building": "residential"}}, {"type": "way", "id": 809713452, "center": {"lat": 29.5631888, "lon": 106.572061}, "nodes": [7570757422, 7570757419, 7570757420, 7570757421, 7570757422], "tags": {"building": "residential"}}, {"type": "way", "id": 809713453, "center": {"lat": 29.5632216, "lon": 106.5717122}, "nodes": [7570757423, 7570757432, 7570757425, 7570757430, 7570757429, 7570757428, 7570757427, 7570757426, 7570757434, 7570757433, 7570757435, 7570757431, 7570757424, 7570757436, 7570757437, 7570757438, 7570757423], "tags": {"building": "residential"}}, {"type": "way", "id": 809713456, "center": {"lat": 29.5632731, "lon": 106.5761464}, "nodes": [7570757451, 7570757454, 7570757453, 7570757452, 7570757448, 7570757449, 7570757474, 7570757480, 7570757482, 7570757450, 7570757451], "tags": {"building": "residential"}}, {"type": "way", "id": 809713457, "center": {"lat": 29.5632681, "lon": 106.5757734}, "nodes": [7570757468, 7570757469, 7570757457, 7570757458, 7570757465, 7570757464, 7570757466, 7570757467, 7570757462, 7570757463, 7570757461, 7570757459, 7570757460, 7570757455, 7570757456, 7570757468], "tags": {"building": "residential"}}, {"type": "way", "id": 809713458, "center": {"lat": 29.563529, "lon": 106.5763593}, "nodes": [7570757477, 7570757478, 7570757479, 7570757481, 7570757482, 7570757480, 7570757474, 7570757471, 7570757475, 7570757476, 7570757473, 7570757483, 7570757485, 7570757484, 7570757472, 7570757477], "tags": {"building": "residential"}}, {"type": "way", "id": 809713460, "center": {"lat": 29.5636035, "lon": 106.5768552}, "nodes": [7570757501, 7570757500, 7570757498, 7570757499, 7570757502, 7570757495, 7570757497, 7570757496, 7570757501], "tags": {"building": "residential"}}, {"type": "way", "id": 809713461, "center": {"lat": 29.5637308, "lon": 106.5766943}, "nodes": [7570757506, 7570757505, 7570757504, 7570757503, 7570757506], "tags": {"building": "residential"}}, {"type": "way", "id": 809713462, "center": {"lat": 29.5638966, "lon": 106.5766632}, "nodes": [7570757510, 7570757509, 7570757508, 7570757507, 7570757510], "tags": {"building": "residential"}}, {"type": "way", "id": 809713463, "center": {"lat": 29.5639741, "lon": 106.5770438}, "nodes": [7570757514, 7570757513, 7570757512, 7570757511, 7570757514], "tags": {"building": "residential"}}, {"type": "way", "id": 809713464, "center": {"lat": 29.5641448, "lon": 106.577435}, "nodes": [7570757518, 7570757515, 7570757516, 7570757517, 7570757518], "tags": {"building": "residential"}}, {"type": "way", "id": 809713465, "center": {"lat": 29.5637593, "lon": 106.5772877}, "nodes": [7570757519, 7570757520, 7570757521, 7570757524, 7570757523, 7570757522, 7570757519], "tags": {"building": "residential"}}, {"type": "way", "id": 809713466, "center": {"lat": 29.5645126, "lon": 106.577388}, "nodes": [7570757551, 7570757550, 7570757549, 7570757548, 7570757547, 7570757546, 7570757545, 7570757544, 7570757543, 7570757542, 7570757541, 7570757540, 7570757539, 7570757538, 7570757537, 7570757536, 7570757535, 7570757534, 7570757533, 7570757532, 7570757531, 7570757530, 7570757529, 7570757528, 7570757527, 7570757526, 7570757551], "tags": {"building": "apartments", "building:levels": "28"}}, {"type": "way", "id": 809713467, "center": {"lat": 29.5648295, "lon": 106.5772484}, "nodes": [7570757577, 7570757576, 7570757562, 7570757559, 7570757573, 7570757570, 7570757556, 7570757568, 7570757552, 7570757553, 7570757569, 7570757557, 7570757571, 7570757572, 7570757558, 7570757563, 7570757575, 7570757574, 7570757560, 7570757567, 7570757566, 7570757561, 7570757554, 7570757565, 7570757564, 7570757555, 7570757577], "tags": {"building": "apartments", "building:levels": "28"}}, {"type": "way", "id": 809713468, "center": {"lat": 29.5643694, "lon": 106.5770383}, "nodes": [7570757581, 7570757580, 7570757579, 7570757578, 7570757581], "tags": {"building": "residential"}}, {"type": "way", "id": 809713470, "center": {"lat": 29.5646465, "lon": 106.5767003}, "nodes": [7570757595, 7570757594, 7570757597, 7570757598, 7570757601, 7570757600, 7570757599, 7570757596, 7570757591, 7570757592, 7570757593, 7570757595], "tags": {"building": "residential"}}, {"type": "way", "id": 809713471, "center": {"lat": 29.5648571, "lon": 106.5765663}, "nodes": [7570757613, 7570757612, 7570757611, 7570757604, 7570757603, 7570757608, 7570757607, 7570757606, 7570757609, 7570757602, 7570757605, 7570757610, 7570757613], "tags": {"building": "residential"}}, {"type": "way", "id": 809713472, "center": {"lat": 29.5646976, "lon": 106.576341}, "nodes": [7570757617, 7570757616, 7570757615, 7570757614, 7570757617], "tags": {"building": "residential"}}, {"type": "way", "id": 809713473, "center": {"lat": 29.5644284, "lon": 106.5764386}, "nodes": [7570757621, 7570757620, 7570757619, 7570757618, 7570757621], "tags": {"building": "residential"}}, {"type": "way", "id": 809713474, "center": {"lat": 29.5644734, "lon": 106.576646}, "nodes": [7570757633, 7570757632, 7570757631, 7570757628, 7570757623, 7570757627, 7570757624, 7570757625, 7570757626, 7570757622, 7570757629, 7570757630, 7570757633], "tags": {"building": "residential"}}, {"type": "way", "id": 809713475, "center": {"lat": 29.5642832, "lon": 106.5767848}, "nodes": [7570757644, 7570757645, 7570757646, 7570757648, 7570757640, 7570757647, 7570757639, 7570757641, 7570757636, 7570757637, 7570757652, 7570757654, 7570757653, 7570757638, 7570757634, 7570757650, 7570757651, 7570757649, 7570757642, 7570757643, 7570757635, 7570757644], "tags": {"building": "residential"}}, {"type": "way", "id": 809713476, "center": {"lat": 29.564148, "lon": 106.5765284}, "nodes": [7570757657, 7570757670, 7570757671, 7570757672, 7570757669, 7570757655, 7570757664, 7570757667, 7570757668, 7570757665, 7570757666, 7570757656, 7570757658, 7570757663, 7570757662, 7570757659, 7570757660, 7570757661, 7570757657], "tags": {"building": "residential"}}, {"type": "way", "id": 809713477, "center": {"lat": 29.5641418, "lon": 106.576078}, "nodes": [7570757676, 7570757675, 7570757674, 7570757673, 7570757676], "tags": {"building": "residential"}}, {"type": "way", "id": 809713478, "center": {"lat": 29.5639611, "lon": 106.5761956}, "nodes": [7570757680, 7570757679, 7570757678, 7570757677, 7570757681, 7570757682, 7570757684, 7570757683, 7570757686, 7570757685, 7570757680], "tags": {"building": "residential"}}, {"type": "way", "id": 809713479, "center": {"lat": 29.5638733, "lon": 106.5758946}, "nodes": [7570757693, 7570757695, 7570757694, 7570757697, 7570757698, 7570757696, 7570757689, 7570757688, 7570757687, 7570757690, 7570757691, 7570757692, 7570757693], "tags": {"building": "residential"}}, {"type": "way", "id": 809713480, "center": {"lat": 29.5637272, "lon": 106.5756694}, "nodes": [7570757708, 7570757707, 7570757706, 7570757699, 7570757700, 7570757701, 7570757702, 7570757703, 7570757704, 7570757705, 7570757708], "tags": {"building": "residential"}}, {"type": "way", "id": 809713482, "center": {"lat": 29.5638835, "lon": 106.5752727}, "nodes": [7570757736, 7570757739, 7570757738, 7570757737, 7570757732, 7570757733, 7570757734, 7570757735, 7570757736], "tags": {"building": "residential"}}, {"type": "way", "id": 809713483, "center": {"lat": 29.5639758, "lon": 106.5756187}, "nodes": [7570757744, 7570757745, 7570757747, 7570757748, 7570757749, 7570757746, 7570757743, 7570757742, 7570757741, 7570757740, 7570757744], "tags": {"building": "residential"}}, {"type": "way", "id": 809713484, "center": {"lat": 29.5641798, "lon": 106.5755572}, "nodes": [7570757761, 7570757760, 7570757759, 7570757756, 7570757751, 7570757755, 7570757752, 7570757753, 7570757754, 7570757750, 7570757757, 7570757758, 7570757761], "tags": {"building": "residential"}}, {"type": "way", "id": 809713485, "center": {"lat": 29.5644237, "lon": 106.5757931}, "nodes": [7570757762, 7570757776, 7570757775, 7570757774, 7570757773, 7570757777, 7570757778, 7570757781, 7570757780, 7570757779, 7570757763, 7570757772, 7570757770, 7570757764, 7570757765, 7570757766, 7570757769, 7570757768, 7570757767, 7570757771, 7570757762], "tags": {"building": "residential"}}, {"type": "way", "id": 809713486, "center": {"lat": 29.5643133, "lon": 106.5751893}, "nodes": [7570757791, 7570757793, 7570757792, 7570757782, 7570757789, 7570757787, 7570757790, 7570757786, 7570757788, 7570757783, 7570757785, 7570757784, 7570757791], "tags": {"building": "residential"}}, {"type": "way", "id": 809713490, "center": {"lat": 29.5641905, "lon": 106.5699331}, "nodes": [7570757879, 7570757884, 7570757875, 7570757874, 7570757872, 7570757858, 7570757868, 7570757856, 7570757871, 7570757870, 7570757857, 7570757869, 7570757859, 7570757873, 7570757860, 7570757861, 7570757867, 7570757866, 7570757888, 11727734282, 7570757885, 7570757865, 7570757864, 7570757863, 7570757862, 7570757880, 7570757878, 7570757877, 7570757854, 7570757882, 7570757883, 7570757855, 7570757876, 7570757879], "tags": {"building": "commercial", "name": "高盛创富展示中心"}}, {"type": "way", "id": 809713491, "center": {"lat": 29.5637283, "lon": 106.5690595}, "nodes": [7570757906, 7570757907, 7570757911, 7570757912, 7570757889, 7570757890, 7570757891, 7570757892, 7570757913, 7570757910, 7570757908, 7570757909, 7570757903, 7570757904, 7570757902, 7570757901, 7570757896, 7570757897, 7570757893, 7570757894, 7570757895, 7570757898, 7570757900, 7570757899, 7570757905, 7570757906], "tags": {"building": "residential"}}, {"type": "way", "id": 809713492, "center": {"lat": 29.5634822, "lon": 106.5691307}, "nodes": [7570757919, 7570757915, 7570757916, 7570757920, 7570757921, 7570757917, 7570757928, 7570757927, 7570757922, 7570757923, 7570757924, 7570757926, 7570757925, 7570757914, 7570757918, 7570757919], "tags": {"building": "residential"}}, {"type": "way", "id": 809713493, "center": {"lat": 29.5632799, "lon": 106.5689805}, "nodes": [7570757930, 7570757938, 7570757939, 7570757933, 7570757935, 7570757936, 7570757934, 7570757940, 7570757937, 7570757929, 7570757932, 7570757931, 7570757930], "tags": {"building": "residential"}}, {"type": "way", "id": 809713495, "center": {"lat": 29.5635544, "lon": 106.5728414}, "nodes": [7570757955, 7570757954, 7570757953, 7570757952, 7570757955], "tags": {"building": "residential"}}, {"type": "way", "id": 809713496, "center": {"lat": 29.5634004, "lon": 106.572897}, "nodes": [7570757959, 7570757958, 7570757957, 7570757956, 7570757959], "tags": {"building": "residential"}}, {"type": "way", "id": 809713497, "center": {"lat": 29.5634982, "lon": 106.5730785}, "nodes": [7570757963, 7570757962, 7570757961, 7570757960, 7570757963], "tags": {"building": "residential"}}, {"type": "way", "id": 809713509, "center": {"lat": 29.5647365, "lon": 106.5735543}, "nodes": [7570758026, 7570758034, 7570758036, 7570758035, 7570758027, 7570758033, 7570758031, 7570758030, 7570758029, 7570758028, 7570758032, 7570758026], "tags": {"building": "residential"}}, {"type": "way", "id": 809713517, "center": {"lat": 29.5635547, "lon": 106.5710747}, "nodes": [7570758109, 7570758111, 7570758113, 7570757286, 7570758112, 7570758105, 7570758108, 7570758107, 7570758106, 7570758104, 7570758110, 7570758109], "tags": {"building": "residential"}}, {"type": "way", "id": 809713518, "center": {"lat": 29.5638413, "lon": 106.5713655}, "nodes": [7570758117, 7570758114, 7570758115, 7570758116, 7570758118, 7570758117], "tags": {"building": "residential"}}, {"type": "way", "id": 809713519, "center": {"lat": 29.563974, "lon": 106.5714362}, "nodes": [7570758121, 7570758120, 7570758119, 7570758117, 7570758118, 7570758121], "tags": {"building": "residential"}}, {"type": "way", "id": 809713520, "center": {"lat": 29.5637477, "lon": 106.5717707}, "nodes": [7570758129, 7570758123, 7570758128, 7570758122, 7570758131, 7570758130, 7570758127, 7570758126, 7570758125, 7570758124, 7570758129], "tags": {"building": "residential"}}, {"type": "way", "id": 809713521, "center": {"lat": 29.5639737, "lon": 106.5717274}, "nodes": [7570758139, 7570758135, 7570758136, 7570758137, 7570758138, 7570758141, 7570758132, 7570758133, 7570758134, 7570758140, 7570758139], "tags": {"building": "residential"}}, {"type": "way", "id": 809713522, "center": {"lat": 29.5639731, "lon": 106.5720224}, "nodes": [7570758161, 7570758158, 7570758145, 7570758142, 7570758156, 7570758155, 7570758154, 7570758157, 7570758143, 7570758147, 7570758159, 7570758160, 7570758146, 7570758150, 7570758162, 7570758165, 7570758151, 7570758153, 7570758166, 7570758169, 7570758168, 7570758167, 7570758152, 7570758149, 7570758164, 7570758163, 7570758148, 7570758144, 7570758161], "tags": {"building": "residential"}}, {"type": "way", "id": 809713523, "center": {"lat": 29.5639081, "lon": 106.5723175}, "nodes": [7570758173, 7570758170, 7570758171, 7570758172, 7570758173], "tags": {"building": "residential"}}, {"type": "way", "id": 809713524, "center": {"lat": 29.5640936, "lon": 106.5722536}, "nodes": [7570758185, 7570758184, 7570758183, 7570758177, 7570758175, 7570758181, 7570758178, 7570758179, 7570758180, 7570758174, 7570758176, 7570758182, 7570758185], "tags": {"building": "residential"}}, {"type": "way", "id": 809713525, "center": {"lat": 29.5639787, "lon": 106.5726877}, "nodes": [7570758186, 7570758192, 7570758210, 7570758197, 7570758207, 7570758198, 7570758186], "tags": {"building": "residential"}}, {"type": "way", "id": 809713526, "center": {"lat": 29.5639877, "lon": 106.5729457}, "nodes": [7570758206, 7570758205, 7570758200, 7570758201, 7570758203, 7570758204, 7570758202, 7570758209, 7570758208, 7570758207, 7570758197, 7570758210, 7570758199, 7570758206], "tags": {"building": "residential"}}, {"type": "way", "id": 809713527, "center": {"lat": 29.5640722, "lon": 106.5736208}, "nodes": [7570758214, 7570758213, 7570758212, 7570758211, 7570758214], "tags": {"building": "residential"}}, {"type": "way", "id": 809713528, "center": {"lat": 29.5638906, "lon": 106.5736038}, "nodes": [7570758218, 7570758215, 7570758216, 7570758223, 7570758230, 7570758224, 7570758219, 7570758221, 7570758222, 7570758220, 7570758225, 7570758226, 7570758237, 7570758228, 7570758227, 7570758217, 7570758218], "tags": {"building": "residential"}}, {"type": "way", "id": 809713529, "center": {"lat": 29.5637505, "lon": 106.5736971}, "nodes": [7570758240, 7570758235, 7570758234, 7570758233, 7570758232, 7570758231, 7570758230, 7570758224, 7570758229, 7570758241, 7570758240], "tags": {"building": "residential"}}, {"type": "way", "id": 809713530, "center": {"lat": 29.5637818, "lon": 106.5734143}, "nodes": [7570758236, 7570758243, 7570758241, 7570758240, 7570758239, 7570758242, 7570758245, 7570758244, 7570758238, 7570758237, 7570758236], "tags": {"building": "residential"}}, {"type": "way", "id": 809713531, "center": {"lat": 29.5637351, "lon": 106.5730714}, "nodes": [7570758246, 7570758251, 7570758252, 7570758253, 7570758254, 7570758255, 7570758256, 7570758247, 7570758250, 7570758249, 7570758248, 7570758246], "tags": {"building": "residential"}}, {"type": "way", "id": 809713534, "center": {"lat": 29.563766, "lon": 106.5725799}, "nodes": [7570758288, 7570758287, 7570758286, 7570758285, 7570758288], "tags": {"building": "residential"}}, {"type": "way", "id": 809713535, "center": {"lat": 29.5635876, "lon": 106.572191}, "nodes": [7570758291, 7570758290, 7570758289, 7570758292, 7570758293, 7570758296, 7570758295, 7570758294, 7570758291], "tags": {"building": "residential"}}, {"type": "way", "id": 809713537, "center": {"lat": 29.5643035, "lon": 106.5734846}, "nodes": [7570758322, 7570758321, 7570758320, 7570758319, 7570758322], "tags": {"building": "residential"}}, {"type": "way", "id": 809713538, "center": {"lat": 29.5643912, "lon": 106.5739863}, "nodes": [7570758331, 7570758332, 7570758334, 7570758333, 7570758324, 7570758325, 7570758323, 7570758326, 7570758330, 7570758329, 7570758327, 7570758328, 7570758331], "tags": {"building": "residential"}}, {"type": "way", "id": 809713539, "center": {"lat": 29.5640839, "lon": 106.5740421}, "nodes": [7570758335, 7570758337, 7570758338, 7570758336, 7570758339, 7570758340, 7570758341, 7570758342, 7570758343, 7570758345, 7570758344, 7570758335], "tags": {"building": "residential"}}, {"type": "way", "id": 809713540, "center": {"lat": 29.563874, "lon": 106.5739838}, "nodes": [7570758346, 7570758359, 7570758356, 7570758357, 7570758358, 7570758347, 7570758354, 7570758353, 7570758352, 7570758350, 7570758349, 7570758348, 7570758351, 7570758355, 7570758346], "tags": {"building": "residential"}}, {"type": "way", "id": 809713541, "center": {"lat": 29.5642301, "lon": 106.5743477}, "nodes": [7570758374, 7570758372, 7570758363, 7570758371, 7570758361, 7570758369, 7570758370, 7570758362, 7570758368, 7570758367, 7570758366, 7570758364, 7570758365, 7570758360, 7570758373, 7570758374], "tags": {"building": "residential"}}, {"type": "way", "id": 809887592, "center": {"lat": 29.5578908, "lon": 106.5662212}, "nodes": [7571982496, 7571982502, 7571982503, 7571982501, 7571982497, 7571982498, 7571982500, 7571982499, 7571982496], "tags": {"building": "residential"}}, {"type": "way", "id": 809887593, "center": {"lat": 29.5591707, "lon": 106.5667852}, "nodes": [7571982504, 7571982518, 7571982519, 7571982505, 7571982522, 7571982521, 7571982513, 7571982512, 7571982511, 7571982514, 7571982515, 7571982510, 7571982509, 7571982516, 7571982517, 7571982506, 7571982507, 7571982508, 7571982520, 7571982523, 7571982504], "tags": {"building": "residential"}}, {"type": "way", "id": 809887594, "center": {"lat": 29.5592466, "lon": 106.5665598}, "nodes": [7571982530, 7571982529, 7571982527, 7571982528, 7571982531, 7571982532, 7571982533, 7571982573, 7571982574, 7571982524, 7571982526, 7571982525, 7571982530], "tags": {"building": "residential"}}, {"type": "way", "id": 809887595, "center": {"lat": 29.5595004, "lon": 106.566192}, "nodes": [7571982546, 7571982545, 7571982544, 7571982543, 7571982542, 7571982541, 7571982540, 7571982539, 7571982538, 7571982537, 7571982536, 7571982535, 7571982561, 7571982562, 7571982534, 7571982546], "tags": {"building": "residential"}}, {"type": "way", "id": 809887596, "center": {"lat": 29.5594053, "lon": 106.5663204}, "nodes": [7571982564, 7571982563, 7571982562, 7571982561, 7571982560, 7571982559, 7571982558, 7571982557, 7571982556, 7571982555, 7571982554, 7571982553, 7571982584, 7571983585, 7571982552, 7571982551, 7571982550, 7571982549, 7571982548, 7571982547, 7571982564], "tags": {"building": "residential"}}, {"type": "way", "id": 809887597, "center": {"lat": 29.5593017, "lon": 106.5664481}, "nodes": [7571983585, 7571982584, 7571982583, 7571982582, 7571982581, 7571982580, 7571982579, 7571982578, 7571982525, 7571982526, 7571982577, 7571982576, 7571982575, 7571982574, 7571982573, 7571982572, 7571982571, 7571982570, 7571982569, 7571982568, 7571982567, 7571982566, 7571982565, 7571983585], "tags": {"building": "residential"}}, {"type": "way", "id": 809887605, "center": {"lat": 29.5577545, "lon": 106.5681812}, "nodes": [7571983676, 7571983680, 7571983683, 7571983674, 7571983673, 7571983672, 7571983671, 7571983670, 7571983675, 7571983682, 7571983681, 7571983679, 7571983678, 7571983677, 7571983676], "tags": {"building": "residential"}}, {"type": "way", "id": 809887606, "center": {"lat": 29.557795, "lon": 106.5667646}, "nodes": [7571983689, 7571983687, 7571983688, 7571983686, 7571983685, 7571983684, 7571983689], "tags": {"building": "residential"}}, {"type": "way", "id": 809887611, "center": {"lat": 29.5589516, "lon": 106.5664369}, "nodes": [7571983722, 7571983718, 7571983724, 7571983725, 7571983716, 7571983719, 7571983720, 7571983715, 7571983726, 7571983723, 7571983717, 7571983721, 7571983722], "tags": {"building": "residential"}}, {"type": "way", "id": 809887612, "center": {"lat": 29.5583371, "lon": 106.5666119}, "nodes": [7571983730, 7571983727, 7571983728, 7571983729, 7571983730], "tags": {"building": "residential"}}, {"type": "way", "id": 809887613, "center": {"lat": 29.5581944, "lon": 106.5667095}, "nodes": [7571983734, 7571983731, 7571983732, 7571983733, 7571983734], "tags": {"building": "residential"}}, {"type": "way", "id": 809887614, "center": {"lat": 29.5585212, "lon": 106.5664956}, "nodes": [7571983742, 7571983737, 7571983736, 7571983735, 7571983738, 7571983739, 7571983740, 7571983741, 7571983744, 7571983743, 7571983742], "tags": {"building": "residential"}}, {"type": "way", "id": 809887616, "center": {"lat": 29.5591485, "lon": 106.5682511}, "nodes": [7571983758, 7571983751, 7571983750, 7571983749, 7571983758], "tags": {"building": "residential"}}, {"type": "way", "id": 809887617, "center": {"lat": 29.5587437, "lon": 106.5683202}, "nodes": [7571983774, 7571983771, 7571983768, 7571983769, 7571983764, 7571983767, 7571983770, 7571983772, 7571983773, 7571983777, 7571983774], "tags": {"building": "residential"}}, {"type": "way", "id": 809887618, "center": {"lat": 29.5589074, "lon": 106.5683892}, "nodes": [7571983765, 7571983766, 7571983767, 7571983764, 7571983763, 7571983762, 7571983759, 7571983760, 7571983761, 7571983765], "tags": {"building": "residential"}}, {"type": "way", "id": 809887619, "center": {"lat": 29.5590442, "lon": 106.5683082}, "nodes": [7571983756, 7571983757, 7571983751, 7571983758, 7571983755, 7571983752, 7571983760, 7571983759, 7571983754, 7571983753, 7571983756], "tags": {"building": "residential"}}, {"type": "way", "id": 809887620, "center": {"lat": 29.5585658, "lon": 106.568278}, "nodes": [7571983778, 7571983774, 7571983777, 7571983776, 7571983775, 7571983778], "tags": {"building": "residential"}}, {"type": "way", "id": 809887621, "center": {"lat": 29.5585898, "lon": 106.5681354}, "nodes": [7571983784, 7571983787, 7571983781, 7571983780, 7571983779, 7571983783, 7571983782, 7571983785, 7571983784], "tags": {"building": "residential"}}, {"type": "way", "id": 809887622, "center": {"lat": 29.5586507, "lon": 106.5680612}, "nodes": [7571983789, 7571983788, 7571983787, 7571983784, 7571983785, 7571983786, 7571983789], "tags": {"building": "residential"}}, {"type": "way", "id": 809887623, "center": {"lat": 29.5588383, "lon": 106.5678191}, "nodes": [7571983793, 7571983790, 7571983791, 7571983792, 7571983793], "tags": {"building": "residential"}}, {"type": "way", "id": 809887624, "center": {"lat": 29.5579563, "lon": 106.5685134}, "nodes": [7571983798, 7571983797, 7571983796, 7571983795, 7571983798], "tags": {"building": "residential"}}, {"type": "way", "id": 809887625, "center": {"lat": 29.5581211, "lon": 106.5686626}, "nodes": [7571983802, 7571983801, 7571983800, 7571983799, 7571983802], "tags": {"building": "residential"}}, {"type": "way", "id": 809887626, "center": {"lat": 29.5584101, "lon": 106.5673184}, "nodes": [7571983807, 7571983805, 7571983804, 7571983803, 7571983807], "tags": {"building": "residential"}}, {"type": "way", "id": 809887627, "center": {"lat": 29.5585699, "lon": 106.5673345}, "nodes": [7571983809, 7571983806, 7571983805, 7571983807, 7571983808, 7571983809], "tags": {"building": "residential"}}, {"type": "way", "id": 809887628, "center": {"lat": 29.55872, "lon": 106.5673021}, "nodes": [7571983813, 7571983815, 7571983812, 7571983811, 7571983810, 7571983813], "tags": {"building": "residential"}}, {"type": "way", "id": 809887629, "center": {"lat": 29.5587157, "lon": 106.5671602}, "nodes": [7571983817, 7571983816, 7571983815, 7571983813, 7571983814, 7571983817], "tags": {"building": "residential"}}, {"type": "way", "id": 809887630, "center": {"lat": 29.5588302, "lon": 106.567074}, "nodes": [7571983822, 7571983818, 7571983819, 7571983820, 7571983822], "tags": {"building": "residential"}}, {"type": "way", "id": 809887631, "center": {"lat": 29.5589196, "lon": 106.5670002}, "nodes": [7571983824, 7571983823, 7571983822, 7571983820, 7571983824], "tags": {"building": "residential"}}, {"type": "way", "id": 809887632, "center": {"lat": 29.5584879, "lon": 106.5668868}, "nodes": [7571983899, 7571983898, 7571983889, 7571983839, 7571983835, 7571983881, 7571983882, 7571983879, 7571983880, 7571983836, 7571983840, 7571983888, 7571983887, 7571983838, 7571983834, 7571983884, 7571983883, 7571983886, 7571983885, 7571983833, 7571983837, 7571983899], "tags": {"building": "residential"}}, {"type": "way", "id": 809887633, "center": {"lat": 29.5583622, "lon": 106.5669922}, "nodes": [7571983887, 7571983888, 7571983878, 7571983847, 7571983843, 7571983870, 7571983871, 7571983868, 7571983869, 7571983844, 7571983848, 7571983877, 7571983867, 7571983876, 7571983846, 7571983842, 7571983872, 7571983873, 7571983874, 7571983875, 7571983841, 7571983845, 7571983887], "tags": {"building": "residential"}}, {"type": "way", "id": 809887634, "center": {"lat": 29.5582542, "lon": 106.567089}, "nodes": [7571983854, 7571983866, 7571983865, 7571983853, 7571983850, 7571983862, 7571983861, 7571983864, 7571983863, 7571983849, 7571983851, 7571983876, 7571983867, 7571983852, 7571983855, 7571983859, 7571983860, 7571983857, 7571983858, 7571983856, 7571983854], "tags": {"building": "residential"}}, {"type": "way", "id": 809887635, "center": {"lat": 29.5586129, "lon": 106.5667863}, "nodes": [7571983825, 7571983829, 7571983900, 7571983902, 7571983831, 7571983827, 7571983892, 7571983893, 7571983890, 7571983891, 7571983828, 7571983832, 7571983898, 7571983899, 7571983830, 7571983826, 7571983895, 7571983894, 7571983897, 7571983896, 7571983825], "tags": {"building": "residential"}}, {"type": "way", "id": 809887636, "center": {"lat": 29.5587282, "lon": 106.5666849}, "nodes": [7571983904, 7571983907, 7571983906, 7571983905, 7571983911, 7571983914, 7571983913, 7571983912, 7571983908, 7571983909, 7571983910, 7571983903, 7571983902, 7571983900, 7571983901, 7571983904], "tags": {"building": "residential"}}, {"type": "way", "id": 809887639, "center": {"lat": 29.557872, "lon": 106.5645801}, "nodes": [7571983934, 7571983962, 7571983961, 7571983933, 7571983930, 7571983966, 7571983965, 7571983929, 7571983969, 7571983972, 7571983931, 7571983968, 7571983967, 7571983932, 7571983935, 7571983964, 7571983963, 7571983936, 7571983939, 7571983960, 7571983959, 7571983940, 7571983943, 7571983956, 7571983955, 7571983944, 7571983946, 7571983952, 7571983951, 7571983948, 7571983971, 7571983970, 7571983947, 7571983950, 7571983949, 7571983945, 7571983942, 7571983954, 7571983953, 7571983941, 7571983938, 7571983958, 7571983957, 7571983937, 7571983934], "tags": {"building": "residential"}}, {"type": "way", "id": 809889593, "center": {"lat": 29.5548741, "lon": 106.5663474}, "nodes": [7571996315, 7571996309, 7571996310, 7571996311, 7571996314, 7571996317, 7571996312, 7571996318, 7571996320, 7571996323, 7571996322, 7571996321, 7571996319, 7571996313, 7571996316, 7571996315], "tags": {"building": "residential"}}, {"type": "way", "id": 809889594, "center": {"lat": 29.5551291, "lon": 106.566013}, "nodes": [7571996327, 7571996326, 7571996325, 7571996324, 7571996328, 7571996329, 7571996330, 7571996327], "tags": {"building": "residential"}}, {"type": "way", "id": 809889595, "center": {"lat": 29.5556993, "lon": 106.5663415}, "nodes": [7571996363, 7571996366, 7571996367, 7571996368, 7571996331, 7571996365, 7571996364, 7571996332, 7571996333, 7571996359, 7571996360, 7571996334, 7571996362, 7571996361, 7571996358, 7571996363], "tags": {"building": "residential"}}, {"type": "way", "id": 809889596, "center": {"lat": 29.5553896, "lon": 106.5663478}, "nodes": [7571996348, 7571996351, 7571996352, 7571996335, 7571996354, 7571996357, 7571996358, 7571996361, 7571996355, 7571996356, 7571996353, 7571996336, 7571996349, 7571996350, 7571996339, 7571996343, 7571996341, 7571996342, 7571996340, 7571996337, 7571996344, 7571996345, 7571996338, 7571996346, 7571996347, 7571996348], "tags": {"building": "residential"}}, {"type": "way", "id": 809889597, "center": {"lat": 29.5563882, "lon": 106.5638864}, "nodes": [7571996373, 7571996371, 7571996370, 7571996369, 7571996374, 7571996375, 7571996372, 7571996373], "tags": {"building": "residential"}}, {"type": "way", "id": 809889598, "center": {"lat": 29.5561077, "lon": 106.5635252}, "nodes": [7572002611, 7572002612, 7572002605, 7571996379, 7572002603, 7572002602, 7572002592, 7571996383, 7572002591, 7572002588, 7571996384, 7572002586, 7572002587, 7572002585, 7572002589, 7572002590, 7571996382, 7572002593, 7571996380, 7572002599, 7572002597, 7572002598, 7572002596, 7571996376, 7572002594, 7572002595, 7571996377, 7572002600, 7571996381, 7572002601, 7572002604, 7571996378, 7572002606, 7572002613, 7572002615, 7572002614, 7572002610, 7572002609, 7572002608, 7572002607, 7572002611], "tags": {"building": "residential"}}, {"type": "way", "id": 809889599, "center": {"lat": 29.5557043, "lon": 106.5633654}, "nodes": [7572002634, 7572002632, 7572002616, 7572002618, 7572002631, 7572002627, 7572002628, 7572002629, 7572002630, 7572002619, 7572002620, 7572002626, 7572002625, 7572002624, 7572002637, 7572002623, 7572002622, 7572002621, 7572002635, 7572002636, 7572002617, 7572002633, 7572002634], "tags": {"building": "residential"}}, {"type": "way", "id": 809889600, "center": {"lat": 29.55528, "lon": 106.5631421}, "nodes": [7572002641, 7572002640, 7572002639, 7572002638, 7572002641], "tags": {"building": "residential"}}, {"type": "way", "id": 809889601, "center": {"lat": 29.5551749, "lon": 106.5625181}, "nodes": [7572002654, 7572002644, 7572002643, 7572002642, 7572002654], "tags": {"building": "residential"}}, {"type": "way", "id": 809889602, "center": {"lat": 29.5550805, "lon": 106.5630172}, "nodes": [7572002651, 7572002649, 7572002648, 7572002647, 7572002646, 7572002645, 7572002650, 7572002653, 7572002654, 7572002642, 7572002655, 7572002652, 7572002651], "tags": {"building": "residential"}}, {"type": "way", "id": 809889603, "center": {"lat": 29.5543734, "lon": 106.5655167}, "nodes": [7572002667, 7572002666, 7572002665, 7572002662, 7572002657, 7572002660, 7572002659, 7572002658, 7572002661, 7572002656, 7572002663, 7572002664, 7572002667], "tags": {"building": "residential"}}, {"type": "way", "id": 809889604, "center": {"lat": 29.5541942, "lon": 106.5651204}, "nodes": [7572002677, 7572002676, 7572002678, 7572002668, 7572002680, 7572002681, 7572002679, 7572002669, 7572002673, 7572002674, 7572002672, 7572002671, 7572002670, 7572002675, 7572002677], "tags": {"building": "residential"}}, {"type": "way", "id": 809889606, "center": {"lat": 29.5553645, "lon": 106.5645264}, "nodes": [7572002697, 7572002694, 7572002695, 7572002696, 7572002697], "tags": {"building": "residential"}}, {"type": "way", "id": 809889607, "center": {"lat": 29.5561199, "lon": 106.5658303}, "nodes": [7572002707, 7572002706, 7572002702, 7572002698, 7572002705, 7572002703, 7572002714, 7572002704, 7572002715, 7572002716, 7572002713, 7572002712, 7572002711, 7572002710, 7572002699, 7572002709, 7572002708, 7572002700, 7572002701, 7572002707], "tags": {"building": "residential"}}, {"type": "way", "id": 809889611, "center": {"lat": 29.556397, "lon": 106.5657275}, "nodes": [7572002743, 7572002751, 7572002763, 7572002764, 7572002765, 7572002768, 7572002767, 7572002753, 7572002766, 7572002752, 7572002754, 7572002744, 7572002749, 7572002755, 7572002756, 7572002750, 7572002747, 7572002757, 7572002758, 7572002748, 7572002745, 7572002759, 7572002760, 7572002746, 7572002742, 7572002761, 7572002762, 7572002743], "tags": {"building": "residential"}}, {"type": "way", "id": 809889612, "center": {"lat": 29.5554025, "lon": 106.5659988}, "nodes": [7572002779, 7572002782, 7572002769, 7572002772, 7572002771, 7572002770, 7572002781, 7572002780, 7572002776, 7572002777, 7572002778, 7572002775, 7572002774, 7572002773, 7572002779], "tags": {"building": "residential"}}, {"type": "way", "id": 809889618, "center": {"lat": 29.5562513, "lon": 106.5667296}, "nodes": [7572002820, 7572002823, 7572002822, 7572002821, 7572002817, 7572002818, 7572002819, 7572002820], "tags": {"building": "residential"}}, {"type": "way", "id": 809889619, "center": {"lat": 29.5552345, "lon": 106.5670014}, "nodes": [7572002827, 7572002828, 7572002829, 7572002826, 7572002830, 7572002832, 7572002831, 7572002833, 7572002835, 7572002836, 7572002824, 7572002845, 7572002841, 7572002840, 7572002839, 7572002848, 7572002847, 7572002842, 7572002843, 7572002844, 7572002846, 7572002838, 7572002825, 7572002837, 7572002834, 7572002827], "tags": {"building": "residential", "name": "下回水沟1号楼"}}, {"type": "way", "id": 809889620, "center": {"lat": 29.5547815, "lon": 106.5671357}, "nodes": [7572002853, 7572002852, 7572002855, 7572002858, 7572002857, 7572002856, 7572002854, 7572002849, 7572002850, 7572002851, 7572002853], "tags": {"building": "residential"}}, {"type": "way", "id": 809889621, "center": {"lat": 29.5544985, "lon": 106.566432}, "nodes": [7572002865, 7572002864, 7572002863, 7572002862, 7572002861, 7572002860, 7572002859, 7572002865], "tags": {"building": "residential"}}, {"type": "way", "id": 809889622, "center": {"lat": 29.5534997, "lon": 106.5634947}, "nodes": [7572002870, 7572002877, 7572002872, 7572002873, 7572002876, 7572002875, 7572002874, 7572002893, 7572002892, 7572002888, 7572002889, 7572002890, 7572002887, 7572002883, 7572002882, 7572002881, 7572002885, 7572002886, 7572002884, 7572002891, 7572002894, 7572002871, 7572002869, 7572002878, 7572002880, 7572002879, 7572002870], "tags": {"building": "residential"}}, {"type": "way", "id": 809889623, "center": {"lat": 29.5526562, "lon": 106.5643836}, "nodes": [7572002900, 7572002896, 7572002895, 7572002899, 7572002898, 7572002897, 7572002900], "tags": {"building": "residential"}}, {"type": "way", "id": 809889624, "center": {"lat": 29.5530717, "lon": 106.5647089}, "nodes": [7572002912, 7572002909, 7572002903, 7572002901, 7572002908, 7572002905, 7572002906, 7572002907, 7572002902, 7572002904, 7572002910, 7572002911, 7572002912], "tags": {"building": "residential"}}, {"type": "way", "id": 809889625, "center": {"lat": 29.55363, "lon": 106.5656386}, "nodes": [7572002913, 7572002916, 7572002917, 7572002915, 7572002914, 7572002919, 7572002920, 7572002921, 7572002922, 7572002923, 7572002924, 7572002926, 7572002927, 7572002928, 7572002925, 7572002918, 7572002913], "tags": {"building": "residential", "building:levels": "37"}}, {"type": "way", "id": 809889626, "center": {"lat": 29.5529718, "lon": 106.5651418}, "nodes": [7572002932, 7572002931, 7572002930, 7572002929, 7572002932], "tags": {"building": "residential"}}, {"type": "way", "id": 809889627, "center": {"lat": 29.5533115, "lon": 106.5651051}, "nodes": [7572002941, 7572002942, 7572002940, 7572002937, 7572002938, 7572002939, 7572002936, 7572002933, 7572002934, 7572002935, 7572002944, 7572002945, 7572002943, 7572002941], "tags": {"building": "residential"}}, {"type": "way", "id": 809889628, "center": {"lat": 29.5536844, "lon": 106.5646651}, "nodes": [7572002949, 7572002948, 7572002946, 7572002947, 7572002952, 7572002955, 7572002954, 7572002953, 7572002951, 7572002950, 7572002949], "tags": {"building": "residential"}}, {"type": "way", "id": 809889629, "center": {"lat": 29.5538636, "lon": 106.5647254}, "nodes": [7572002962, 7572002959, 7572002958, 7572002957, 7572002961, 7572002960, 7572002963, 7572002966, 7572002965, 7572002964, 7572002962], "tags": {"building": "residential"}}, {"type": "way", "id": 809889630, "center": {"lat": 29.5542042, "lon": 106.5644835}, "nodes": [7572002968, 7572003004, 7572002967, 7572003007, 7572003008, 7572002974, 7572003010, 7572003011, 7572003009, 7572003006, 7572003005, 7572003001, 7572003002, 7572003003, 7572002994, 7572002975, 7572002982, 7572002981, 7572002980, 7572002979, 7572002973, 7572002986, 7572002985, 7572002983, 7572002984, 7572002987, 7572002972, 7572002978, 7572002977, 7572002976, 7572002992, 7572002990, 7572002989, 7572002988, 7572002991, 7572002993, 7572002970, 7572003000, 7572002998, 7572002999, 7572002971, 7572002969, 7572002996, 7572002995, 7572002997, 7572002968], "tags": {"building": "residential"}}, {"type": "way", "id": 809889631, "center": {"lat": 29.5547877, "lon": 106.565354}, "nodes": [7572003031, 7572003030, 7572003021, 7572003016, 7572003027, 7572003026, 7572003017, 7572003038, 7572003037, 7572003025, 7572003022, 7572003023, 7572003024, 7572003019, 7572003029, 7572003028, 7572003018, 7572003013, 7572003033, 7572003032, 7572003012, 7572003036, 7572003039, 7572003014, 7572003035, 7572003034, 7572003015, 7572003020, 7572003031], "tags": {"building": "residential"}}, {"type": "way", "id": 809889632, "center": {"lat": 29.5546398, "lon": 106.5645216}, "nodes": [7572003045, 7572003063, 7572003062, 7572003044, 7572003041, 7572003067, 7572003066, 7572003040, 7572003070, 7572003073, 7572003042, 7572003069, 7572003068, 7572003043, 7572003046, 7572003065, 7572003064, 7572003047, 7572003050, 7572003061, 7572003060, 7572003051, 7572003072, 7572003053, 7572003056, 7572003055, 7572003054, 7572003052, 7572003057, 7572003071, 7572003049, 7572003059, 7572003058, 7572003048, 7572003045], "tags": {"building": "residential"}}, {"type": "way", "id": 809889635, "center": {"lat": 29.5550034, "lon": 106.5649819}, "nodes": [7572003116, 7572003117, 7572003114, 7572003115, 7572003111, 7572003110, 7572003106, 7572003107, 7572003108, 7572003109, 7572003113, 7572003112, 7572003116], "tags": {"building": "residential"}}, {"type": "way", "id": 809893053, "center": {"lat": 29.5501971, "lon": 106.5427622}, "nodes": [7572018845, 7572018839, 7572018840, 7572018841, 7572018844, 7572018843, 7572018842, 7572018845], "tags": {"building": "residential"}},