{"elements": [{"type": "node", "id": 68215773, "lat": 31.2492473, "lon": 121.5689274, "tags": {"amenity": "hospital", "healthcare": "hospital", "wheelchair": "yes"}}, {"type": "node", "id": 100576736, "lat": 31.2416285, "lon": 121.580496, "tags": {"amenity": "hospital", "healthcare": "hospital", "name:en": "Dental Clinic"}}, {"type": "node", "id": 1029583181, "lat": 31.1995499, "lon": 121.622347, "tags": {"amenity": "hospital", "healthcare": "hospital", "name": "张江社区卫生服务中心"}}, {"type": "node", "id": 1165244071, "lat": 31.0477615, "lon": 121.7761239, "tags": {"amenity": "college", "name:en": "ShangHai Industry and Commerce Foreign Language College"}}, {"type": "node", "id": 1295449805, "lat": 31.2427926, "lon": 121.5807879, "tags": {"amenity": "kindergarten"}}, {"type": "node", "id": 1490119349, "lat": 31.2170104, "lon": 121.5210489, "tags": {"amenity": "hospital", "healthcare": "hospital", "name:en": "Shanghai Companion Animal Hospital"}}, {"type": "node", "id": 1663557748, "lat": 31.1417242, "lon": 121.5667649, "tags": {"amenity": "hospital", "healthcare": "hospital", "name": "Kangqiao Community Hospital"}}, {"type": "node", "id": 1663902954, "lat": 31.211577, "lon": 121.5150744, "tags": {"amenity": "police", "name": "塘桥派出所"}}, {"type": "node", "id": 1898150974, "lat": 31.1874318, "lon": 121.5390477, "tags": {"amenity": "kindergarten", "name": "天池幼儿园"}}, {"type": "node", "id": 2016133585, "lat": 31.130636, "lon": 121.534248, "tags": {"addr:city": "上海", "addr:country": "CN", "addr:housenumber": "B13B", "addr:postcode": "201315", "addr:province": "上海", "addr:state": "上海", "addr:street": "杨高南路5678号", "amenity": "college", "name": "中国电信天翼创投有限公司", "website": "http://www.189chuangyi.com"}}, {"type": "node", "id": 2690643041, "lat": 31.0953187, "lon": 121.5810035, "tags": {"amenity": "hospital", "healthcare": "hospital", "name": "上海市浦东新区周浦社区卫生服务中心", "wheelchair": "yes"}}, {"type": "node", "id": 3031729322, "lat": 31.1870394, "lon": 121.5483602, "tags": {"addr:city": "上海", "addr:housenumber": "246", "addr:postcode": "201204", "addr:street": "莲园路", "amenity": "school", "name": "海事大学附属北蔡中学"}}, {"type": "node", "id": 3039281971, "lat": 31.2668934, "lon": 121.5904608, "tags": {"amenity": "hospital", "healthcare": "hospital", "name": "公利医院金桥分部"}}, {"type": "node", "id": 3039285387, "lat": 31.2686816, "lon": 121.5894952, "tags": {"amenity": "hospital", "healthcare": "hospital", "name": "浦兴社区卫生中心"}}, {"type": "node", "id": 3039289265, "lat": 31.2719301, "lon": 121.5753613, "tags": {"amenity": "hospital", "name": "沪东医院"}}, {"type": "node", "id": 3041198019, "lat": 31.2706004, "lon": 121.5853612, "tags": {"amenity": "police"}}, {"type": "node", "id": 3041199981, "lat": 31.2707288, "lon": 121.5858759, "tags": {"amenity": "kindergarten"}}, {"type": "node", "id": 3069756105, "lat": 31.2448238, "lon": 121.5834748, "tags": {"amenity": "hospital", "healthcare": "hospital", "name": "Parkway Health"}}, {"type": "node", "id": 3069756130, "lat": 31.245051, "lon": 121.5842432, "tags": {"amenity": "kindergarten", "name:en": "Montessori"}}, {"type": "node", "id": 4064654901, "lat": 31.1444268, "lon": 121.6528171, "tags": {"amenity": "clinic", "name": "医务室", "name:en": "First Aid", "name:zh": "医务室", "website": "https://www.shanghaidisneyresort.com/en/guest-services/first-aid/"}}, {"type": "node", "id": 4064655845, "lat": 31.1451225, "lon": 121.6577631, "tags": {"amenity": "clinic", "healthcare": "clinic", "name": "医务室", "name:en": "First Aid", "name:zh": "医务室", "website": "https://www.shanghaidisneyresort.com/en/guest-services/first-aid/"}}, {"type": "node", "id": 4143710489, "lat": 30.9100417, "lon": 121.9176827, "tags": {"addr:housenumber": "1398号", "addr:street": "环湖西三路", "amenity": "school", "name": "上海中学东校"}}, {"type": "node", "id": 4487843789, "lat": 31.3248214, "lon": 121.6041147, "tags": {"addr:housenumber": "131", "addr:street": "富特中路", "amenity": "police", "name:en": "Wuxi Apptec"}}, {"type": "node", "id": 4735494025, "lat": 31.1389985, "lon": 121.4894251, "tags": {"addr:housenumber": "1973号", "addr:street": "济阳路", "amenity": "school", "name": "申浦驾校", "name:en": "ShenPu driving school"}}, {"type": "node", "id": 4872831856, "lat": 31.2817143, "lon": 121.6064295, "tags": {"amenity": "school", "name": "German School"}}, {"type": "node", "id": 4876671994, "lat": 31.1412285, "lon": 121.6574627, "tags": {"amenity": "clinic", "name": "医务室", "name:en": "First Aid", "name:zh": "医务室", "website": "https://www.shanghaidisneyresort.com/en/guest-services/first-aid/"}}, {"type": "node", "id": 4905922321, "lat": 31.2488294, "lon": 121.541557, "tags": {"amenity": "school", "name": "六师二附小", "name:zh": "六师二附小", "wheelchair": "yes"}}, {"type": "node", "id": 5042033122, "lat": 31.2151178, "lon": 121.5181617, "tags": {"amenity": "school", "name": "上海老年大学浦东分校", "name:zh": "上海老年大学浦东分校"}}, {"type": "node", "id": 5613085121, "lat": 31.1806082, "lon": 121.5924563, "tags": {"air_conditioning": "yes", "amenity": "clinic", "healthcare": "clinic", "name": "上海科技大学医务室", "name:zh": "上海科技大学医务室", "name:zh-Hans": "上海科技大学医务室", "name:zh-Hant": "上海科技大學醫務室", "operator": "上海科技大学", "operator:type": "government", "wheelchair": "yes"}}, {"type": "node", "id": 5716467924, "lat": 31.259957, "lon": 121.6822234, "tags": {"amenity": "police", "name:en": "police station", "name:ru": "Полиция Caolu", "opening_hours": "Mo-Fr 08:30-16:30"}}, {"type": "node", "id": 6682961957, "lat": 31.2774988, "lon": 121.5791376, "tags": {"amenity": "hospital", "healthcare": "hospital", "name": "沪东社区卫生中心"}}, {"type": "node", "id": 6684192734, "lat": 31.2654578, "lon": 121.6093961, "tags": {"amenity": "hospital", "healthcare": "hospital", "name": "金桥社区卫生中心"}}, {"type": "node", "id": 6814885610, "lat": 31.2566544, "lon": 121.5804602, "tags": {"amenity": "hospital", "healthcare": "hospital", "name": "金杨社区卫生中心金桥分中心"}}, {"type": "node", "id": 8482651001, "lat": 30.8936058, "lon": 121.8915273, "tags": {"amenity": "college", "name": "通识教育学院"}}, {"type": "node", "id": 8482651002, "lat": 30.8933732, "lon": 121.8919914, "tags": {"amenity": "college", "name": "健康管理学院"}}, {"type": "node", "id": 8484319980, "lat": 31.3199029, "lon": 121.5905802, "tags": {"addr:housenumber": "555-B111", "addr:street": "兰嵩路", "amenity": "school", "name": "Brain Champs"}}, {"type": "node", "id": 8543246317, "lat": 31.2394572, "lon": 121.5767189, "tags": {"addr:housenumber": "1779", "amenity": "school", "email": "info@imandarin.net", "name:en": "iMandarin", "opening_hours": "Mo-Su 09:00-17:00", "phone": "+86 400 188 5151", "website": "http://english.imandarin.net"}}, {"type": "node", "id": 10946845605, "lat": 31.1230489, "lon": 121.4969463, "tags": {"addr:housenumber": "28号", "addr:postcode": "200124", "addr:street": "和炯路", "amenity": "clinic", "healthcare": "clinic", "name": "和炯路卫生服务中心"}}, {"type": "node", "id": 11209389802, "lat": 31.1557942, "lon": 121.5613244, "tags": {"amenity": "hospital", "healthcare": "hospital", "name": "御康医院"}}, {"type": "node", "id": 11209398812, "lat": 31.2714062, "lon": 121.6544675, "tags": {"amenity": "clinic", "healthcare": "clinic", "name": "医务室"}}, {"type": "node", "id": 11221865393, "lat": 31.1757123, "lon": 121.5117841, "tags": {"amenity": "clinic", "healthcare": "clinic", "name": "周家渡卫生服务中心成山服务站"}}, {"type": "node", "id": 11257034445, "lat": 31.0915357, "lon": 121.5877148, "tags": {"amenity": "kindergarten", "name": "周东幼儿园"}}, {"type": "node", "id": 11257034466, "lat": 31.0904541, "lon": 121.5905138, "tags": {"amenity": "school", "name": "吴迅中学"}}, {"type": "node", "id": 11257171658, "lat": 31.0987414, "lon": 121.5845128, "tags": {"amenity": "school", "name": "周浦实验学校"}}, {"type": "node", "id": 11257171818, "lat": 31.0957503, "lon": 121.5923179, "tags": {"amenity": "kindergarten", "name": "傅雷幼儿园"}}, {"type": "node", "id": 11257171832, "lat": 31.0953773, "lon": 121.5915717, "tags": {"amenity": "kindergarten", "name": "童心幼儿园"}}, {"type": "node", "id": 11257171855, "lat": 31.0942354, "lon": 121.592502, "tags": {"amenity": "school", "name": "周浦实验学校"}}, {"type": "node", "id": 11266492389, "lat": 31.1114038, "lon": 121.585124, "tags": {"amenity": "police", "name": "周浦派出所"}}, {"type": "node", "id": 11280971755, "lat": 31.1499044, "lon": 121.5220582, "tags": {"amenity": "music_school", "name": "明日东方儿童文化艺术中心"}}, {"type": "node", "id": 11280971756, "lat": 31.1501936, "lon": 121.5222325, "tags": {"amenity": "dancing_school", "name": "舞芝灵舞蹈"}}, {"type": "node", "id": 11285530453, "lat": 31.1263642, "lon": 121.5798083, "tags": {"amenity": "hospital", "healthcare": "hospital", "name": "上海国龙医院"}}, {"type": "node", "id": 11299272068, "lat": 31.2335916, "lon": 121.7214127, "tags": {"amenity": "clinic", "healthcare": "clinic", "name": "沉香堂中医诊所"}}, {"type": "node", "id": 11582119424, "lat": 31.2035874, "lon": 121.7081564, "tags": {"amenity": "hospital", "healthcare": "hospital", "name": "浦东新区传染病医院"}}, {"type": "node", "id": 12073097660, "lat": 31.1227482, "lon": 121.5749681, "tags": {"amenity": "police", "name": "周浦镇平安屋"}}, {"type": "node", "id": 12088185230, "lat": 31.249187, "lon": 121.5861712, "tags": {"amenity": "police"}}, {"type": "node", "id": 12255322313, "lat": 30.875071, "lon": 121.8558047, "tags": {"amenity": "kindergarten", "name": "潮和幼儿园北园部"}}, {"type": "node", "id": 12281652341, "lat": 31.1451821, "lon": 121.6142069, "tags": {"amenity": "driving_school", "name": "申浦驾校"}}, {"type": "node", "id": 12288355168, "lat": 31.0334185, "lon": 121.6346123, "tags": {"amenity": "prep_school", "name": "精灵艺术中心"}}, {"type": "node", "id": 12288601095, "lat": 31.0258644, "lon": 121.6365837, "tags": {"amenity": "driving_school", "name": "广源驾校"}}, {"type": "node", "id": 12300961658, "lat": 31.1199156, "lon": 121.6917153, "tags": {"amenity": "kindergarten", "name": "果园幼儿园"}}, {"type": "node", "id": 12303865085, "lat": 31.0619013, "lon": 121.708918, "tags": {"amenity": "prep_school", "name": "听吧音乐工作室"}}, {"type": "node", "id": 12303865092, "lat": 31.0626243, "lon": 121.7087623, "tags": {"amenity": "prep_school", "name": "墨一书法"}}, {"type": "node", "id": 12303865112, "lat": 31.0639734, "lon": 121.7085428, "tags": {"amenity": "prep_school", "name": "星辰跆拳道"}}, {"type": "node", "id": 12309170933, "lat": 31.1271975, "lon": 121.4946584, "tags": {"amenity": "music_school", "name": "OpenEars音乐艺术活动中心(和融路店)"}}, {"type": "node", "id": 12328152319, "lat": 31.1366119, "lon": 121.4839004, "tags": {"amenity": "kindergarten", "name": "东方锦绣前滩幼儿园"}}, {"type": "node", "id": 12517279001, "lat": 31.1748905, "lon": 121.5011353, "tags": {"addr:housenumber": "421弄", "addr:street": "成山路", "amenity": "police", "name": "上海市武警总队第一支队"}}, {"type": "node", "id": 12735819496, "lat": 31.0584848, "lon": 121.7809541, "tags": {"amenity": "school", "name": "浦东新区东城学校"}}, {"type": "node", "id": 13011306586, "lat": 31.1478169, "lon": 121.6177898, "tags": {"amenity": "school", "name": "民办华曜浦东实验学校"}}, {"type": "node", "id": 13011306587, "lat": 31.1470109, "lon": 121.6199564, "tags": {"amenity": "school", "name": "民办光华中学"}}, {"type": "node", "id": 13190153101, "lat": 30.8932779, "lon": 121.8049045, "tags": {"amenity": "school", "name": "上海交通大学附属浦东临港实验中学"}}, {"type": "node", "id": 13190153102, "lat": 30.8933838, "lon": 121.8027916, "tags": {"amenity": "school", "name": "上海交通大学附属浦东临港实验小学"}}, {"type": "node", "id": 13352752547, "lat": 31.1931394, "lon": 121.6664914, "tags": {"amenity": "clinic", "healthcare": "clinic", "name": "华夏社区卫生服务中心"}}, {"type": "node", "id": 13574801694, "lat": 31.0272577, "lon": 121.6560478, "tags": {"amenity": "hospital", "healthcare": "hospital"}}, {"type": "way", "id": 10266541, "center": {"lat": 31.2397188, "lon": 121.580584}, "nodes": [85710315, 85710316, 85710317, 85710318, 3071426751, 85710319, 85710190, 85710321, 85710323, 85710315], "tags": {"amenity": "school", "name": "上海德威英国国际学校", "name:en": "Dulwich"}}, {"type": "way", "id": 10267032, "center": {"lat": 31.2376269, "lon": 121.5831025}, "nodes": [85729490, 85729491, 85729492, 85729494, 85729490], "tags": {"amenity": "school", "name:en": "Dulwich"}}, {"type": "way", "id": 10267073, "center": {"lat": 31.2410819, "lon": 121.5868147}, "nodes": [85731262, 85731263, 85731265, 85731266, 85731262], "tags": {"amenity": "school", "name": "上海协和国际学校", "name:en": "Concordia International School Shanghai"}}, {"type": "way", "id": 10267099, "center": {"lat": 31.2421529, "lon": 121.5867158}, "nodes": [85732158, 85731262, 85731263, 85731265, 11633894311, 11633894310, 11633949253, 11633894309, 11633884997, 11633757427, 3071426768, 11633976501, 11633976498, 3071426787, 85732161, 85732158], "tags": {"amenity": "school", "name": "上海平和双语学校", "name:en": "Shanghai Pinghe Bilingual School", "source": "estimation"}}, {"type": "way", "id": 10267319, "center": {"lat": 31.240606, "lon": 121.5934284}, "nodes": [85738727, 11066368943, 85738728, 11066294385, 11066294384, 11066294383, 11066294382, 11066294381, 11066369032, 11066369027, 11066369128, 85738729, 11066294389, 11066294388, 11066294387, 11066294386, 11066369129, 94825238, 94825015, 94825000, 85738730, 11066294396, 85738727], "tags": {"amenity": "school", "name": "中欧国际工商学院", "name:en": "CEIBS"}}, {"type": "way", "id": 10695727, "center": {"lat": 31.2408149, "lon": 121.591974}, "nodes": [94824908, 11066369412, 85738730, 94825000, 94825015, 94824908], "tags": {"amenity": "hospital", "healthcare": "hospital", "name": "上海浦东新区妇幼保健院", "name:en": "Shanghai Pudong New Area Women and Children's Hospital"}}, {"type": "way", "id": 10695731, "center": {"lat": 31.242154, "lon": 121.5921934}, "nodes": [94825072, 94824908, 94825015, 94825238, 94825262, 100087361, 8887906381, 8887906408, 100087383, 100087433, 11066294392, 11066294393, 100087286, 11066294391, 94825072], "tags": {"amenity": "hospital", "healthcare": "hospital", "name": "复旦大学附属华山医院（浦东院区）", "name:en": "Fudan University Huashan Hospital"}}, {"type": "way", "id": 11268290, "center": {"lat": 31.2353432, "lon": 121.569698}, "nodes": [100055517, 100055648, 100055980, 100055556, 100055576, 8234764528, 8234764530, 8234764529, 8234764531, 100055517], "tags": {"amenity": "school", "grades": "1-9", "name": "上海市实验学校东校", "religion": "no"}}, {"type": "way", "id": 11272439, "center": {"lat": 31.2421865, "lon": 121.5912284}, "nodes": [100087433, 11066294392, 11066294393, 100087286, 11066294391, 94825072, 11066294390, 100087558, 100087577, 100087631, 100087875, 100087899, 100087916, 100087433], "tags": {"amenity": "hospital", "healthcare": "hospital", "name": "浦东新区医疗急救中心停车场"}}, {"type": "way", "id": 11371600, "center": {"lat": 31.2282637, "lon": 121.5689129}, "nodes": [101135950, 13430053766, 101136085, 101136231, 101136251, 101136256, 101136305, 101135950], "tags": {"addr:city": "上海", "addr:district": "浦东新区", "addr:housenumber": "120号", "addr:province": "上海市", "addr:street": "锦绣东路", "amenity": "hospital", "healthcare": "hospital", "name": "上海瑞东医院", "name:en": "Shanghai Ruidong Hospital"}}, {"type": "way", "id": 13753018, "center": {"lat": 31.234478, "lon": 121.7535222}, "nodes": [127533943, 127533966, 1583614611, 5828509339, 1583614634, 5828623793, 127533978, 5828588693, 5828518889, 5828530418, 5828518882, 1583614862, 127533995, 5828518895, 5828530416, 1583614872, 5828518893, 127534010, 5828509375, 6080984021, 5828509303, 6082187997, 127533943], "tags": {"amenity": "school", "denomination": "none", "name": "上海美国学校浦东", "name:en": "Shanghai American School Pudong", "operator": "SAS", "religion": "none", "source": "estimation;local knowledge"}}, {"type": "way", "id": 68737595, "center": {"lat": 31.2875647, "lon": 121.5778823}, "nodes": [826134707, 826134708, 826134709, 826134710, 826134707], "tags": {"amenity": "school", "name": "东波小学", "name:en": "Dongbo Elementary School"}}, {"type": "way", "id": 68738126, "center": {"lat": 31.2850522, "lon": 121.5777487}, "nodes": [826135501, 826135502, 826134746, 826134745, 826135501], "tags": {"amenity": "school", "name": "上海市东沟中学"}}, {"type": "way", "id": 68738231, "center": {"lat": 31.2822422, "lon": 121.5747602}, "nodes": [826135573, 826135574, 826135575, 826135576, 826135573], "tags": {"amenity": "school", "name": "陆行中学北校"}}, {"type": "way", "id": 89024695, "center": {"lat": 31.1961894, "lon": 121.5914729}, "nodes": [1033088974, 1033088956, 2905204818, 1033088859, 1033089034, 2905204521, 1033088957, 3404077494, 1033088969, 1033089021, 1033088853, 1033088939, 1033088789, 1033088950, 1033089038, 1033089000, 1033088988, 2905204510, 2905204511, 2905204513, 2879965596, 1033088834, 1033089045, 1033088955, 1033088804, 1033088808, 1033089019, 2872897618, 2903905999, 1033088954, 1033088881, 1033088836, 1033088908, 1033088785, 1033088966, 1033088934, 1033088892, 2905204546, 2905204545, 1033088831, 1033089001, 1033088806, 1033088884, 2905204542, 2905204541, 1033088973, 2905204537, 2905204536, 2905204535, 2905204533, 2905204534, 1033089018, 1033088987, 1033088974], "tags": {"amenity": "university", "name": "上海中医药大学"}}, {"type": "way", "id": 89026878, "center": {"lat": 31.2030405, "lon": 121.5870419}, "nodes": [1033109330, 1033109315, 3928768783, 3928771807, 1033109328, 8401206697, 1033109330], "tags": {"addr:city": "上海", "addr:housenumber": "555号", "addr:postcode": "201203", "addr:street": "晨晖路", "amenity": "school", "name": "华东师范大学第二附属中学"}}, {"type": "way", "id": 123942188, "center": {"lat": 31.2457161, "lon": 121.5546318}, "nodes": [1380710718, 1380710808, 1380710794, 1380710723, 1380710858, 1380710879, 13149177711, 13149143893, 1380710732, 1380710821, 1380710804, 13149143894, 13149143895, 1380710718], "tags": {"addr:city": "洋泾街道", "addr:district": "上海市", "addr:housenumber": "517号", "addr:postcode": "200135", "addr:province": "上海市", "addr:street": "崮山路", "amenity": "school", "area": "yes", "grades": "7-12", "name": "上海市建平中学", "name:en": "Jianping Highschool", "website": "http://www.jianping.com.cn/"}}, {"type": "way", "id": 145385778, "center": {"lat": 31.1977843, "lon": 121.6789993}, "nodes": [1587988116, 1587988113, 1587988114, 1587988115, 1587988116], "tags": {"amenity": "school", "education": "school", "name": "川沙中学华夏西校（华夏二路校区）"}}, {"type": "way", "id": 148101419, "center": {"lat": 31.14279, "lon": 121.6124896}, "nodes": [1612053436, 1612053445, 1612053412, 1612053409, 1612053434, 1612053422, 1612053426, 1612053415, 1612053436], "tags": {"amenity": "hospital"}}, {"type": "way", "id": 153188501, "center": {"lat": 31.141754, "lon": 121.5759798}, "nodes": [1659030627, 1659030618, 1659030653, 1659030764, 1659030464, 1659030468, 1659030791, 1659030736, 1659030545, 1659030549, 1659030627], "tags": {"amenity": "school", "name": "巴金幼儿园", "name:en": "Shanghai BaJin Kindergarten", "name:zh": "巴金幼儿园", "wheelchair": "yes"}}, {"type": "way", "id": 153721192, "center": {"lat": 31.137475, "lon": 121.5920589}, "nodes": [1663459305, 9996874876, 9996874880, 9996874883, 1663459294, 1684540277, 1663459307, 1684540276, 1663459280, 1663459305], "tags": {"addr:housenumber": "1688", "addr:postcode": "201315", "addr:street": "秀沿路", "amenity": "school", "name": "民办尚徳实验学校", "name:en": "Shangde Experimental School", "name:zh": "民办尚徳实验学校"}}, {"type": "way", "id": 153724016, "center": {"lat": 31.1391532, "lon": 121.5804902}, "nodes": [1663486700, 1663486698, 1688387704, 1710176332, 1710176249, 1663486702, 1688387611, 1611178441, 1663486700], "tags": {"addr:housenumber": "#1361", "addr:street": "秀沿路 (Xiuyan Road)", "amenity": "school", "name": "民办籽奥高级中学"}}, {"type": "way", "id": 154726157, "center": {"lat": 31.1430716, "lon": 121.5761958}, "nodes": [1659030627, 1672194117, 1672194240, 1672194251, 1672194268, 1672194266, 1718084646, 1672194196, 1672194096, 1672194094, 1672194138, 1672194292, 1672194288, 1659030791, 1659030736, 1659030545, 1659030549, 1659030627], "tags": {"alt_name:en": "British International School of Anglia, Nord Branch", "amenity": "school", "name": "上海英国外籍人员子女学校(浦东校区)", "name:en": "Nord Anglia International School(Shanghai, Pudong)", "name:zh": "上海英国外籍人员子女学校(浦东校区)", "wheelchair": "yes"}}, {"type": "way", "id": 156211560, "center": {"lat": 31.1298708, "lon": 121.5752676}, "nodes": [1684865287, 1684865291, 1684865340, 1684865326, 1684865315, 1684865287], "tags": {"addr:housenumber": "1166号", "addr:street": "秀浦路", "amenity": "police", "name": "康桥派出所", "note": "身份证更新"}}, {"type": "way", "id": 156816502, "center": {"lat": 31.1223191, "lon": 121.5800792}, "nodes": [1690490407, 1690490406, 1690490412, 1690490410, 1690490413, 1690490409, 1690490408, 1690490407], "tags": {"addr:housenumber": "19", "addr:street": "关岳路", "amenity": "hospital", "healthcare": "hospital", "name": "上海浦东新区周浦医院"}}, {"type": "way", "id": 158893011, "center": {"lat": 31.1390074, "lon": 121.5801793}, "nodes": [1710176201, 1710176197, 1710176161, 1710176153, 1710176229, 1710176260, 1710176334, 1710176300, 1710176256, 1710176315, 1710176246, 1710176266, 1710176274, 1710176178, 1710176218, 1710176319, 1710176316, 1710176226, 1710176318, 1710176257, 1710176199, 1710176210, 1710176187, 1710176301, 1710176151, 1710176158, 1710176172, 1710176167, 1710176264, 1710176164, 1710176290, 1710176181, 1710176254, 1710176160, 1710176174, 1710176295, 1710176186, 1710176201], "tags": {"amenity": "school", "building": "yes", "name": "中福会幼儿园"}}, {"type": "way", "id": 159965635, "center": {"lat": 31.1458253, "lon": 121.5698723}, "nodes": [1720322757, 1720322760, 1720322745, 1720322737, 1720322723, 1720322747, 1720322729, 1720322721, 1720322765, 1720322725, 1720322699, 1720322761, 1720322713, 1720322743, 1720322700, 1720322695, 1720322688, 1720322701, 1720322690, 1720322767, 1720322757], "tags": {"amenity": "school", "building": "yes"}}, {"type": "way", "id": 164024936, "center": {"lat": 31.2078055, "lon": 121.518532}, "nodes": [1756868264, 13155772105, 13155772104, 13155709760, 1756868266, 1756868267, 13155709782, 1756868261, 13155709783, 1756868264], "tags": {"amenity": "hospital", "emergency": "yes", "healthcare": "hospital", "name": "上海儿童医学中心", "name:en": "Shanghai Children's Medical Center", "name:zh": "上海儿童医学中心", "wikidata": "Q10867651", "wikipedia": "en:Shanghai Children's Medical Center"}}, {"type": "way", "id": 164024938, "center": {"lat": 31.2087506, "lon": 121.5180975}, "nodes": [1756868260, 1756868268, 1756868271, 1756868269, 1756868258, 1756868263, 1756868270, 1756868260], "tags": {"amenity": "hospital", "emergency": "yes", "healthcare": "hospital", "name": "仁济医院东院", "name:en": "Renji Hospital East", "name:zh": "仁济医院东院", "official_name": "上海交通大学医学院附属仁济医院", "official_name:en": "Renji Hospital affiliated to Shanghai Jiao Tong University School of Medicine"}}, {"type": "way", "id": 165023539, "center": {"lat": 31.2396786, "lon": 121.5079032}, "nodes": [1169518666, 1169518661, 8855659928, 8855659927, 8855659929, 8855659926, 1169518670, 4094911582, 4094912216, 4094912215, 1169518666], "tags": {"amenity": "hospital", "healthcare": "hospital", "name": "上海东方医院", "name:en": "Shanghai East Hospital", "name:zh": "上海东方医院", "name:zh-Hans": "上海东方医院", "name:zh-Hant": "上海東方醫院", "official_name": "同济大学附属东方医院", "wikidata": "Q30296399", "wikipedia": "en:Shanghai East Hospital"}}, {"type": "way", "id": 199949653, "center": {"lat": 31.1957615, "lon": 121.6866002}, "nodes": [2099346790, 2099346574, 12633489734, 2099346689, 2099346744, 2099346790], "tags": {"amenity": "school", "name": "华夏中学"}}, {"type": "way", "id": 219368169, "center": {"lat": 31.1480909, "lon": 121.5315382}, "nodes": [2285263411, 2285264390, 2285264391, 2285264392, 2285263411], "tags": {"amenity": "school", "name": "绿晨小学"}}, {"type": "way", "id": 225861093, "center": {"lat": 31.2918797, "lon": 121.6666062}, "nodes": [2346726355, 2346726364, 2346726347, 2346726360, 2346726355], "tags": {"addr:housenumber": "50", "addr:street": "金睦路", "amenity": "school", "name": "浦东新区曹路打一小学", "name:en": "Caolu Dayi Elementary School"}}, {"type": "way", "id": 225861094, "center": {"lat": 31.2928034, "lon": 121.6661436}, "nodes": [2346726355, 2346726360, 2346726367, 2346726351, 2346726362, 2346726353, 2346726366, 2346726350, 2346726368, 2346726352, 2346726354, 2346726355], "tags": {"amenity": "school", "name": "浦东模范中学东校", "name:en": "Pudong Model Middle School East Campus"}}, {"type": "way", "id": 247474278, "center": {"lat": 31.171351, "lon": 121.5745928}, "nodes": [2543553634, 2543553627, 7941485845, 7941485846, 7941485847, 7941485848, 7941485849, 7941485850, 7941485851, 7941485852, 7941485853, 7941485854, 2543553502, 2543553499, 2543553496, 2543553494, 2543553491, 2543553505, 2543553508, 2543553510, 2543553513, 2543553540, 2543553543, 2543553545, 2543553547, 2543553550, 2543553555, 2543553558, 2543553564, 2543553571, 2543553574, 2543553597, 2543553594, 7947175733, 2543553621, 2543553634], "tags": {"addr:city": "浦东新区", "addr:housenumber": "5677号", "addr:province": "上海市", "addr:street": "华夏西路", "amenity": "college", "internet_access": "yes", "internet_access:fee": "no", "internet_access:ssid": "shcc-wifi", "name": "上海海关学院", "name:en": "Shanghai Customs College", "website": "https://www.shcc.edu.cn/"}}, {"type": "way", "id": 263481135, "center": {"lat": 31.0513376, "lon": 121.7826987}, "nodes": [2690964432, 11687664496, 2690964433, 2690964435, 11687664485, 2690976579, 2690976580, 11687664499, 2690976581, 11687664498, 11687664497, 12262934542, 11687664641, 2690964436, 2690964432], "tags": {"addr:city": "上海", "addr:district": "浦东新区", "addr:housenumber": "28", "addr:province": "上海市", "addr:street": "惠南镇学海路", "amenity": "university", "name": "上海民航职业技术学院(浦东校区)"}}, {"type": "way", "id": 264423494, "center": {"lat": 31.1982771, "lon": 121.6898008}, "nodes": [2701058366, 2701058367, 11898772034, 11898772033, 2701058368, 2701058369, 2701058370, 11898772018, 11898772019, 11898772020, 11898772021, 2701058366], "tags": {"amenity": "school", "name": "上海市侨光中学"}}, {"type": "way", "id": 270513783, "center": {"lat": 30.8806392, "lon": 121.8948183}, "nodes": [2755380265, 2755380266, 2755380267, 2755380268, 2755380269, 2755380270, 2755380271, 2755380272, 2755380274, 2755380275, 2755380277, 2755380279, 2755380280, 2755380282, 2755380265], "tags": {"amenity": "hospital", "building": "hospital"}}, {"type": "way", "id": 270513784, "center": {"lat": 30.880292, "lon": 121.8948184}, "nodes": [2755380284, 2755380286, 2755380287, 2755380289, 2755380291, 2755380292, 2755380284], "tags": {"amenity": "hospital", "building": "hospital"}}, {"type": "way", "id": 270513785, "center": {"lat": 30.8809072, "lon": 121.8952364}, "nodes": [2755380294, 2755380296, 2755380298, 2755380299, 2755380294], "tags": {"amenity": "police", "building": "yes"}}, {"type": "way", "id": 275142126, "center": {"lat": 31.2618609, "lon": 121.5673645}, "nodes": [2797982116, 2797982117, 2797982118, 2797982119, 2798008397, 2798008396, 2797982116], "tags": {"addr:city": "上海", "addr:street": "枣庄路", "amenity": "school", "name": "上海市建平实验中学"}}, {"type": "way", "id": 275143503, "center": {"lat": 31.2604644, "lon": 121.5681378}, "nodes": [2797989624, 2797989625, 2797989626, 2797989627, 2797989628, 2797989629, 2797989632, 2797989630, 2797989631, 2797989624], "tags": {"addr:street": "枣庄路", "amenity": "school", "name": "上海市建平实验小学"}}, {"type": "way", "id": 298991168, "center": {"lat": 31.0358288, "lon": 121.5839057}, "nodes": [3029166703, 3029166704, 3029166705, 3029166706, 3029166719, 3029166724, 3029166703], "tags": {"amenity": "police"}}, {"type": "way", "id": 300189842, "center": {"lat": 31.0362842, "lon": 121.5911788}, "nodes": [3042955909, 3042955904, 3038861476, 3038861475, 3042955894, 3042955880, 3042955892, 3042955893, 3042955891, 3042955890, 3042955895, 3042955896, 3042955897, 3042955898, 3042955899, 3042955909], "tags": {"amenity": "kindergarten", "name": "上海漆凉铭幼儿园"}}, {"type": "way", "id": 300650979, "center": {"lat": 31.270626, "lon": 121.585382}, "nodes": [3047445035, 3047445034, 3047445037, 3047445036, 3047445041, 3047445040, 3047445038, 3047445039, 3047445035], "tags": {"amenity": "police", "name": "浦兴路派出所"}}, {"type": "way", "id": 300651556, "center": {"lat": 31.2701011, "lon": 121.5805051}, "nodes": [3047449717, 3047449714, 3047449716, 3047449718, 3047449715, 3047449713, 3047449717], "tags": {"amenity": "school", "name": "沪新小学"}}, {"type": "way", "id": 302091574, "center": {"lat": 31.2669232, "lon": 121.5949878}, "nodes": [3063289894, 3063289890, 3063289893, 3063289891, 3063289892, 3063289894], "tags": {"amenity": "school", "name": "浦兴中学"}}, {"type": "way", "id": 302092401, "center": {"lat": 31.2668817, "lon": 121.5880029}, "nodes": [3063302433, 3063302434, 3063289222, 3063289231, 3063289228, 3063289218, 3063302433], "tags": {"amenity": "school", "name": "浦东模范中学"}}, {"type": "way", "id": 302093429, "center": {"lat": 31.272478, "lon": 121.5899788}, "nodes": [3063310795, 3063310791, 3063310793, 3063310792, 3063310789, 3063310794, 3063310790, 3063310796, 3063310797, 3063310795], "tags": {"amenity": "school", "name": "建平远翔学校"}}, {"type": "way", "id": 303264829, "center": {"lat": 31.2692977, "lon": 121.5901833}, "nodes": [3076156890, 3076156892, 3076156893, 3076156891, 3076156890], "tags": {"amenity": "school", "name": "上外附属浦东外国语小学"}}, {"type": "way", "id": 304517749, "center": {"lat": 31.2308772, "lon": 121.5290499}, "nodes": [3090661929, 9463017011, 13124706268, 9463017012, 3090661928, 3090661932, 3090661931, 3090661930, 13124706248, 13124706247, 13124706246, 3090661929], "tags": {"amenity": "school", "name": "上海新竹园中学"}}, {"type": "way", "id": 307821899, "center": {"lat": 31.227727, "lon": 121.5297336}, "nodes": [10593817752, 10593817753, 10593817751, 3130634431, 3130634432, 3130634433, 10593817752], "tags": {"addr:district": "浦东新区", "addr:housenumber": "1555", "addr:province": "上海市", "addr:street": "世纪大道", "amenity": "university", "building": "university", "name": "上海纽约大学", "name:en": "NYU Shanghai", "name:zh": "上海纽约大学", "operator": "纽约大学;华东师范大学", "wheelchair": "yes"}}, {"type": "way", "id": 309161272, "center": {"lat": 31.0892919, "lon": 121.5856404}, "nodes": [3144961973, 2689641099, 2689641103, 3144961974, 3144961975, 3144961976, 3144961973], "tags": {"amenity": "school", "wheelchair": "yes"}}, {"type": "way", "id": 309171114, "center": {"lat": 31.0924767, "lon": 121.5825512}, "nodes": [3145048440, 3145048441, 3145048442, 3145048443, 3145048444, 3145048445, 3145048446, 3145048447, 3145048448, 3145048449, 3145048450, 3145048451, 3145048452, 3145048440], "tags": {"amenity": "school", "name": "童心幼儿园", "wheelchair": "yes"}}, {"type": "way", "id": 318781672, "center": {"lat": 31.2450536, "lon": 121.571392}, "nodes": [3251594463, 3251594462, 3251594464, 3251594461, 3251594463], "tags": {"amenity": "school", "name": "致远中学"}}, {"type": "way", "id": 320607682, "center": {"lat": 31.1478459, "lon": 121.5299951}, "nodes": [2285264390, 2285263442, 3272024343, 3272024344, 3272024345, 3272024346, 3272024347, 2285264391, 2285264390], "tags": {"amenity": "school", "name": "上南中学南校"}}, {"type": "way", "id": 321861378, "center": {"lat": 31.156987, "lon": 121.5654456}, "nodes": [3286311613, 3286311616, 3286311617, 3286311618, 3286311607, 3286311608, 3286311609, 3286311610, 3286311611, 3286311612, 3286311613], "tags": {"amenity": "school", "name": "御桥小学御山校区"}}, {"type": "way", "id": 325692593, "center": {"lat": 31.286443, "lon": 121.5828768}, "nodes": [3323095343, 3323095344, 3323095345, 3323095346, 3323095343], "tags": {"addr:city": "上海市", "addr:street": "东波路", "amenity": "school"}}, {"type": "way", "id": 333555885, "center": {"lat": 31.1912217, "lon": 121.5938132}, "nodes": [8528508774, 8528508770, 8528508764, 8528508769, 8528508771, 3412506639, 5613347811, 3406877092, 3406877693, 3406877694, 3406877695, 8528508772, 2800478879, 3403751429, 8528508774], "tags": {"addr:city": "上海", "addr:district": "浦东新区", "addr:housenumber": "825", "addr:postcode": "201203", "addr:street": "张衡路", "amenity": "school", "name": "复旦大学（张江校区）", "name:en": "Fudan University (Zhangjiang Campus)"}}, {"type": "way", "id": 334681344, "center": {"lat": 31.2639703, "lon": 121.5860526}, "nodes": [3417423453, 3417423435, 3417423394, 3417423434, 3417423430, 3417423437, 3417423453], "tags": {"amenity": "school", "name": "金茂小学"}}, {"type": "way", "id": 347368478, "center": {"lat": 31.2087071, "lon": 121.6139117}, "nodes": [3537000936, 3537000937, 3537000938, 3537000939, 3537000940, 3537000941, 3537000942, 3537000943, 3537000944, 3537000945, 3537000946, 3537000947, 3537000948, 3537000936], "tags": {"amenity": "school", "name": "华东师范大学张江实验中学", "old_name": "张江中学"}}, {"type": "way", "id": 347465308, "center": {"lat": 31.1886199, "lon": 121.5897977}, "nodes": [3537687993, 3537687994, 3537687995, 3537687996, 3537687997, 3537687998, 3537687999, 3537688000, 3537688001, 3537688002, 3537688003, 3537688004, 3537688005, 3537688006, 3537688007, 3537688008, 3537688009, 3537688010, 3537688011, 3537687993], "tags": {"amenity": "hospital", "healthcare": "hospital", "name": "曙光医院东院"}}, {"type": "way", "id": 347474066, "center": {"lat": 31.2079587, "lon": 121.6179101}, "nodes": [3537743767, 3537743768, 3537743769, 3537743770, 3537743771, 3537743772, 3537743805, 3537743773, 3537743774, 3537743775, 3537743776, 3524046118, 3524046119, 3537743784, 3524046120, 3537743783, 3524046121, 3537743777, 3524046122, 3537743782, 3537743778, 3537743779, 3537743767], "tags": {"amenity": "school", "name": "张江镇中心小学"}}, {"type": "way", "id": 347475849, "center": {"lat": 31.2091106, "lon": 121.6189591}, "nodes": [3537754954, 3537754955, 3537754956, 3537754957, 3537754958, 3537754959, 3537754960, 3537754961, 3537754954], "tags": {"amenity": "school", "name": "大树英语"}}, {"type": "way", "id": 369444651, "center": {"lat": 30.8903977, "lon": 121.8817418}, "nodes": [4151513891, 3732331413, 4140322878, 3732331414, 4140322844, 4140322860, 3732331415, 3732331416, 3732331417, 4140322848, 4140322864, 4140322869, 4140322874, 3732331418, 3732331419, 3732331420, 3732335727, 4140322863, 4140322865, 4140322877, 3732331421, 4140322876, 4140322858, 3732331422, 4140322867, 3732335726, 4140322847, 3732335725, 4140322851, 4140322838, 4140322841, 3732331424, 4140322862, 3732331411, 4140322871, 4151513891], "tags": {"addr:city": "上海市", "addr:district": "浦东新区", "addr:housenumber": "300", "addr:postcode": "201306", "addr:street": "水华路", "amenity": "university", "name": "上海电机学院（临港校区）", "name:en": "Shanghai Dianji University (Lingang Campus)", "phone": "+86 21 3822 3822", "website": "https://www.sdju.edu.cn/"}}, {"type": "way", "id": 369444652, "center": {"lat": 30.8932504, "lon": 121.8886945}, "nodes": [3732335728, 3732335729, 3732335730, 3732335731, 3732335732, 3732335733, 3732335734, 3732335735, 3732335736, 8481896127, 3732335737, 3732335738, 3732335739, 8481896136, 3732335740, 3732335741, 8483239792, 8483239793, 3732335744, 3732335745, 3732335746, 7845630469, 3732335747, 3732335748, 3732335749, 3732335750, 3732335751, 3732335752, 7845618159, 7845952784, 3732335753, 3732335754, 3732335755, 3732335728], "tags": {"amenity": "university", "name": "上海建桥学院", "name:en": "Shanghai Jian Qiao University"}}, {"type": "way", "id": 369820756, "center": {"lat": 31.2811169, "lon": 121.650217}, "nodes": [3735711032, 11229672958, 3735711033, 11229672959, 11229672980, 3735711034, 11401138564, 3735711035, 3735711036, 3735711037, 3735711038, 3735711039, 3735711032], "tags": {"amenity": "school", "name": "上海立信会计金融学院（浦东校区）"}}, {"type": "way", "id": 369821343, "center": {"lat": 31.255202, "lon": 121.5815976}, "nodes": [3735717679, 3735717680, 3735717681, 3735717682, 3735717683, 3735717684, 3735717679], "tags": {"addr:city": "金杨新村街道", "addr:district": "浦东新区", "addr:housenumber": "1288号", "addr:province": "上海市", "addr:street": "金桥路", "amenity": "school", "grades": "10-12", "name": "陆行中学", "religion": "none", "wheelchair": "yes"}}, {"type": "way", "id": 389706458, "center": {"lat": 31.2025372, "lon": 121.589668}, "nodes": [3928768779, 3928768780, 3928768781, 3928768782, 3928768783, 1033109315, 3928768779], "tags": {"addr:city": "上海", "addr:housenumber": "665", "addr:postcode": "201203", "addr:street": "晨晖路", "amenity": "kindergarten", "name": "张江英桥幼儿园"}}, {"type": "way", "id": 389706596, "center": {"lat": 31.2032501, "lon": 121.5897625}, "nodes": [3928771805, 3928768780, 3928768781, 3928768782, 3928768783, 3928771807, 3928771808, 3928771805], "tags": {"addr:city": "上海", "addr:housenumber": "88号", "addr:postcode": "201203", "addr:street": "藿香路", "amenity": "school", "name": "张江高科实验小学（藿香校区）"}}, {"type": "way", "id": 389706853, "center": {"lat": 31.2042802, "lon": 121.5896427}, "nodes": [3928771808, 3928771807, 1033109328, 3928775909, 3928771808], "tags": {"addr:city": "上海", "addr:housenumber": "38号", "addr:postcode": "201203", "addr:street": "藿香路", "amenity": "school", "name": "上海市张江集团中学"}}, {"type": "way", "id": 391266471, "center": {"lat": 31.2288382, "lon": 121.5150486}, "nodes": [3944753635, 3944753636, 3944753637, 12319955765, 3944753638, 3944753635], "tags": {"amenity": "school", "name": "华东师范大学附属东昌中学南校（潍坊校区）", "note": "by a student"}}, {"type": "way", "id": 391266910, "center": {"lat": 31.2279961, "lon": 121.5139378}, "nodes": [3944757443, 13127351765, 3944757444, 13127351760, 13127351758, 3944757445, 13127351759, 3944757446, 3944757443], "tags": {"amenity": "school", "name": "明珠小学"}}, {"type": "way", "id": 391267205, "center": {"lat": 31.2216249, "lon": 121.5228429}, "nodes": [3944759601, 3944759602, 3944759603, 3944759604, 12738318407, 3944759601], "tags": {"amenity": "school", "name": "上海市浦东新区明珠小学（浦电路校区）", "note": "by a student"}}, {"type": "way", "id": 391268280, "center": {"lat": 31.1728536, "lon": 121.5458001}, "nodes": [3944770906, 3944770907, 3944770908, 3944770909, 3944770906], "tags": {"amenity": "kindergarten", "name": "绿川幼儿园"}}, {"type": "way", "id": 399422761, "center": {"lat": 31.1252877, "lon": 121.568101}, "nodes": [4021726414, 4021726415, 4021726416, 4021726417, 4021726414], "tags": {"amenity": "school", "name": "康桥小学", "phone": "+86 21 6812 6214"}}, {"type": "way", "id": 404368495, "center": {"lat": 30.9820277, "lon": 121.8579581}, "nodes": [4066466336, 4066466309, 4066466344, 4066466320, 4066466345, 4066466322, 4066466303, 4066466318, 4066466334, 4066466304, 4066466340, 4066466310, 4066466335, 4066466339, 4066466306, 4066466336], "tags": {"amenity": "school"}}, {"type": "way", "id": 404375798, "center": {"lat": 30.9778099, "lon": 121.8683946}, "nodes": [4066541469, 4066541467, 4066541463, 4066541460, 4066541490, 4066541464, 4066541469], "tags": {"amenity": "school", "name": "书院幼儿园"}}, {"type": "way", "id": 407439751, "center": {"lat": 31.2623399, "lon": 121.6496473}, "nodes": [4094882301, 4094882293, 4094882298, 3977817365, 4094882291, 11394267210, 5977639071, 5977639072, 4094882295, 4094882290, 4094882300, 11210600198, 11210600199, 11210600200, 11210600201, 11210600202, 4094882292, 4094882297, 4094882289, 4094882299, 4094882294, 4094882296, 4094882301], "tags": {"amenity": "university", "name": "上海第二工业大学", "name:en": "Shanghai Second Polytechnic University", "name:zh": "上海第二工业大学", "start_date": "1960", "wikipedia": "zh:上海第二工业大学"}}, {"type": "way", "id": 407441643, "center": {"lat": 31.2730826, "lon": 121.595994}, "nodes": [4094894334, 12863717758, 4094894330, 4094894328, 4094894329, 4094894339, 4094894331, 4094894334], "tags": {"amenity": "school", "name": "民办丰华高级中学"}}, {"type": "way", "id": 412663735, "center": {"lat": 30.8979806, "lon": 121.88112}, "nodes": [4140322870, 4140322845, 4140322842, 4140322852, 4140322849, 4140322868, 4140305203, 4140305208, 4140300246, 4140305209, 4140322875, 4140322840, 4140322866, 4140322834, 4140322859, 4140322850, 4140322854, 4140322835, 4140322856, 4140322843, 4140322846, 4140322872, 4140322873, 4140322853, 4140322861, 4140322870], "tags": {"amenity": "school"}}, {"type": "way", "id": 413796612, "center": {"lat": 31.0241425, "lon": 121.6452676}, "nodes": [4150473877, 4150473870, 4150473871, 4150473880, 12288601211, 12288601207, 4150473867, 12288601213, 4150473866, 12507281222, 4150473877], "tags": {"amenity": "school", "name": "新场中学"}}, {"type": "way", "id": 413949050, "center": {"lat": 30.8961422, "lon": 121.8800609}, "nodes": [4151513891, 4140322871, 4140322839, 4140322836, 4140322857, 4140322855, 4140322837, 3732331412, 4151513891], "tags": {"amenity": "school"}}, {"type": "way", "id": 419222425, "center": {"lat": 31.1463554, "lon": 121.4989562}, "nodes": [4193379455, 4193379453, 12192782946, 4193379454, 12192782945, 12192782944, 4193379456, 12192782952, 4193379452, 4193379450, 12192782953, 12192782951, 12192782950, 4193379455], "tags": {"amenity": "school", "name": "三林中学北校"}}, {"type": "way", "id": 423824965, "center": {"lat": 31.2318986, "lon": 121.5567618}, "nodes": [5257180049, 4233545408, 4233545409, 4233545410, 4233545411, 4233545412, 4233545413, 8173359977, 4233545414, 8173359976, 4233545415, 8173359975, 4233545416, 5257180049], "tags": {"addr:city": "上海", "addr:district": "浦东新区", "addr:housenumber": "1289号", "addr:province": "上海市", "addr:street": "丁香路", "amenity": "school", "grades": "1-5", "name": "浦东新区进才实验小学", "name:en": "Pudong Jincai Experimental Elementary School", "wheelchair": "yes"}}, {"type": "way", "id": 424010417, "center": {"lat": 31.2158834, "lon": 121.5288345}, "nodes": [4235005550, 4235005551, 4235005552, 4235005553, 4235005554, 4235005550], "tags": {"addr:city": "Pudong", "addr:housenumber": "26", "addr:street": "E-Shan Rd", "amenity": "school", "name": "进才中学国际部", "name:en": "Jin Cai International School"}}, {"type": "way", "id": 436346513, "center": {"lat": 31.0296476, "lon": 121.6338649}, "nodes": [4342188114, 4342188115, 4342188116, 4342188117, 4342188118, 4342188119, 4342188120, 4342188114], "tags": {"amenity": "school", "name": "汇锦城幼儿园"}}, {"type": "way", "id": 442698027, "center": {"lat": 30.9064129, "lon": 121.903622}, "nodes": [4403683057, 4403683058, 4403683059, 4403683060, 4403683057], "tags": {"amenity": "school", "name": "浦东新区明珠临港小学（茉莉校区）"}}, {"type": "way", "id": 442698065, "center": {"lat": 30.9095959, "lon": 121.9171708}, "nodes": [4403685256, 4403685257, 4403685258, 4403685259, 4403685260, 4403685261, 4403685262, 4403685263, 4440241947, 4440241966, 4461350835, 4461350856, 4461350829, 4461350859, 4461350846, 4461350874, 4403685264, 4440241972, 4440242008, 4403685265, 4440241976, 4440242031, 4440241901, 4440241778, 4403685256], "tags": {"addr:housenumber": "1398号", "addr:street": "环湖西三路", "amenity": "school", "grades": "10-12", "name": "上海中学东校"}}, {"type": "way", "id": 444840701, "center": {"lat": 30.8804403, "lon": 121.8939929}, "nodes": [4423044040, 4423044041, 4423044042, 4423044043, 4423044040], "tags": {"amenity": "police", "building": "yes", "name": "4号门保安亭"}}, {"type": "way", "id": 444841208, "center": {"lat": 30.8861791, "lon": 121.9154771}, "nodes": [4423056744, 4440245500, 4423056745, 4440245501, 4440245495, 4440245497, 4423056746, 4423056747, 4440245505, 4440245504, 4440245496, 4440245507, 4423056744], "tags": {"amenity": "school", "name": "临港第一中学"}}, {"type": "way", "id": 444841209, "center": {"lat": 30.8848283, "lon": 121.9169079}, "nodes": [4440245498, 4423056747, 4423056746, 4440245506, 4440245499, 4440245503, 4440245502, 4423056750, 4423056751, 4440245508, 4440245498], "tags": {"alt_name": "临港第一小学", "amenity": "school", "name": "浦东新区建平临港小学"}}, {"type": "way", "id": 445889668, "center": {"lat": 30.9018432, "lon": 121.8057793}, "nodes": [4432392064, 4432392050, 4432392061, 4432392065, 4432392053, 4432392055, 4432392051, 4432392049, 4432392046, 4432392064], "tags": {"amenity": "school", "name": "彭镇中学"}}, {"type": "way", "id": 445889669, "center": {"lat": 30.9018369, "lon": 121.8076906}, "nodes": [4432392055, 4432392062, 4432392057, 4432392052, 4432392063, 4432392054, 4432392056, 4432392059, 4432392047, 4432392045, 4432392067, 4432392048, 4432392058, 4432392060, 4432392051, 4432392055], "tags": {"amenity": "school", "name": "浦江临港外国语小学"}}, {"type": "way", "id": 445892803, "center": {"lat": 30.9093122, "lon": 121.8075616}, "nodes": [4432418931, 4432418947, 4432418903, 4432418950, 4432418936, 4432418935, 4432418911, 4432418901, 4432418918, 4432418931], "tags": {"amenity": "school"}}, {"type": "way", "id": 445906526, "center": {"lat": 30.877771, "lon": 121.8456087}, "nodes": [4432540450, 4432540400, 4432540525, 4432540552, 4432540504, 4432540448, 4432540438, 4432540454, 4432540537, 4432540556, 4432540478, 4432539983, 4432540489, 4432540485, 4432540403, 4432540542, 4432540450], "tags": {"amenity": "school", "name": "中国联通学院上海分院(南汇园区)"}}, {"type": "way", "id": 445906529, "center": {"lat": 30.8780922, "lon": 121.8470316}, "nodes": [4432540542, 4432540450, 4432540508, 4432540531, 4432540480, 4432540466, 4432540464, 4432540449, 4432540513, 4432540542], "tags": {"amenity": "school", "name": "芦潮港幼儿园"}}, {"type": "way", "id": 445907381, "center": {"lat": 30.8673718, "lon": 121.8565937}, "nodes": [4432549555, 4432550307, 4432550305, 4432550308, 4432550304, 4432549563, 4432549534, 4432549555], "tags": {"amenity": "school"}}, {"type": "way", "id": 446796828, "center": {"lat": 30.8854511, "lon": 121.9143515}, "nodes": [4440249382, 4440249368, 4440249367, 4440249385, 4440249372, 4440249373, 4440249387, 4440249382], "tags": {"amenity": "school"}}, {"type": "way", "id": 446796832, "center": {"lat": 30.8852137, "lon": 121.9134642}, "nodes": [4440249372, 4440249380, 4440249383, 4440249374, 4440249371, 4440249373, 4440249372], "tags": {"amenity": "school"}}, {"type": "way", "id": 446796833, "center": {"lat": 30.884394, "lon": 121.9125246}, "nodes": [4440249374, 4440249381, 4440249369, 4440249384, 4440249375, 4440249371, 4440249374], "tags": {"amenity": "kindergarten", "name": "海音幼儿园南园部"}}, {"type": "way", "id": 446797835, "center": {"lat": 30.8830186, "lon": 121.909124}, "nodes": [4440257718, 4440257298, 4440257289, 4440257301, 4440257713, 4440257712, 4440257711, 4440257710, 4440257709, 4440257718], "tags": {"amenity": "kindergarten", "name": "海音幼儿园北园部"}}, {"type": "way", "id": 450546970, "center": {"lat": 31.1526316, "lon": 121.4684084}, "nodes": [4474675096, 4474675097, 4474675098, 5001372066, 5001372067, 4474675099, 4474675100, 5001372068, 5001372069, 5001372070, 5001372071, 5001372072, 5001372073, 4474675101, 4474675102, 4474675103, 5001372074, 5001372075, 4474675104, 5001372065, 5001372064, 5001372063, 5001372062, 5001372061, 4474675105, 4474675096], "tags": {"amenity": "school", "name": "惠灵顿公学", "name:en": "Wellington College"}}, {"type": "way", "id": 450714420, "center": {"lat": 31.142127, "lon": 121.5003808}, "nodes": [4476296538, 4476296539, 4476296540, 4476296541, 4476296542, 5977647539, 5977647541, 5977647536, 5977647535, 5977647537, 5977647538, 5977647534, 5977647533, 4476296543, 4476296538], "tags": {"amenity": "school", "name": "上海市三林中学"}}, {"type": "way", "id": 450714421, "center": {"lat": 31.1452111, "lon": 121.5112893}, "nodes": [4476296544, 13152066928, 4476296545, 4476296546, 4476296547, 13152066930, 4476296548, 4476296549, 13152066929, 4476296544], "tags": {"amenity": "school", "name": "三林中心小学"}}, {"type": "way", "id": 458882193, "center": {"lat": 31.3500149, "lon": 121.5780888}, "nodes": [4548128184, 4548128185, 4548128186, 4548128187, 4548128188, 4548128589, 4548255180, 4548255184, 4548128590, 4548128591, 4548128592, 4548128608, 4548128607, 4548128593, 4548128605, 4548128606, 4548128594, 4548128595, 4548128596, 4548128597, 4548128598, 4548128599, 4548128600, 4548128601, 4548128602, 4548128603, 4548128604, 4548128609, 4548128184], "tags": {"amenity": "school", "name": "上海市高桥中学", "name:en": "Gaoqiao High School"}}, {"type": "way", "id": 460823800, "center": {"lat": 31.1851066, "lon": 121.5041345}, "nodes": [4564245107, 4564245108, 4569623078, 4564245109, 4569623077, 4564245110, 4564245111, 4564245112, 12118461187, 4564245113, 4569312301, 12137992779, 4564245114, 9604498173, 9604498169, 4564245115, 9604498168, 4564245116, 5331390962, 4569623071, 4569623072, 4569623074, 4569623073, 4564245107], "tags": {"addr:city": "Shanghai", "addr:housenumber": "300", "addr:postcode": "200125", "addr:street": "东明路", "amenity": "school", "name": "上海市实验学校", "name:en": "Shanghai Experimental School", "website": "http://www.ses.sh.edu.cn", "wikidata": "Q7488432", "wikimedia_commons": "Category:Shanghai Experimental School", "wikipedia": "en:Shanghai Experimental School"}}, {"type": "way", "id": 460823803, "center": {"lat": 31.1834079, "lon": 121.5096442}, "nodes": [4564245135, 4564245136, 4569331290, 4564245137, 4675026503, 4564245138, 4564245139, 4564245135], "tags": {"addr:housenumber": "1316-1", "addr:street": "南码头路", "amenity": "school", "name": "上海市实验学校（小学）", "name:en": "Shanghai Experimental School (Elementary Branch)"}}, {"type": "way", "id": 461616345, "center": {"lat": 31.1926931, "lon": 121.5464479}, "nodes": [4570868667, 4570868668, 4573263995, 4570868669, 4570868670, 4570868671, 4570868672, 4573264022, 4573264014, 4573264025, 4573264015, 4573264016, 4573264017, 4570868673, 4570868667], "tags": {"amenity": "hospital", "emergency": "yes", "healthcare": "hospital", "name": "安达医院"}}, {"type": "way", "id": 461616354, "center": {"lat": 31.1917393, "lon": 121.5458108}, "nodes": [4570868672, 4570868726, 5001049825, 4570868727, 4570868728, 4573263994, 4573263993, 4570868668, 4573263995, 4570868669, 4570868670, 4570868671, 4570868672], "tags": {"amenity": "hospital", "healthcare": "hospital", "name": "上海市第一妇婴保健院东院"}}, {"type": "way", "id": 461616375, "center": {"lat": 31.1894606, "lon": 121.5470043}, "nodes": [4570868833, 4570868834, 4570868835, 4570868836, 4570868837, 4570868833], "tags": {"amenity": "school", "name": "北蔡小学旧址"}}, {"type": "way", "id": 461616705, "center": {"lat": 31.1955016, "lon": 121.5586015}, "nodes": [4570871951, 4573092237, 4573092238, 4573092239, 4573092240, 4573092241, 4573092242, 4573092243, 4570871952, 4570871953, 4570871954, 4570871955, 4570871956, 4573092245, 4573092244, 4570871957, 4570871951], "tags": {"amenity": "school", "name": "华林中学"}}, {"type": "way", "id": 461616750, "center": {"lat": 31.1942225, "lon": 121.5588206}, "nodes": [4570872302, 4570872303, 4570872304, 4570872305, 4573129947, 4570872306, 4570872307, 4570872308, 4570872309, 4573092214, 4570872302], "tags": {"amenity": "school", "name": "华林小学"}}, {"type": "way", "id": 461616786, "center": {"lat": 31.1965674, "lon": 121.5568465}, "nodes": [4570872314, 4570872315, 4570872316, 4570872317, 4570872318, 4570872319, 4570872320, 4570872314], "tags": {"amenity": "kindergarten", "name": "六一幼儿园"}}, {"type": "way", "id": 461873789, "center": {"lat": 31.2086568, "lon": 121.5521942}, "nodes": [4573154728, 4573154729, 4573154730, 4573154731, 4573154732, 4573154733, 4573154734, 4573154735, 4573154736, 4573154737, 4573154738, 4573154739, 4573154728], "tags": {"amenity": "school", "name": "建平中学西校（大唐校区）"}}, {"type": "way", "id": 461873793, "center": {"lat": 31.2117658, "lon": 121.5421859}, "nodes": [4573154777, 4573154778, 4573155590, 4573154779, 4573155589, 4573155591, 4573154780, 4573155592, 4573154781, 4573155593, 4573154782, 4573155594, 4573154783, 4573155595, 4573154784, 4573155596, 4573154785, 4573155597, 4573154786, 4573155598, 4573154787, 4573155599, 4573154788, 4573154777], "tags": {"amenity": "school", "name": "建平世纪中学"}}, {"type": "way", "id": 462332919, "center": {"lat": 31.1977628, "lon": 121.5518034}, "nodes": [4577369258, 4577369259, 4577369260, 4577369261, 4577369258], "tags": {"amenity": "kindergarten"}}, {"type": "way", "id": 473205498, "center": {"lat": 31.1784436, "lon": 121.4985625}, "nodes": [4673795349, 4673795350, 4673795351, 4673795353, 4673795352, 4673795349], "tags": {"amenity": "school", "name": "清流中学"}}, {"type": "way", "id": 473205509, "center": {"lat": 31.1795882, "lon": 121.5117654}, "nodes": [4673795374, 13154834184, 4673795375, 4673795376, 4673795377, 4673795374], "tags": {"amenity": "school", "name": "尚博实验小学"}}, {"type": "way", "id": 473205511, "center": {"lat": 31.1776726, "lon": 121.508125}, "nodes": [4673795379, 4673795380, 4673795381, 4673795382, 4673795384, 13154757670, 13154757658, 4673795379], "tags": {"amenity": "school", "name": "上南中学东校"}}, {"type": "way", "id": 473207504, "center": {"lat": 31.1632189, "lon": 121.5213021}, "nodes": [4673795039, 4673795040, 4673795041, 4673795042, 4673795043, 4673795039], "tags": {"addr:district": "浦东新区", "addr:housenumber": "520号", "addr:province": "上海市", "addr:street": "盛苑路", "amenity": "school", "name": "上海市浦东新区明珠小学", "phone": "50657971", "website": "http://www.psmzh.pudong-edu.sh.cn/ROOT/index.html"}}, {"type": "way", "id": 473219844, "center": {"lat": 31.1270165, "lon": 121.4893086}, "nodes": [12284871964, 12284871960, 12284871957, 12284871955, 12037144194, 4673821103, 4673821104, 11539204581, 11539204582, 11539204583, 11539204584, 8407362814, 12284871962, 12284871964], "tags": {"amenity": "school", "name": "上海师范大学附属中学", "name:en": "Shanghai Normal University School"}}, {"type": "way", "id": 474607998, "center": {"lat": 31.2711557, "lon": 121.6545036}, "nodes": [4685241494, 4685241495, 4685241533, 4685241497, 4685241498, 4685241499, 4685241500, 4685241501, 4685241502, 4685241503, 4685241494], "tags": {"addr:city": "浦东新区", "addr:housenumber": "2727号", "addr:province": "上海市", "addr:street": "金海路", "amenity": "university", "internet_access": "wlan", "internet_access:fee": "no", "internet_access:ssid": "i-Sandau", "name": "上海杉达学院", "name:en": "Shanghai Sanda University", "name:zh": "上海杉达学院", "name:zh-Hans": "上海杉达学院", "name:zh-Hant": "上海杉達學院", "operator": "朱绍中", "operator:type": "college", "payment:unionpay": "yes", "short_name": "杉达", "short_name:en": "Sandau", "short_name:zh": "杉达", "short_name:zh-Hans": "杉达", "short_name:zh-Hant": "杉達", "website": "https://www.sandau.edu.cn/", "wikidata": "Q7415930", "wikipedia": "zh:上海杉达学院"}}, {"type": "way", "id": 474684576, "center": {"lat": 31.180949, "lon": 121.4963336}, "nodes": [4685856256, 4685856257, 4685856258, 4685856259, 4685856256], "tags": {"amenity": "school", "name": "上南五村小学"}}, {"type": "way", "id": 474843289, "center": {"lat": 31.2014786, "lon": 121.6239997}, "nodes": [2864129533, 4687097989, 2850704349, 2864129536, 2864129533], "tags": {"amenity": "school", "name": "上海市竹园中学"}}, {"type": "way", "id": 476242314, "center": {"lat": 31.1837773, "lon": 121.510914}, "nodes": [4698658589, 4698658590, 13154815271, 4698658591, 4698658592, 4698658593, 4698658594, 4698658595, 4698658589], "tags": {"amenity": "school", "name": "上南中学北校"}}, {"type": "way", "id": 476243181, "center": {"lat": 31.1744293, "lon": 121.4950773}, "nodes": [4698669409, 4698669410, 4698669411, 4698669412, 4698669413, 4698669414, 4698669415, 4698669416, 4698669409], "tags": {"amenity": "school", "name": "洪山中学"}}, {"type": "way", "id": 477638764, "center": {"lat": 30.9066259, "lon": 121.9011776}, "nodes": [4709497275, 4709497276, 4709497277, 4709497278, 4709497275], "tags": {"amenity": "school", "name": "上海市临港实验中学"}}, {"type": "way", "id": 478611137, "center": {"lat": 31.1849803, "lon": 121.4938838}, "nodes": [4718287819, 4718287820, 4718287821, 4718287822, 4718287819], "tags": {"addr:city": "shanghai", "addr:city_1": "上海", "addr:housenumber": "48", "addr:postcode": "200126", "addr:street": "雪野路", "amenity": "school", "education": "school", "name": "协和双语学校浦东校区", "name:en": "Shanghai United International School - Pudong Campus"}}, {"type": "way", "id": 483697026, "center": {"lat": 31.2418495, "lon": 121.5217959}, "nodes": [4764365512, 4764365513, 13123559975, 13065099147, 4764365514, 4764365515, 13123560159, 4764365516, 4764365512], "tags": {"amenity": "school", "name": "上海交通大学附属中学浦东实验高中"}}, {"type": "way", "id": 497318674, "center": {"lat": 31.2817311, "lon": 121.6072848}, "nodes": [4888992563, 4888992564, 4888992565, 4888992566, 4888992567, 4888992568, 4888992550, 4888992551, 4888992552, 4888992557, 4888992558, 4888992559, 4888992560, 4888992561, 4888992562, 4888992553, 4888992554, 4888992555, 4888992556, 4888992563], "tags": {"amenity": "school"}}, {"type": "way", "id": 511241820, "center": {"lat": 31.1626509, "lon": 121.4729359}, "nodes": [5001371779, 5001371778, 5001371777, 5001371776, 5001371775, 5001371774, 5001371773, 5001371772, 5001371771, 5001371739, 5001371738, 5001371737, 5001371736, 5001371735, 5001371734, 5001371733, 5001371732, 5001371731, 5001371730, 5001371729, 5001371779], "tags": {"amenity": "school", "name": "上海浦东新区民办惠立学校"}}, {"type": "way", "id": 511241839, "center": {"lat": 31.1495497, "lon": 121.4676252}, "nodes": [5001372104, 5001372103, 5001372102, 5001372101, 5001372100, 5001372098, 5001372097, 5001372096, 5001372094, 5001372093, 5001372091, 5001372090, 5001372089, 5001372104], "tags": {"amenity": "school", "name": "华师大二附中前滩学校"}}, {"type": "way", "id": 511241840, "center": {"lat": 31.1490918, "lon": 121.4661325}, "nodes": [5001372116, 5001372115, 5001372114, 5001372113, 5001372112, 5001372111, 5001372110, 5001372109, 5001372108, 5001372107, 5001372106, 5001372105, 5001372116], "tags": {"amenity": "kindergarten", "name": "惠立幼儿园"}}, {"type": "way", "id": 511929127, "center": {"lat": 31.3114731, "lon": 121.5834751}, "nodes": [5006604585, 5006604586, 5006604587, 5006604588, 5006604585], "tags": {"addr:city": "浦东新区", "addr:district": "高行镇", "addr:housenumber": "1165", "addr:postcode": "201207", "addr:province": "上海市", "addr:street": "繁锦路", "amenity": "school", "name": "上海市第六师范附属小学芳菲校区"}}, {"type": "way", "id": 511932164, "center": {"lat": 31.3104683, "lon": 121.5809445}, "nodes": [5006627878, 5006627879, 5006627880, 5006627881, 5006627878], "tags": {"addr:city": "浦东新区", "addr:district": "高行镇", "addr:housenumber": "318号", "addr:postcode": "201207", "addr:province": "上海市", "addr:street": "芳菲路", "amenity": "kindergarten", "name": "繁锦幼儿园"}}, {"type": "way", "id": 538422231, "center": {"lat": 30.8846932, "lon": 121.8926524}, "nodes": [11178894465, 11178894466, 11178894468, 11178894469, 11178876318, 11178876317, 11178894470, 11178876312, 11178876315, 11178876313, 11178876314, 11178876319, 11178876321, 11178894467, 5211615863, 5211615862, 5211615861, 5211615860, 5211615859, 5211615858, 5211615857, 5211615856, 11178876320, 11178894471, 5211615855, 5211615854, 5211615853, 5211615852, 5211615851, 5211615850, 5211615849, 5211615848, 5211615847, 5211615846, 5211615845, 5211615844, 5211615843, 5211615842, 5211615840, 13011353656, 5211615837, 3799588778, 5211615836, 12679721674, 5211615835, 5211615834, 11178894465], "tags": {"amenity": "university", "name": "上海海洋大学（临港校区）", "name:en": "Shanghai Ocean University (Lingang Campus)", "wikidata": "Q7488485", "wikimedia_commons": "Category:Shanghai Ocean University", "wikipedia": "en:Shanghai Ocean University"}}, {"type": "way", "id": 538422237, "center": {"lat": 30.8770666, "lon": 121.9000008}, "nodes": [5211615864, 5211615865, 5211615866, 5211615867, 5211615868, 5211615869, 5211615870, 5211615871, 5211615872, 5211615873, 5211615874, 5211615875, 5211615876, 5211615877, 5211615878, 10052640558, 5211615879, 5211615880, 3901861016, 3901861001, 3901861007, 3901861010, 3901861000, 3901861017, 2991731532, 4406556132, 4406556131, 5211615832, 5211615833, 9567284411, 5211615831, 3799417965, 2755265160, 8975039647, 8975039646, 8975039645, 8975039644, 8975039643, 8975039642, 8975039641, 5211615864], "tags": {"addr:city": "上海市", "addr:district": "浦东新区", "addr:housenumber": "1550", "addr:postcode": "201306", "addr:street": "海港大道", "amenity": "university", "name": "上海海事大学（临港校区）", "name:en": "Shanghai Maritime University (Lingang Campus)", "wikidata": "Q51841", "wikipedia": "en:Shanghai Maritime University"}}, {"type": "way", "id": 538441463, "center": {"lat": 31.3451487, "lon": 121.5739911}, "nodes": [5211728311, 5211728312, 5211728313, 5211730324, 5211728314, 5211730323, 5211728315, 5211730322, 5211728316, 5211728317, 5211728318, 5211728319, 5211728320, 12419681715, 5211730321, 5211728311], "tags": {"amenity": "hospital", "healthcare": "hospital", "name": "上海市第七人民医院", "name:en": "Shanghai Seventh People's Hospital", "name:zh": "上海市第七人民医院", "wikidata": "Q30296393"}}, {"type": "way", "id": 544336461, "center": {"lat": 31.1961533, "lon": 121.582772}, "nodes": [8971307492, 6816011445, 5262038741, 5262038742, 5262038743, 5262038744, 5262038745, 8971307491, 8971307492], "tags": {"amenity": "school", "name": "上海外国语大学附属浦东外国语学校"}}, {"type": "way", "id": 544336465, "center": {"lat": 31.208891, "lon": 121.5755749}, "nodes": [5262038764, 5262038765, 11932671952, 5262038766, 5262038767, 11932671951, 13568504132, 5262038764], "tags": {"amenity": "college", "name": "中国美院上海设计学院"}}, {"type": "way", "id": 544338096, "center": {"lat": 31.1981057, "lon": 121.5394357}, "nodes": [5262059332, 5262059333, 5262059334, 5262059335, 5262059336, 5262059337, 5262059338, 5262059339, 5262059340, 5262059341, 5262059342, 8108554491, 5262059346, 8108554493, 8108554494, 12419922176, 5262059347, 5262059348, 5262059349, 5262059350, 9397153313, 5262059332], "tags": {"abbr_name": "CELAP", "amenity": "college", "name": "中国浦东干部学院", "name:en": "China Executive Leadership Academy Pudong", "owner": "Central Committee of the Chinese Communist Party", "start_date": "2005", "wikidata": "Q30337", "wikipedia": "en:China Executive Leadership Academy Pudong"}}, {"type": "way", "id": 545664692, "center": {"lat": 31.1398492, "lon": 121.5032246}, "nodes": [5273535361, 5273535362, 5273535363, 5273535364, 5273535365, 5273535366, 5273535367, 5273535368, 5273535369, 5273535361], "tags": {"amenity": "school", "name": "育人中学"}}, {"type": "way", "id": 545664693, "center": {"lat": 31.1407299, "lon": 121.4954106}, "nodes": [5273535370, 5273535371, 5273535372, 5273535373, 5273535374, 5273535375, 5273535376, 5273535377, 5273535370], "tags": {"amenity": "school"}}, {"type": "way", "id": 545664695, "center": {"lat": 31.1497546, "lon": 121.4978108}, "nodes": [5273535387, 5273535388, 5273535389, 8094450703, 12169406397, 5273535391, 5273535387], "tags": {"amenity": "school", "name": "三林中学北校"}}, {"type": "way", "id": 546143868, "center": {"lat": 31.1560639, "lon": 121.4934495}, "nodes": [5277924520, 5277925721, 5277925722, 5277925723, 5277925724, 5277925725, 5277925726, 5277925727, 5277925728, 5277925729, 5277925730, 5277925731, 5277925732, 5277925733, 5277924520], "tags": {"amenity": "school", "name": "杨思高级中学"}}, {"type": "way", "id": 546143869, "center": {"lat": 31.1584468, "lon": 121.4900305}, "nodes": [5277925734, 13151966936, 5277925735, 5277925736, 5277925737, 5277925738, 5277925739, 5277925740, 5277925741, 5277925743, 5277925744, 5277925734], "tags": {"amenity": "school", "name": "杨思中学"}}, {"type": "way", "id": 546143870, "center": {"lat": 31.1613982, "lon": 121.4879664}, "nodes": [5277925745, 5277925746, 5277925747, 5277925748, 5277925749, 5277925745], "tags": {"amenity": "school", "name": "大桥小学"}}, {"type": "way", "id": 546143872, "center": {"lat": 31.1514257, "lon": 121.4905558}, "nodes": [5277925757, 5277925759, 5277925760, 5277925761, 5277925762, 12241062700, 12241062699, 5277925763, 5277925755, 5277925754, 5277925753, 11152995561, 5277925752, 5277925757], "tags": {"amenity": "school", "name": "杨思小学"}}, {"type": "way", "id": 546143873, "center": {"lat": 31.1493348, "lon": 121.4928676}, "nodes": [8947597203, 5277925765, 5277925766, 5277925767, 5277925768, 5277925769, 5277925770, 8947597202, 8947597203], "tags": {"amenity": "school", "name": "凌兆小学"}}, {"type": "way", "id": 546229812, "center": {"lat": 31.1467039, "lon": 121.5159551}, "nodes": [5278777301, 5278777302, 5278777303, 5278777304, 5278777301], "tags": {"amenity": "school", "name": "林苑小学"}}, {"type": "way", "id": 546610713, "center": {"lat": 31.149672, "lon": 121.511296}, "nodes": [5282206768, 10734062121, 10734062122, 10734062123, 10734062124, 5282206771, 5282206772, 5282206773, 5282206768], "tags": {"amenity": "school", "name": "尚博实验小学"}}, {"type": "way", "id": 546610715, "center": {"lat": 31.1500323, "lon": 121.5082832}, "nodes": [5282206774, 5282206775, 5282206776, 5282206777, 5282206779, 13152066856, 5283145311, 5282206774], "tags": {"amenity": "hospital", "healthcare": "hospital", "name": "东方医院（南院）"}}, {"type": "way", "id": 546721482, "center": {"lat": 31.1432109, "lon": 121.4937404}, "nodes": [5283145521, 5283145522, 5283145523, 5283145524, 11231037763, 11231037762, 5283145525, 5283145526, 5283145527, 11231037761, 5283145532, 5283145521], "tags": {"amenity": "school", "name": "清源小学", "name:en": "Qingyuan Primary School"}}, {"type": "way", "id": 552160702, "center": {"lat": 31.1976193, "lon": 121.5331975}, "nodes": [5331414932, 5331414933, 13347251026, 13347251027, 13347251029, 5331414934, 5331414936, 5331414937, 5331414938, 5331414939, 5331414940, 5331414941, 5331414932], "tags": {"amenity": "school", "education": "school", "name": "锦绣小学"}}, {"type": "way", "id": 582729285, "center": {"lat": 31.264148, "lon": 121.5947994}, "nodes": [763725652, 763725876, 826625631, 5572410817, 763725652], "tags": {"amenity": "school", "name": "金桥中心小学"}}, {"type": "way", "id": 587798568, "center": {"lat": 31.1906409, "lon": 121.5856521}, "nodes": [3406871819, 3406871820, 3406871821, 3406871822, 3406871813, 5614543818, 3406871819], "tags": {"amenity": "college", "name": "上海交通大学微电子学院"}}, {"type": "way", "id": 589123294, "center": {"lat": 31.2220863, "lon": 121.6151068}, "nodes": [5625862169, 5625862170, 12676830431, 5625862171, 5625862172, 5625862173, 5625862174, 5625862175, 5625862176, 5625862177, 5625862169], "tags": {"amenity": "school", "name": "中芯学校", "name:en": "SMIC Private School"}}, {"type": "way", "id": 589229518, "center": {"lat": 31.20683, "lon": 121.5153706}, "nodes": [5626636475, 5626636476, 5626636477, 5626636478, 5626636475], "tags": {"amenity": "kindergarten", "name": "爱绿幼儿园"}}, {"type": "way", "id": 589229530, "center": {"lat": 31.203731, "lon": 121.535468}, "nodes": [5626636548, 5626636549, 5626636550, 5626636551, 5626636552, 5626636553, 5626636554, 5626636555, 5626636556, 5626636557, 5626636548], "tags": {"amenity": "school", "name": "上海市浦东外事服务学校"}}, {"type": "way", "id": 610749136, "center": {"lat": 30.8877982, "lon": 121.9190719}, "nodes": [5783742243, 5783742244, 5783742245, 4440241961, 1810473561, 1810473541, 1810473645, 1810473568, 1810473649, 5783742246, 1810501773, 1810501082, 5783742247, 5783742248, 5783742249, 5783742251, 5783742250, 5783742243], "tags": {"addr:housenumber": "222", "addr:street": "环湖西三路", "amenity": "hospital", "healthcare": "hospital", "name": "上海市第六人民医院东院", "name:en": "Shanghai Sixth People's Hospital East", "name:zh": "上海市第六人民医院东院"}}, {"type": "way", "id": 615490965, "center": {"lat": 31.2106055, "lon": 121.5456305}, "nodes": [5820124712, 5820124713, 5820124714, 5820124715, 5820124712], "tags": {"amenity": "kindergarten", "name": "牡丹幼儿园"}}, {"type": "way", "id": 623793737, "center": {"lat": 31.1855878, "lon": 121.5490262}, "nodes": [5890438794, 5890438795, 5890438796, 5890438797, 5890438798, 5890438799, 2526989253, 5890438794], "tags": {"amenity": "school", "name": "上海海事大学附属北蔡镇中心小学", "name:en": "Beicai Primary School"}}, {"type": "way", "id": 630618230, "center": {"lat": 31.0812187, "lon": 121.5854238}, "nodes": [5954128467, 5954128468, 5954128469, 5954128470, 5954128471, 5954128472, 5954128473, 5954128474, 5954128475, 5954128476, 5954128477, 5954128478, 5954128467], "tags": {"amenity": "school", "name": "航城实验小学"}}, {"type": "way", "id": 633640656, "center": {"lat": 31.1260992, "lon": 121.4962121}, "nodes": [5981216101, 5981216102, 5981216103, 5981216104, 5981216105, 5981216106, 5981216107, 5981216108, 11178362675, 5981216101], "tags": {"amenity": "school", "name": "上南实验小学（三林校区）"}}, {"type": "way", "id": 633640657, "center": {"lat": 31.1258486, "lon": 121.495029}, "nodes": [5981216101, 5981216109, 5981216110, 5981216111, 5981216102, 5981216101], "tags": {"amenity": "school", "name": "洋泾中学南校（三彩路校区）"}}, {"type": "way", "id": 633640661, "center": {"lat": 31.1249852, "lon": 121.5081119}, "nodes": [5981216160, 5981216161, 5981216162, 5981216163, 5981216164, 5981216165, 5981216166, 5981216160], "tags": {"amenity": "school", "name": "育人中学（懿德校区）"}}, {"type": "way", "id": 633640662, "center": {"lat": 31.126209, "lon": 121.5076157}, "nodes": [5981216167, 5981216160, 5981216161, 5981216168, 5981216169, 5981216170, 5981216171, 5981216167], "tags": {"amenity": "school", "name": "东方小学"}}, {"type": "way", "id": 633644262, "center": {"lat": 31.1222865, "lon": 121.4979526}, "nodes": [5981215861, 5981231133, 5981231134, 5981215858, 5981215859, 5981215860, 5981215861], "tags": {"amenity": "kindergarten", "name": "百花幼儿园"}}, {"type": "way", "id": 636300506, "center": {"lat": 31.0607185, "lon": 121.7325864}, "nodes": [6000659892, 6000659893, 6000659894, 6000659895, 6000807973, 6000659892], "tags": {"amenity": "hospital", "healthcare": "hospital", "name": "上海浦东医院"}}, {"type": "way", "id": 636301720, "center": {"lat": 31.069283, "lon": 121.7359944}, "nodes": [6000709728, 6000709729, 6000709730, 6000709731, 6000709728], "tags": {"amenity": "school", "name": "南汇第五中学"}}, {"type": "way", "id": 636301729, "center": {"lat": 31.070872, "lon": 121.7345083}, "nodes": [6000709806, 6000709810, 6000709811, 6000709812, 6000709813, 6000709807, 6000709806], "tags": {"amenity": "kindergarten", "name": "绿苑幼儿园"}}, {"type": "way", "id": 636304488, "center": {"lat": 31.0692343, "lon": 121.7385806}, "nodes": [6000807817, 11682003075, 11682003076, 6000807818, 11682003077, 6000807819, 6000807820, 6000807821, 6000807822, 11682003073, 11682003072, 11682003074, 6000807817], "tags": {"amenity": "school", "name": "惠南小学北校区"}}, {"type": "way", "id": 636304501, "center": {"lat": 31.0586448, "lon": 121.7355271}, "nodes": [6000807944, 6000807945, 6000807946, 6000807947, 6000807948, 6000807949, 6000807944], "tags": {"amenity": "school", "name": "南汇第二中学"}}, {"type": "way", "id": 636304503, "center": {"lat": 31.0628574, "lon": 121.73325}, "nodes": [6000807970, 6000807971, 6000807972, 6000659895, 6000807973, 6000807970], "tags": {"amenity": "hospital", "healthcare": "hospital", "healthcare:speciality": "psychiatry", "name": "南汇精神卫生中心"}}, {"type": "way", "id": 636304504, "center": {"lat": 31.0612122, "lon": 121.7348084}, "nodes": [6000807974, 6000807975, 6000807976, 6000807977, 6000807974], "tags": {"amenity": "kindergarten", "name": "民乐幼儿园"}}, {"type": "way", "id": 636310512, "center": {"lat": 31.0495266, "lon": 121.743634}, "nodes": [6000822589, 12260873486, 6000822590, 6000822591, 6000822592, 6000822593, 6000822594, 6000822595, 6000822596, 11682002334, 6000822597, 6000822598, 6000822599, 6000822600, 6000822589], "tags": {"amenity": "school", "name": "南汇实验学校"}}, {"type": "way", "id": 640472411, "center": {"lat": 31.1248121, "lon": 121.5017989}, "nodes": [6033540304, 6033540305, 6033540306, 6033540311, 6033540304], "tags": {"amenity": "kindergarten"}}, {"type": "way", "id": 640472413, "center": {"lat": 31.1268949, "lon": 121.4998206}, "nodes": [6033540312, 6033540313, 6033540314, 6033540315, 6033540316, 5981216243, 6033540312], "tags": {"amenity": "kindergarten"}}, {"type": "way", "id": 640472415, "center": {"lat": 31.1263767, "lon": 121.5044072}, "nodes": [6032312746, 6032312747, 6033540317, 6033540318, 6033540319, 6033540320, 6032312745, 6032312746], "tags": {"amenity": "kindergarten"}}, {"type": "way", "id": 655137896, "center": {"lat": 31.2786521, "lon": 121.6577455}, "nodes": [6138499581, 6138499582, 6138499583, 6138499584, 6138499581], "tags": {"amenity": "school", "name": "浦东新区龚路中心小学西校区"}}, {"type": "way", "id": 655203548, "center": {"lat": 31.1837542, "lon": 121.5444559}, "nodes": [6139038833, 6139038834, 6139038835, 6139038836, 6139038833], "tags": {"addr:city": "北蔡镇", "addr:district": "Pudong", "addr:housenumber": "320", "addr:province": "Shanghai", "addr:street": "博华路", "amenity": "school", "grades": "6-9", "name": "建平实验地杰中学（博华路校区）", "old_name": "上海市新云台中学", "phone": "+86 21 5042 5239", "religion": "no"}}, {"type": "way", "id": 655203550, "center": {"lat": 31.1856837, "lon": 121.5238284}, "nodes": [6139038843, 6139038844, 6139038845, 6139038846, 6139038847, 6139026652, 6139038848, 6139038849, 6139038850, 6139038843], "tags": {"amenity": "school", "name": "上南中学"}}, {"type": "way", "id": 655203557, "center": {"lat": 31.1865918, "lon": 121.5190874}, "nodes": [6139038876, 6139038877, 6139038878, 6139038879, 6139038880, 6139038876], "tags": {"amenity": "school", "name": "新时代小学大华校区"}}, {"type": "way", "id": 655203558, "center": {"lat": 31.1863435, "lon": 121.5199833}, "nodes": [6139038880, 6139038881, 6139038882, 6139038883, 6139038879, 6139038880], "tags": {"amenity": "kindergarten", "name": "云台幼儿园"}}, {"type": "way", "id": 655203562, "center": {"lat": 31.1830809, "lon": 121.5330125}, "nodes": [6139039410, 6139039411, 6139039412, 6139039413, 6139039414, 6139039410], "tags": {"amenity": "school", "name": "昌邑小学大华校区"}}, {"type": "way", "id": 655203563, "center": {"lat": 31.1821978, "lon": 121.5333834}, "nodes": [6139039414, 6139039416, 6139039417, 6139039418, 6139039413, 6139039414], "tags": {"amenity": "school", "name": "上南中学东校锦绣校区"}}, {"type": "way", "id": 655204838, "center": {"lat": 31.1694441, "lon": 121.489876}, "nodes": [6139051565, 6139051566, 6139051567, 6139051568, 6139051569, 6139051570, 6139051571, 6139051572, 6139051565], "tags": {"amenity": "school"}}, {"type": "way", "id": 655204839, "center": {"lat": 31.1720763, "lon": 121.4855567}, "nodes": [6139051573, 6139051574, 6139051575, 6139051576, 6139051577, 6139051578, 6139051579, 6139051580, 6139051581, 6139051573], "tags": {"amenity": "school", "name": "洪山中学"}}, {"type": "way", "id": 674608637, "center": {"lat": 31.0587119, "lon": 121.7832523}, "nodes": [6317733781, 11687664528, 11687664537, 11687664529, 11687664530, 11687664531, 6317733782, 6317733783, 11278697470, 11278697474, 11278697473, 11278697472, 11278697471, 6317733784, 6317733781], "tags": {"addr:district": "浦东新区", "addr:housenumber": "288号", "addr:province": "上海市", "addr:street": "学海路", "amenity": "school", "name": "上海南汇中学", "operator": "上海南汇中学"}}, {"type": "way", "id": 674611357, "center": {"lat": 31.236808, "lon": 121.5243549}, "nodes": [6317768049, 13130788118, 6317768050, 13130788120, 13130788119, 6317768051, 6317782941, 6317768052, 13130788117, 6317768049], "tags": {"addr:district": "浦东新区", "addr:housenumber": "1178弄甲2号", "addr:province": "上海市", "addr:street": "商城路", "amenity": "school", "name": "上海福山外国语小学（瑞华校区）", "operator": "上海福山外国语小学集团"}}, {"type": "way", "id": 674613267, "center": {"lat": 31.2372825, "lon": 121.5212307}, "nodes": [6317782960, 6317782961, 6317782956, 6317782957, 10153326704, 6317782959, 10153326703, 6317782960], "tags": {"addr:district": "浦东新区", "addr:housenumber": "48弄1号", "addr:province": "上海市", "addr:street": "福山路", "amenity": "school", "name": "上海福山外国语小学（福山校区）", "operator": "上海福山外国语小学集团"}}, {"type": "way", "id": 674613268, "center": {"lat": 31.2389801, "lon": 121.5233662}, "nodes": [6317782968, 13124705973, 13124705975, 6317782969, 13124705976, 13124705974, 6317782949, 11140450968, 6317782971, 11140450970, 11140450969, 6317782968], "tags": {"addr:district": "浦东新区", "addr:housenumber": "188号", "addr:province": "上海市", "addr:street": "乳山路", "amenity": "school", "name": "建平中学西校（乳山校区）"}}, {"type": "way", "id": 695910329, "center": {"lat": 31.1650038, "lon": 121.4989097}, "nodes": [6534717603, 6534717604, 6534717599, 6534717606, 6534717603], "tags": {"amenity": "school", "name": "新世界实验小学"}}, {"type": "way", "id": 695910330, "center": {"lat": 31.1638249, "lon": 121.4993022}, "nodes": [6534717603, 6534717607, 6534717608, 6534717609, 6534717602, 6534717604, 6534717603], "tags": {"amenity": "school", "name": "上海市杨思中学东校区"}}, {"type": "way", "id": 695910378, "center": {"lat": 31.164886, "lon": 121.4976178}, "nodes": [6534755402, 6534755403, 6534755404, 6534755405, 6534755402], "tags": {"amenity": "kindergarten", "name": "恒宇幼儿园杨东部"}}, {"type": "way", "id": 708902198, "center": {"lat": 31.0274965, "lon": 121.6444509}, "nodes": [6661148398, 6661148399, 6661148400, 6661148401, 6661148402, 6661148403, 6661148405, 6661148406, 6661148398], "tags": {"amenity": "school", "name": "浦东新区新场小学"}}, {"type": "way", "id": 708902199, "center": {"lat": 31.0272133, "lon": 121.64336}, "nodes": [6661148403, 6661148402, 6661148401, 6661148409, 6661148410, 6661148403], "tags": {"amenity": "kindergarten", "name": "浦东新区新场幼儿园"}}, {"type": "way", "id": 710816583, "center": {"lat": 31.26131, "lon": 121.6194276}, "nodes": [6682939163, 6682939164, 6682939165, 6682939166, 6682939167, 6682939168, 6682939163], "tags": {"amenity": "school", "name": "浦东振华外经职业技术学校", "old_name": "新陆中学"}}, {"type": "way", "id": 711016814, "center": {"lat": 31.2751202, "lon": 121.5762753}, "nodes": [6684251537, 6684251538, 6684251539, 6684251540, 6684251541, 6684251542, 6684251543, 6684251544, 6684251545, 6684251546, 6684251547, 6684251548, 6684251549, 6684251550, 6684251537], "tags": {"amenity": "school", "name": "沪新中学"}}, {"type": "way", "id": 711023776, "center": {"lat": 31.2271515, "lon": 121.5168745}, "nodes": [6684320618, 6684320619, 6684320620, 6684320621, 6684320622, 6684320623, 6684320624, 6684320625, 13127351391, 13127351392, 13127351393, 13127351390, 6684320626, 13127351389, 6684320628, 13127351396, 13127351394, 13127351395, 6684320629, 6684320630, 13127351388, 6684320618], "tags": {"amenity": "school", "name": "洋泾中学"}}, {"type": "way", "id": 711023943, "center": {"lat": 31.2305543, "lon": 121.5416291}, "nodes": [6684329502, 6684329503, 6684329504, 13197140425, 13197140426, 6684329505, 6684329507, 13197140424, 13197140423, 6684329508, 13197140422, 13197140421, 6684329509, 13130980460, 6684329510, 11733625670, 11733622260, 6684329502], "tags": {"addr:housenumber": "2788", "addr:street": "杨高中路", "amenity": "school", "grades": "10-12", "name": "进才中学", "wikidata": "Q10867901", "wikipedia": "en:Jincai High School"}}, {"type": "way", "id": 711025167, "center": {"lat": 31.1969895, "lon": 121.6961874}, "nodes": [6684340319, 11210599418, 11210599419, 11210599420, 11210599422, 11210599421, 6684340320, 6684340321, 11210599404, 11210599403, 11210599402, 6684340322, 6684340323, 6684340324, 11210599398, 11210599399, 11210599400, 11210599401, 6684340319], "tags": {"amenity": "school", "name": "上海市川沙中学"}}, {"type": "way", "id": 711703517, "center": {"lat": 31.2509662, "lon": 121.5809437}, "nodes": [6691198302, 6691198303, 6691198304, 6691198305, 6691198306, 6691198307, 6691198308, 6691198309, 6691198302], "tags": {"amenity": "school", "name": "陆行中学南校"}}, {"type": "way", "id": 711705131, "center": {"lat": 31.2540689, "lon": 121.5890927}, "nodes": [6691205845, 6691205846, 6691205847, 6691205848, 6691205849, 6691205850, 6691205851, 6691205852, 6691205853, 6691205854, 6691205855, 6691205856, 6691205845], "tags": {"amenity": "school", "name": "建平实验小学（金业校区）"}}, {"type": "way", "id": 712187765, "center": {"lat": 31.1796887, "lon": 121.4909708}, "nodes": [6696356577, 6696356578, 6696356579, 6696356580, 6696356577], "tags": {"amenity": "school", "name": "清流中学"}}, {"type": "way", "id": 722103149, "center": {"lat": 31.2860085, "lon": 121.5940069}, "nodes": [6773592059, 6773592060, 6773592061, 6773592063, 8692964787, 6773592064, 6773592059], "tags": {"amenity": "school", "name": "福山证大外国语小学"}}, {"type": "way", "id": 722104757, "center": {"lat": 31.2873685, "lon": 121.5921637}, "nodes": [6773605436, 6773605437, 6773605438, 6773605439, 6773605440, 6773605441, 6773605442, 6773605443, 6773605444, 6773605445, 6773605436], "tags": {"amenity": "kindergarten", "name": "星韵幼儿园"}}, {"type": "way", "id": 722388530, "center": {"lat": 31.2798101, "lon": 121.57706}, "nodes": [6776081961, 6776081962, 6776081963, 6776081964, 6776081965, 6776081961], "tags": {"amenity": "school", "name": "莱阳小学"}}, {"type": "way", "id": 722388532, "center": {"lat": 31.2716327, "lon": 121.5763419}, "nodes": [6776081975, 6776081976, 6776081977, 6776081978, 6776081979, 6776081980, 6776081981, 6776081982, 6776081983, 6776081975], "tags": {"amenity": "school", "name": "技工学校"}}, {"type": "way", "id": 723917777, "center": {"lat": 31.240877, "lon": 121.5625086}, "nodes": [6789520260, 6789520261, 6789520262, 6789520263, 6789520264, 6789520265, 6789520266, 6789520267, 6789520268, 6789520260], "tags": {"amenity": "school", "name": "香山中学"}}, {"type": "way", "id": 723917811, "center": {"lat": 31.241404, "lon": 121.5668964}, "nodes": [6789523130, 6789523131, 6789523132, 6789523133, 6789523134, 6789523135, 6789523136, 6789523130], "tags": {"amenity": "school", "name": "香山小学"}}, {"type": "way", "id": 723919277, "center": {"lat": 31.2673348, "lon": 121.5742702}, "nodes": [6789520609, 6789520610, 6789520611, 6789520612, 6789520613, 6789520614, 6789520615, 6789520616, 6789520609], "tags": {"amenity": "school", "name": "竹园小学"}}, {"type": "way", "id": 723919282, "center": {"lat": 31.2738296, "lon": 121.5768807}, "nodes": [6789520665, 6789520666, 6789520667, 6789520668, 6789520665], "tags": {"amenity": "school", "name": "莱阳幼儿园"}}, {"type": "way", "id": 723919893, "center": {"lat": 31.2805167, "lon": 121.5903774}, "nodes": [6789578132, 6789578133, 6789578134, 6789578135, 6789578136, 6789578137, 6789578138, 6789578132], "tags": {"amenity": "school", "name": "凌河小学"}}, {"type": "way", "id": 723919894, "center": {"lat": 31.2796002, "lon": 121.5914144}, "nodes": [6789578139, 6789578140, 6789578141, 6789578142, 6789578139], "tags": {"amenity": "school", "name": "东陆幼儿园"}}, {"type": "way", "id": 723919896, "center": {"lat": 31.2814073, "lon": 121.5959993}, "nodes": [6789578154, 6789578155, 6789578164, 959510743, 959510755, 6789578158, 6789578154], "tags": {"amenity": "school", "name": "上海立信会计金融学院附属学校（证大校区）"}}, {"type": "way", "id": 723919900, "center": {"lat": 31.2768271, "lon": 121.5978745}, "nodes": [6789578184, 6789581885, 6789581886, 6789581887, 6789578184], "tags": {"amenity": "school", "name": "同汇幼儿园"}}, {"type": "way", "id": 723919902, "center": {"lat": 31.2723022, "lon": 121.5970854}, "nodes": [6789581893, 6789581892, 6789581891, 6789581900, 6789581901, 6789581893], "tags": {"amenity": "school", "name": "上海立信会计金融学院附属学校（东陆校区）"}}, {"type": "way", "id": 727003644, "center": {"lat": 31.3313115, "lon": 121.6152732}, "nodes": [6813394007, 6813394008, 6813394009, 6813394014, 6813394010, 6813394011, 6813394012, 6813394007], "tags": {"amenity": "school", "name": "高东中学"}}, {"type": "way", "id": 727003645, "center": {"lat": 31.3306178, "lon": 121.6166353}, "nodes": [6813394010, 6813394014, 6813394015, 6813394016, 6813394017, 6813394018, 6813394011, 6813394010], "tags": {"amenity": "school", "name": "高东小学"}}, {"type": "way", "id": 727185852, "center": {"lat": 31.1914998, "lon": 121.6990297}, "nodes": [6814939491, 6814939492, 6814939493, 6814939494, 6814939491], "tags": {"amenity": "hospital", "healthcare": "hospital", "name": "浦东新区人民医院"}}, {"type": "way", "id": 727185856, "center": {"lat": 31.1965697, "lon": 121.7019591}, "nodes": [6814939503, 11898771908, 11898771909, 11898771910, 11898771911, 6814939504, 7732875287, 6814939505, 7732875285, 6814939506, 7732822183, 6814939507, 12633489756, 12633489755, 6814939503], "tags": {"amenity": "school", "name": "观澜小学"}}, {"type": "way", "id": 727240842, "center": {"lat": 31.2429062, "lon": 121.6703244}, "nodes": [6815423810, 6815423811, 6815423812, 6815423813, 6815423814, 6815423815, 6815423816, 6815423810], "tags": {"amenity": "school", "name": "王港中学"}}, {"type": "way", "id": 727240843, "center": {"lat": 31.2432751, "lon": 121.6715969}, "nodes": [6815423817, 6815423818, 6815423819, 6815423820, 6815423821, 6815423817], "tags": {"amenity": "kindergarten", "name": "王港幼儿园"}}, {"type": "way", "id": 727240847, "center": {"lat": 31.2386466, "lon": 121.6779222}, "nodes": [6815423826, 6815423827, 6815423828, 6815423829, 6815423830, 6815423831, 6815423826], "tags": {"amenity": "clinic", "healthcare": "clinic", "name": "王港社区卫生中心"}}, {"type": "way", "id": 727248692, "center": {"lat": 31.2410088, "lon": 121.5242181}, "nodes": [6815477405, 13123560163, 13123560160, 6815477406, 6815477407, 13123560356, 13123560355, 13123560354, 13123560347, 13123560348, 6815477408, 6815477409, 13123560244, 6815477410, 13123560240, 13123560066, 13123560070, 13123560234, 6815477405], "tags": {"amenity": "college", "name": "上海海事职业技术学院"}}, {"type": "way", "id": 729312099, "center": {"lat": 31.04789, "lon": 121.7578412}, "nodes": [6832601349, 6832601350, 6832601351, 6832601352, 6832601353, 6832601354, 6832601355, 11687664249, 6832601356, 6832601349], "tags": {"amenity": "hospital", "healthcare": "hospital", "name": "光明中医医院"}}, {"type": "way", "id": 729540012, "center": {"lat": 31.2323621, "lon": 121.5302008}, "nodes": [6834425152, 6834425153, 6834425154, 6834425155, 6834425156, 6834425157, 6834425152], "tags": {"amenity": "hospital", "healthcare": "hospital", "name": "浦东新区精神卫生中心"}}, {"type": "way", "id": 729540013, "center": {"lat": 31.2331155, "lon": 121.5261125}, "nodes": [6834425159, 6834425160, 6834425161, 6834425162, 6834425159], "tags": {"amenity": "school", "name": "竹园小学"}}, {"type": "way", "id": 732255532, "center": {"lat": 31.322887, "lon": 121.6244908}, "nodes": [6856660752, 6856660753, 6856660754, 6856660755, 6856660756, 6856660757, 6856660752], "tags": {"addr:district": "浦东新区", "addr:housenumber": "459号", "addr:province": "上海市", "addr:street": "北新园路", "amenity": "clinic", "healthcare": "clinic", "name": "浦东新区高东社区卫生服务中心"}}, {"type": "way", "id": 732259060, "center": {"lat": 31.3201733, "lon": 121.6273642}, "nodes": [6856761616, 6856761617, 6856761618, 6856761619, 6856761620, 6856761621, 6856761622, 6856761623, 6856761624, 6856761616], "tags": {"addr:district": "浦东新区", "addr:housenumber": "199号", "addr:province": "上海市", "addr:street": "新村园一路", "amenity": "school", "name": "浦东新区杨园中心小学", "religion": "none"}}, {"type": "way", "id": 733763821, "center": {"lat": 31.2199818, "lon": 121.5218725}, "nodes": [6872270262, 6872270263, 6872270264, 6872270265, 13144023076, 11220282894, 13144195367, 6872303596, 6872270266, 6872270267, 13144195386, 6872270268, 6872270269, 13144166198, 6872270262], "tags": {"amenity": "school", "name": "浦明师范学校附属小学"}}, {"type": "way", "id": 733763911, "center": {"lat": 31.2204708, "lon": 121.517974}, "nodes": [6872283449, 6872283450, 13144195403, 13144195404, 6872283451, 6872283452, 6872283453, 6872283449], "tags": {"amenity": "school", "name": "上海民办洋泾外国语小学"}}, {"type": "way", "id": 733763912, "center": {"lat": 31.2198029, "lon": 121.5179903}, "nodes": [6872283453, 6872283452, 13144195409, 6872283456, 6872283457, 13144195411, 13144195412, 13144195413, 13144195414, 13144195415, 6872283453], "tags": {"amenity": "kindergarten", "name": "浦南幼儿园"}}, {"type": "way", "id": 756204032, "center": {"lat": 31.11984, "lon": 121.5585096}, "nodes": [7062908156, 12281767065, 7062908157, 12281767066, 7062908158, 7062908159, 7062908160, 7062908161, 12281767028, 12281767027, 12281767024, 12281767023, 12281767020, 7062908156], "tags": {"amenity": "school", "name": "建平康梧中学（吴迅校区）"}}, {"type": "way", "id": 756204033, "center": {"lat": 31.1233947, "lon": 121.5508372}, "nodes": [7062908162, 12730373560, 7062908163, 7062908164, 7062908165, 7062908166, 7062908167, 7062908168, 7062908169, 7062908170, 7062908162], "tags": {"amenity": "school", "name": "上海市浦东新区康桥实验小学"}}, {"type": "way", "id": 756226789, "center": {"lat": 31.2541232, "lon": 121.5749839}, "nodes": [7063111335, 7063111336, 7063111337, 7063111338, 7063111340, 7063111339, 7063111335], "tags": {"amenity": "school", "name": "金陆小学"}}, {"type": "way", "id": 784502662, "center": {"lat": 30.9039907, "lon": 121.8868571}, "nodes": [7328850954, 7328850955, 7328850957, 7328900950, 7328850959, 7328850961, 7328850962, 7328850965, 7328850968, 7328850969, 7328850971, 8567716521, 7328850972, 7328900943, 7328850973, 7328850974, 7328850975, 7328850976, 7328850978, 7328850979, 7328850980, 7328850982, 8567716565, 7328850983, 7328850984, 8567716543, 7328871586, 7328871587, 7328871588, 7328850954], "tags": {"addr:postcode": "233000", "amenity": "university", "name": "上海电力大学（临港）", "name:en": "Shanghai Electric Power University (Lingang)", "website": "https://www.shiep.edu.cn/"}}, {"type": "way", "id": 800900377, "center": {"lat": 31.0265417, "lon": 121.6959238}, "nodes": [7491000594, 11691103954, 11691103955, 12270463416, 7491000595, 7491000596, 7491000597, 12270463415, 7491000594], "tags": {"addr:district": "浦东新区", "addr:province": "上海市", "addr:street": "宣镇东路", "amenity": "kindergarten", "building:levels": "3", "name": "宣桥幼儿园"}}, {"type": "way", "id": 801033230, "center": {"lat": 31.2380039, "lon": 121.5451997}, "nodes": [7492449446, 7492449447, 7492449448, 7492449449, 7492449450, 7492449451, 7492449452, 7492449453, 7492449454, 7492449446], "tags": {"amenity": "school", "name": "浦东新区第二中心小学"}}, {"type": "way", "id": 808244863, "center": {"lat": 31.2395901, "lon": 121.6257448}, "nodes": [7557853502, 7557853503, 7557853504, 7557853505, 7557853506, 7557853507, 7557853508, 7557853502], "tags": {"amenity": "school", "name": "浦东新区金桥中心小学金粤校区"}}, {"type": "way", "id": 808245383, "center": {"lat": 31.240262, "lon": 121.6189433}, "nodes": [7557846116, 7557846117, 7557846118, 7557846119, 7557846116], "tags": {"amenity": "school", "name": "浦东外国语学校东校"}}, {"type": "way", "id": 813373660, "center": {"lat": 31.0465977, "lon": 121.7546074}, "nodes": [7597724184, 7597745185, 7597745186, 11687664234, 7597745187, 7597745188, 7597745189, 7597745190, 12309871859, 12309871860, 7597745191, 7597745192, 7597745193, 7597745194, 7597745195, 7597745196, 7597745197, 7597724184], "tags": {"amenity": "school", "name": "南汇第一中学"}}, {"type": "way", "id": 817774785, "center": {"lat": 31.2166522, "lon": 121.5339446}, "nodes": [7637302369, 7637302368, 7637302367, 13193086079, 13193086080, 7637307397, 13193086077, 13193086081, 13193086078, 7637302370, 13193086084, 13193086083, 7637302369], "tags": {"amenity": "school", "name": "上海日本人学校"}}, {"type": "way", "id": 831693407, "center": {"lat": 31.2019281, "lon": 121.7094196}, "nodes": [7764815060, 7764815061, 7764815062, 7842156541, 7842156539, 7842156540, 7764815063, 7764815060], "tags": {"addr:district": "浦东新区", "addr:housenumber": "3102弄158号", "addr:province": "上海市", "addr:street": "华夏东路", "amenity": "school", "grades": "15-18", "name": "上海市浦东新区农民中等专业学校"}}, {"type": "way", "id": 832293997, "center": {"lat": 31.182627, "lon": 121.6105893}, "nodes": [7770479687, 7770479688, 7770479689, 7770479690, 7770479691, 7770479692, 7770479693, 7770479694, 7770479687], "tags": {"amenity": "school", "name": "万科实验小学（张江校区）"}}, {"type": "way", "id": 832293998, "center": {"lat": 31.183816, "lon": 121.6127901}, "nodes": [7770479695, 7770479696, 7770479697, 7770479698, 7770479699, 7770479700, 7770479701, 7770479702, 7770479703, 7770479704, 7770479705, 7770479706, 7770479707, 7770479695], "tags": {"amenity": "school", "name": "上海市建平实验张江中学"}}, {"type": "way", "id": 836273041, "center": {"lat": 31.2738037, "lon": 121.5897044}, "nodes": [7805413910, 7805413911, 7805413912, 7805413913, 7805413914, 7805413910], "tags": {"amenity": "school", "name": "东荷小学"}}, {"type": "way", "id": 840874193, "center": {"lat": 30.8916455, "lon": 121.8888547}, "nodes": [7846169217, 7846169218, 7846169219, 7846169220, 8481896169, 7846169217], "tags": {"amenity": "clinic", "building": "yes", "healthcare": "clinic", "name": "医务室"}}, {"type": "way", "id": 841125396, "center": {"lat": 31.2680214, "lon": 121.5968934}, "nodes": [7848220622, 7848220623, 7848220624, 7848220625, 7848220626, 7848220627, 7848220622], "tags": {"amenity": "school", "name": "金新小学"}}, {"type": "way", "id": 841125397, "center": {"lat": 31.2696973, "lon": 121.5953538}, "nodes": [7848220628, 7848220629, 7848220630, 7848220631, 7848220628], "tags": {"amenity": "kindergarten", "name": "金新幼儿园"}}, {"type": "way", "id": 841126708, "center": {"lat": 31.2752222, "lon": 121.5893054}, "nodes": [7848245053, 7848245054, 7848245055, 7848245056, 7848245053], "tags": {"amenity": "kindergarten", "name": "东荷幼儿园"}}, {"type": "way", "id": 841131015, "center": {"lat": 31.3685719, "lon": 121.5388065}, "nodes": [7848286665, 7848286666, 7848286667, 7848286668, 7848286669, 7848286670, 7848286671, 7848286665], "tags": {"amenity": "school", "name": "凌桥中学"}}, {"type": "way", "id": 849995366, "center": {"lat": 31.2558508, "lon": 121.556404}, "nodes": [7929971910, 7929971911, 7929971912, 7929971913, 7929971914, 7929971915, 7929971910], "tags": {"amenity": "school", "name": "上海新竹园中学"}}, {"type": "way", "id": 849995367, "center": {"lat": 31.2575522, "lon": 121.5541027}, "nodes": [7929971916, 7929971917, 7929971918, 7929971919, 7929971920, 7929971921, 7929971922, 7929971923, 7929971916], "tags": {"amenity": "kindergarten", "name": "爱心幼儿园"}}, {"type": "way", "id": 849995368, "center": {"lat": 31.2544171, "lon": 121.5521025}, "nodes": [7929971924, 7929971925, 7929971926, 7929971927, 7929971928, 7929971924], "tags": {"amenity": "school", "name": "第六师范附属小学（万德校区）"}}, {"type": "way", "id": 851368747, "center": {"lat": 31.2391201, "lon": 121.5476512}, "nodes": [7940854432, 7940854434, 7940854435, 7940854436, 7940854432], "tags": {"amenity": "kindergarten", "name": "金囡幼儿园"}}, {"type": "way", "id": 851371550, "center": {"lat": 31.2305906, "lon": 121.5564092}, "nodes": [7940864080, 7940864081, 8234589120, 8234589119, 8234589121, 7940864082, 7940864083, 7940864084, 7940864080], "tags": {"amenity": "kindergarten", "name": "浦东新区东方幼儿园（联洋部）"}}, {"type": "way", "id": 851967554, "center": {"lat": 31.1764582, "lon": 121.6930225}, "nodes": [7947056556, 12465890665, 7947056557, 7947056558, 7947056559, 7947056560, 7947056561, 7947056562, 7947056556], "tags": {"amenity": "school", "name": "观澜小学川周校区"}}, {"type": "way", "id": 851967556, "center": {"lat": 31.1806654, "lon": 121.6864151}, "nodes": [7947056573, 7947056574, 7947056575, 7947056576, 7947056577, 7947056578, 7947056579, 7947056573], "tags": {"amenity": "school", "name": "川沙中学南校"}}, {"type": "way", "id": 851967560, "center": {"lat": 31.1885451, "lon": 121.6963553}, "nodes": [7947080713, 7947080714, 7947080715, 7947080716, 7947080717, 7947080718, 7947080719, 7947080713], "tags": {"amenity": "school", "name": "川沙实验小学"}}, {"type": "way", "id": 851967888, "center": {"lat": 31.2536202, "lon": 121.5796668}, "nodes": [7947061137, 7947061138, 7947061139, 7947061140, 7947061141, 7947061142, 7947061137], "tags": {"amenity": "kindergarten", "name": "海富金太阳幼儿园"}}, {"type": "way", "id": 851967889, "center": {"lat": 31.2501847, "lon": 121.5786138}, "nodes": [7947061143, 7947061144, 7947061145, 7947061146, 7947061147, 12453136618, 7947061148, 7947061143], "tags": {"amenity": "school", "name": "浦东新区青少年活动中心"}}, {"type": "way", "id": 851968045, "center": {"lat": 31.2483647, "lon": 121.5756386}, "nodes": [7947043748, 7947043749, 7947043750, 7947043751, 7947043752, 7947043753, 7947043754, 7947043755, 7947043748], "tags": {"amenity": "school", "name": "金英小学"}}, {"type": "way", "id": 857046954, "center": {"lat": 31.2944223, "lon": 121.5757069}, "nodes": [7990677258, 7990677259, 7990677260, 7990677261, 7990677262, 7990677258], "tags": {"amenity": "kindergarten", "name": "天虹幼儿园"}}, {"type": "way", "id": 857048194, "center": {"lat": 31.2953527, "lon": 121.5868823}, "nodes": [7990697350, 7990697351, 7990697352, 7990697353, 7990697350], "tags": {"amenity": "school", "name": "明珠森兰小学"}}, {"type": "way", "id": 857048198, "center": {"lat": 31.2990228, "lon": 121.5874449}, "nodes": [7990697370, 7990697371, 7990697372, 7990697373, 7990697370], "tags": {"amenity": "kindergarten", "name": "东方江韵幼儿园"}}, {"type": "way", "id": 858775798, "center": {"lat": 31.2617766, "lon": 121.590361}, "nodes": [8005375219, 8005375220, 8005375221, 8005375222, 8005375223, 8005375219], "tags": {"amenity": "kindergarten", "name": "蒲公英幼儿园"}}, {"type": "way", "id": 858778223, "center": {"lat": 31.2651866, "lon": 121.5646425}, "nodes": [8005387196, 8005387197, 12401837667, 8005387198, 8005387199, 8005387200, 8005387201, 8005387202, 8005387196], "tags": {"amenity": "school", "name": "上海海事大学港湾校区"}}, {"type": "way", "id": 858779751, "center": {"lat": 31.2950585, "lon": 121.6136378}, "nodes": [8005407043, 8005407044, 8005407045, 8005407046, 8005407047, 8005407048, 8005407049, 8005407043], "tags": {"amenity": "school", "name": "浦东新区华高小学东靖路校区"}}, {"type": "way", "id": 858779752, "center": {"lat": 31.2939982, "lon": 121.613796}, "nodes": [8005407050, 8005407051, 8005407052, 8005407053, 8005407050], "tags": {"amenity": "kindergarten", "name": "东方剑桥幼儿园"}}, {"type": "way", "id": 859135036, "center": {"lat": 31.1460803, "lon": 121.74564}, "nodes": [8008405842, 11444007381, 11444007405, 8008405843, 8008405844, 8008405845, 8008405846, 8008405847, 8008405848, 8008405842], "tags": {"amenity": "school", "name": "浦东新区东港小学"}}, {"type": "way", "id": 859135037, "center": {"lat": 31.1461894, "lon": 121.7472512}, "nodes": [8008405849, 8008405851, 11444007386, 8008405852, 8008405853, 8008405854, 8008405855, 8008405856, 8008405857, 8008405858, 8008405849], "tags": {"amenity": "kindergarten", "name": "东港幼儿园"}}, {"type": "way", "id": 863175631, "center": {"lat": 31.1830646, "lon": 121.5147741}, "nodes": [8041096267, 8041098209, 8041098210, 8041098211, 8041098207, 8041098208, 8041096268, 8041098205, 8041098206, 8041096267], "tags": {"amenity": "police", "building": "yes", "name": "南码头路派出所"}}, {"type": "way", "id": 863176444, "center": {"lat": 31.1787496, "lon": 121.5031859}, "nodes": [8041033981, 8041033980, 8041033979, 8041033978, 8041033977, 8041033976, 8041033975, 8041033974, 8041033973, 8041033972, 8041033981], "tags": {"amenity": "police", "building": "yes"}}, {"type": "way", "id": 867589440, "center": {"lat": 31.2380395, "lon": 121.7222466}, "nodes": [8086730344, 8086730345, 8086730346, 11195407868, 11195407866, 11195407867, 8086730347, 8086730344], "tags": {"amenity": "school", "name": "浦东新区庆华小学"}}, {"type": "way", "id": 867591056, "center": {"lat": 31.2061608, "lon": 121.6603595}, "nodes": [8086734694, 8086734695, 8086734696, 8086734697, 8086734698, 8086734694], "tags": {"amenity": "school", "name": "上海戏剧学院附属浦东实验中学", "old_name": "唐镇中学"}}, {"type": "way", "id": 867591952, "center": {"lat": 31.2151138, "lon": 121.516508}, "nodes": [8086700168, 8086700169, 8086700170, 8086700171, 8086700168], "tags": {"amenity": "school", "education": "school", "name": "上海交通大学附属浦东实验中学"}}, {"type": "way", "id": 867591953, "center": {"lat": 31.2130837, "lon": 121.5170311}, "nodes": [8086700172, 8086700173, 8086700174, 8086700175, 8086700172], "tags": {"amenity": "kindergarten", "name": "天天乐幼儿园"}}, {"type": "way", "id": 868938325, "center": {"lat": 31.1965794, "lon": 121.5061393}, "nodes": [8099327771, 8099327772, 8099327773, 8099327774, 8099327775, 8099327776, 8099327777, 8099327771], "tags": {"amenity": "school", "name": "临沂二村小学"}}, {"type": "way", "id": 872817062, "center": {"lat": 31.2347555, "lon": 121.5469368}, "nodes": [8127688109, 8127688110, 8173458102, 8173458104, 8127688111, 8173458105, 8173458103, 8127688112, 8127688109], "tags": {"amenity": "hospital", "healthcare": "hospital", "name": "仁济医院北院"}}, {"type": "way", "id": 872817063, "center": {"lat": 31.2361214, "lon": 121.5478531}, "nodes": [8127688113, 13197277881, 8127688114, 8127688115, 8224600629, 8224600627, 8224600628, 8127688116, 8127712417, 8224600682, 13197277891, 13197277882, 8127688113], "tags": {"addr:city": "上海", "addr:district": "浦东新区", "addr:housenumber": "555号", "addr:province": "上海市", "addr:street": "苗圃路", "amenity": "school", "name": "上海市进才中学北校"}}, {"type": "way", "id": 872817064, "center": {"lat": 31.2353653, "lon": 121.5451455}, "nodes": [6691165959, 8127712418, 8127712421, 6691165960, 8127712423, 8127712424, 6691165959], "tags": {"addr:city": "上海", "addr:district": "浦东新区", "addr:housenumber": "680号", "addr:province": "上海市", "addr:street": "巨野路", "amenity": "kindergarten", "name": "小螺号幼儿园(羽山部)"}}, {"type": "way", "id": 872868845, "center": {"lat": 31.2295547, "lon": 121.5650244}, "nodes": [8163532982, 3071469800, 8128321770, 8173397064, 8173397062, 8173397063, 8128321771, 4096502121, 8163532982], "tags": {"addr:city": "上海", "addr:district": "浦东新区", "addr:housenumber": "50号", "addr:province": "上海市", "addr:street": "锦绣路", "amenity": "kindergarten", "name": "浦东新区东方幼儿园（仁恒部）", "phone": "+86 21 6856 8510"}}, {"type": "way", "id": 876155189, "center": {"lat": 31.2257138, "lon": 121.5224291}, "nodes": [8154654653, 13144022631, 8154654655, 8154654656, 8154654657, 8154654669, 8154654658, 8154654653], "tags": {"amenity": "school", "name": "洋泾中学东校"}}, {"type": "way", "id": 876155190, "center": {"lat": 31.2240694, "lon": 121.5219153},